[
  {
    "source_id": "ChIJ1dctBE66LBMRYD-M3IRBi9M",
    "name": "Venturi SAS di Venturi Piero & C.",
    "category": "Venturi SAS di Venturi Piero & C.",
    "formatted_address": "4,3(64)",
    "phone_number": "+390547311136",
    "source_url": "https://www.google.com/maps/place/Venturi+SAS+di+Venturi+Piero+%26+C./data=!4m7!3m6!1s0x132cba4e042dd7d5:0xd38b4184dc8c3f60!8m2!3d44.1516799!4d12.3126239!16s%2Fg%2F11csb23jzd!19sChIJ1dctBE66LBMRYD-M3IRBi9M?authuser=0&hl=tr&rclk=1",
    "website_url": "https://www.venturi.fc.it/",
    "rating_text": "4,3",
    "stars": null,
    "number_of_reviews": null,
    "price_level": "",
    "open_hours": "",
    "extraction_timestamp": "2025-06-07T16:13:58.533Z",
    "source_name": "google",
    "source_query": "Irrigation Equipment",
    "source_country": "IT",
    "country": "Italy",
    "state": "Emilia-Romagna",
    "city": "Cesena"
  },
  {
    "source_id": "ChIJvcDem-ikLBMRGr--H_X5Hms",
    "name": "Water Team S.r.l.",
    "category": "Water Team S.r.l.",
    "formatted_address": "5,0(3)",
    "phone_number": "+390547601040",
    "source_url": "https://www.google.com/maps/place/Water+Team+S.r.l./data=!4m7!3m6!1s0x132ca4e89bdec0bd:0x6b1ef9f51fbebf1a!8m2!3d44.1552421!4d12.2123603!16s%2Fg%2F1tfdvh1_!19sChIJvcDem-ikLBMRGr--H_X5Hms?authuser=0&hl=tr&rclk=1",
    "website_url": "https://www.waterteam.it/",
    "rating_text": "5,0",
    "stars": null,
    "number_of_reviews": null,
    "price_level": "",
    "open_hours": "",
    "extraction_timestamp": "2025-06-07T16:13:58.534Z",
    "source_name": "google",
    "source_query": "Irrigation Equipment",
    "source_country": "IT",
    "country": "Italy",
    "state": "Emilia-Romagna",
    "city": "Cesena"
  },
  {
    "source_id": "ChIJ1xYfYTK7LBMRH8fF3soqxIc",
    "name": "Caselli Mirco",
    "category": "Caselli Mirco",
    "formatted_address": "4,7(75)",
    "phone_number": "+390547645010",
    "source_url": "https://www.google.com/maps/place/Caselli+Mirco/data=!4m7!3m6!1s0x132cbb32611f16d7:0x87c42acadec5c71f!8m2!3d44.1180337!4d12.306261!16s%2Fg%2F1hc61vjd1!19sChIJ1xYfYTK7LBMRH8fF3soqxIc?authuser=0&hl=tr&rclk=1",
    "website_url": "",
    "rating_text": "4,7",
    "stars": null,
    "number_of_reviews": null,
    "price_level": "",
    "open_hours": "",
    "extraction_timestamp": "2025-06-07T16:13:58.535Z",
    "source_name": "google",
    "source_query": "Irrigation Equipment",
    "source_country": "IT",
    "country": "Italy",
    "state": "Emilia-Romagna",
    "city": "Cesena"
  },
  {
    "source_id": "ChIJAbwfMgi8LBMRioiar71f0bM",
    "name": "Calandrini Irrigazioni",
    "category": "Calandrini Irrigazioni",
    "formatted_address": "4,4(18)",
    "phone_number": "+39054756150",
    "source_url": "https://www.google.com/maps/place/Calandrini+Irrigazioni/data=!4m7!3m6!1s0x132cbc08321fbc01:0xb3d15fbdaf9a888a!8m2!3d44.1072556!4d12.3324437!16s%2Fg%2F1td0k7ly!19sChIJAbwfMgi8LBMRioiar71f0bM?authuser=0&hl=tr&rclk=1",
    "website_url": "https://www.irrigazionicalandrini.it/",
    "rating_text": "4,4",
    "stars": null,
    "number_of_reviews": null,
    "price_level": "",
    "open_hours": "",
    "extraction_timestamp": "2025-06-07T16:13:58.537Z",
    "source_name": "google",
    "source_query": "Irrigation Equipment",
    "source_country": "IT",
    "country": "Italy",
    "state": "Emilia-Romagna",
    "city": "Cesena"
  },
  {
    "source_id": "ChIJ68i18nq6LBMRHr0Y1_62DLE",
    "name": "Lineaverde s.a.s. di Fantini Marina",
    "category": "Lineaverde s.a.s. di Fantini Marina",
    "formatted_address": "4,8(24)",
    "phone_number": "+390547322071",
    "source_url": "https://www.google.com/maps/place/Lineaverde+s.a.s.+di+Fantini+Marina/data=!4m7!3m6!1s0x132cba7af2b5c8eb:0xb10cb6fed718bd1e!8m2!3d44.176567!4d12.3105783!16s%2Fg%2F11d_25mn6t!19sChIJ68i18nq6LBMRHr0Y1_62DLE?authuser=0&hl=tr&rclk=1",
    "website_url": "http://www.lineaverdecesena.it/",
    "rating_text": "4,8",
    "stars": null,
    "number_of_reviews": null,
    "price_level": "",
    "open_hours": "",
    "extraction_timestamp": "2025-06-07T16:13:58.538Z",
    "source_name": "google",
    "source_query": "Irrigation Equipment",
    "source_country": "IT",
    "country": "Italy",
    "state": "Emilia-Romagna",
    "city": "Cesena"
  },
  {
    "source_id": "ChIJKwHMRNikLBMREg7DTn3abu8",
    "name": "R.T.N. di Gabriele Parentelli ed Amos Venzi",
    "category": "R.T.N. di Gabriele Parentelli ed Amos Venzi",
    "formatted_address": "4,6(56)",
    "phone_number": "+390547632921",
    "source_url": "https://www.google.com/maps/place/R.T.N.+di+Gabriele+Parentelli+ed+Amos+Venzi/data=!4m7!3m6!1s0x132ca4d844cc012b:0xef6eda7d4ec30e12!8m2!3d44.1527741!4d12.2412461!16s%2Fg%2F11cs2wyglx!19sChIJKwHMRNikLBMREg7DTn3abu8?authuser=0&hl=tr&rclk=1",
    "website_url": "",
    "rating_text": "4,6",
    "stars": null,
    "number_of_reviews": null,
    "price_level": "",
    "open_hours": "",
    "extraction_timestamp": "2025-06-07T16:13:58.539Z",
    "source_name": "google",
    "source_query": "Irrigation Equipment",
    "source_country": "IT",
    "country": "Italy",
    "state": "Emilia-Romagna",
    "city": "Cesena"
  },
  {
    "source_id": "ChIJ85cgpku6LBMRfX081ZX-wQQ",
    "name": "Idroget Atomizzatori Di Bianchi Carlo E C. (S.N.C.)",
    "category": "Idroget Atomizzatori Di Bianchi Carlo E C. (S.N.C.)",
    "formatted_address": "4,7(10)",
    "phone_number": "+390547300163",
    "source_url": "https://www.google.com/maps/place/Idroget+Atomizzatori+Di+Bianchi+Carlo+E+C.+%28S.N.C.%29/data=!4m7!3m6!1s0x132cba4ba62097f3:0x4c1fe95d53c7d7d!8m2!3d44.1418046!4d12.3078685!16s%2Fg%2F11b6j8p8p3!19sChIJ85cgpku6LBMRfX081ZX-wQQ?authuser=0&hl=tr&rclk=1",
    "website_url": "http://www.idroget.it/",
    "rating_text": "4,7",
    "stars": null,
    "number_of_reviews": null,
    "price_level": "",
    "open_hours": "",
    "extraction_timestamp": "2025-06-07T16:13:58.540Z",
    "source_name": "google",
    "source_query": "Irrigation Equipment",
    "source_country": "IT",
    "country": "Italy",
    "state": "Emilia-Romagna",
    "city": "Cesena"
  },
  {
    "source_id": "ChIJxwyfbMW-LBMR82ivWDKLyak",
    "name": "Campedelli srl",
    "category": "Campedelli srl",
    "formatted_address": "4,3(20)",
    "phone_number": "+390541945180",
    "source_url": "https://www.google.com/maps/place/Campedelli+srl/data=!4m7!3m6!1s0x132cbec56c9f0cc7:0xa9c98b3258af68f3!8m2!3d44.0913771!4d12.3790216!16s%2Fg%2F1td55wfn!19sChIJxwyfbMW-LBMR82ivWDKLyak?authuser=0&hl=tr&rclk=1",
    "website_url": "https://www.facebook.com/pg/campedellisrl.savignanosulrubicone/community/",
    "rating_text": "4,3",
    "stars": null,
    "number_of_reviews": null,
    "price_level": "",
    "open_hours": "",
    "extraction_timestamp": "2025-06-07T16:13:58.540Z",
    "source_name": "google",
    "source_query": "Irrigation Equipment",
    "source_country": "IT",
    "country": "Italy",
    "state": "Emilia-Romagna",
    "city": "Cesena"
  },
  {
    "source_id": "ChIJ9eBBE1GkLBMR9rJbIbGEPpg",
    "name": "Gardenia Service Di Montanari Enrico",
    "category": "Gardenia Service Di Montanari Enrico",
    "formatted_address": "4,2(32)",
    "phone_number": "+390547347588",
    "source_url": "https://www.google.com/maps/place/Gardenia+Service+Di+Montanari+Enrico/data=!4m7!3m6!1s0x132ca4511341e0f5:0x983e84b1215bb2f6!8m2!3d44.152884!4d12.201026!16s%2Fg%2F1tglcz8g!19sChIJ9eBBE1GkLBMR9rJbIbGEPpg?authuser=0&hl=tr&rclk=1",
    "website_url": "http://shop.gardeniacentrogiardinaggio.com/",
    "rating_text": "4,2",
    "stars": null,
    "number_of_reviews": null,
    "price_level": "",
    "open_hours": "",
    "extraction_timestamp": "2025-06-07T16:13:58.541Z",
    "source_name": "google",
    "source_query": "Irrigation Equipment",
    "source_country": "IT",
    "country": "Italy",
    "state": "Emilia-Romagna",
    "city": "Cesena"
  },
  {
    "source_id": "ChIJO9LZplClLBMRoc5mYg6AFeY",
    "name": "Irrigazione Balestra Di Battistini Filippo & Francesca SNC",
    "category": "Irrigazione Balestra Di Battistini Filippo & Francesca SNC",
    "formatted_address": "4,6(14)",
    "phone_number": "+390547384176",
    "source_url": "https://www.google.com/maps/place/Irrigazione+Balestra+Di+Battistini+Filippo+%26+Francesca+SNC/data=!4m7!3m6!1s0x132ca550a6d9d23b:0xe615800e6266cea1!8m2!3d44.1861044!4d12.2437073!16s%2Fg%2F1tf90qkj!19sChIJO9LZplClLBMRoc5mYg6AFeY?authuser=0&hl=tr&rclk=1",
    "website_url": "http://www.irrigazionebalestra.it/public/contatti.php?pagina=contatti",
    "rating_text": "4,6",
    "stars": null,
    "number_of_reviews": null,
    "price_level": "",
    "open_hours": "",
    "extraction_timestamp": "2025-06-07T16:13:58.542Z",
    "source_name": "google",
    "source_query": "Irrigation Equipment",
    "source_country": "IT",
    "country": "Italy",
    "state": "Emilia-Romagna",
    "city": "Cesena"
  },
  {
    "source_id": "ChIJ9_8WpdukLBMRe5VYewingpI",
    "name": "Wonderfil Srl",
    "category": "Wonderfil Srl",
    "formatted_address": "5,0(6)",
    "phone_number": "+3905471825765",
    "source_url": "https://www.google.com/maps/place/Wonderfil+Srl/data=!4m7!3m6!1s0x132ca4dba516fff7:0x9282a7087b58957b!8m2!3d44.1300657!4d12.2759086!16s%2Fg%2F11h35pg5s7!19sChIJ9_8WpdukLBMRe5VYewingpI?authuser=0&hl=tr&rclk=1",
    "website_url": "http://www.wonderfil.it/",
    "rating_text": "5,0",
    "stars": null,
    "number_of_reviews": null,
    "price_level": "",
    "open_hours": "",
    "extraction_timestamp": "2025-06-07T16:13:58.543Z",
    "source_name": "google",
    "source_query": "Irrigation Equipment",
    "source_country": "IT",
    "country": "Italy",
    "state": "Emilia-Romagna",
    "city": "Cesena"
  },
  {
    "source_id": "ChIJtZiO98ykLBMRoJ8f8RoghNk",
    "name": "S.E.A.C.",
    "category": "S.E.A.C.",
    "formatted_address": "4,3(20)",
    "phone_number": "+39054726742",
    "source_url": "https://www.google.com/maps/place/S.E.A.C./data=!4m7!3m6!1s0x132ca4ccf78e98b5:0xd984201af11f9fa0!8m2!3d44.1402218!4d12.2904113!16s%2Fg%2F1tf2nw28!19sChIJtZiO98ykLBMRoJ8f8RoghNk?authuser=0&hl=tr&rclk=1",
    "website_url": "https://seacsrl.it/contatti/",
    "rating_text": "4,3",
    "stars": null,
    "number_of_reviews": null,
    "price_level": "",
    "open_hours": "",
    "extraction_timestamp": "2025-06-07T16:13:58.543Z",
    "source_name": "google",
    "source_query": "Irrigation Equipment",
    "source_country": "IT",
    "country": "Italy",
    "state": "Emilia-Romagna",
    "city": "Cesena"
  },
  {
    "source_id": "ChIJs_mkfSalLBMRNBbPN7Tn4Fg",
    "name": "Ghiselli Ivan Macchine da Giardino",
    "category": "Ghiselli Ivan Macchine da Giardino",
    "formatted_address": "4,8(73)",
    "phone_number": "+390547381391",
    "source_url": "https://www.google.com/maps/place/Ghiselli+Ivan+Macchine+da+Giardino/data=!4m7!3m6!1s0x132ca5267da4f9b3:0x58e0e7b437cf1634!8m2!3d44.1588454!4d12.2405086!16s%2Fg%2F1tjbv92d!19sChIJs_mkfSalLBMRNBbPN7Tn4Fg?authuser=0&hl=tr&rclk=1",
    "website_url": "",
    "rating_text": "4,8",
    "stars": null,
    "number_of_reviews": null,
    "price_level": "",
    "open_hours": "",
    "extraction_timestamp": "2025-06-07T16:13:58.544Z",
    "source_name": "google",
    "source_query": "Irrigation Equipment",
    "source_country": "IT",
    "country": "Italy",
    "state": "Emilia-Romagna",
    "city": "Cesena"
  },
  {
    "source_id": "ChIJMaG-OgWlLBMR9aqq4v8hhz4",
    "name": "Idraulica Placucci Srl Cesena forniture termoidrauliche",
    "category": "Idraulica Placucci Srl Cesena forniture termoidrauliche",
    "formatted_address": "4,6(63)",
    "phone_number": "+390547312089",
    "source_url": "https://www.google.com/maps/place/Idraulica+Placucci+Srl+Cesena+forniture+termoidrauliche/data=!4m7!3m6!1s0x132ca5053abea131:0x3e8721ffe2aaaaf5!8m2!3d44.1652927!4d12.2199399!16s%2Fg%2F1tf91ylz!19sChIJMaG-OgWlLBMR9aqq4v8hhz4?authuser=0&hl=tr&rclk=1",
    "website_url": "https://www.idroplacucci.it/it",
    "rating_text": "4,6",
    "stars": null,
    "number_of_reviews": null,
    "price_level": "",
    "open_hours": "",
    "extraction_timestamp": "2025-06-07T16:13:58.545Z",
    "source_name": "google",
    "source_query": "Irrigation Equipment",
    "source_country": "IT",
    "country": "Italy",
    "state": "Emilia-Romagna",
    "city": "Cesena"
  },
  {
    "source_id": "ChIJy4AVn9C-LBMRn6nsnuZl82A",
    "name": "Ramilli Irrigazioni S.R.L.",
    "category": "Ramilli Irrigazioni S.R.L.",
    "formatted_address": "4,3(52)",
    "phone_number": "+390541945335",
    "source_url": "https://www.google.com/maps/place/Ramilli+Irrigazioni+S.R.L./data=!4m7!3m6!1s0x132cbed09f1580cb:0x60f365e69eeca99f!8m2!3d44.0923156!4d12.3843691!16s%2Fg%2F1ts2ls1r!19sChIJy4AVn9C-LBMRn6nsnuZl82A?authuser=0&hl=tr&rclk=1",
    "website_url": "https://www.ramilli.it/",
    "rating_text": "4,3",
    "stars": null,
    "number_of_reviews": null,
    "price_level": "",
    "open_hours": "",
    "extraction_timestamp": "2025-06-07T16:13:58.546Z",
    "source_name": "google",
    "source_query": "Irrigation Equipment",
    "source_country": "IT",
    "country": "Italy",
    "state": "Emilia-Romagna",
    "city": "Cesena"
  },
  {
    "source_id": "ChIJTQLNKm68LBMRxRkbjcNqsDQ",
    "name": "Bazzocchi",
    "category": "Bazzocchi",
    "formatted_address": "5,0(1)",
    "phone_number": "+393393056970",
    "source_url": "https://www.google.com/maps/place/Bazzocchi/data=!4m7!3m6!1s0x132cbc6e2acd024d:0x34b06ac38d1b19c5!8m2!3d44.1084091!4d12.3171967!16s%2Fg%2F1tcyzvr3!19sChIJTQLNKm68LBMRxRkbjcNqsDQ?authuser=0&hl=tr&rclk=1",
    "website_url": "http://www.bazzocchisrl.it/",
    "rating_text": "5,0",
    "stars": null,
    "number_of_reviews": null,
    "price_level": "",
    "open_hours": "",
    "extraction_timestamp": "2025-06-07T16:13:58.546Z",
    "source_name": "google",
    "source_query": "Irrigation Equipment",
    "source_country": "IT",
    "country": "Italy",
    "state": "Emilia-Romagna",
    "city": "Cesena"
  },
  {
    "source_id": "ChIJs76_zwS7LBMRGSy39o8p26U",
    "name": "Elettromeccanica Strada",
    "category": "Elettromeccanica Strada",
    "formatted_address": "4,0(3)",
    "phone_number": "+393478576088",
    "source_url": "https://www.google.com/maps/place/Elettromeccanica+Strada/data=!4m7!3m6!1s0x132cbb04cfbfbeb3:0xa5db298ff6b72c19!8m2!3d44.1186373!4d12.2562384!16s%2Fg%2F11pqcdz2x5!19sChIJs76_zwS7LBMRGSy39o8p26U?authuser=0&hl=tr&rclk=1",
    "website_url": "https://elettromeccanicastrada.myadj.it/",
    "rating_text": "4,0",
    "stars": null,
    "number_of_reviews": null,
    "price_level": "",
    "open_hours": "",
    "extraction_timestamp": "2025-06-07T16:13:58.547Z",
    "source_name": "google",
    "source_query": "Irrigation Equipment",
    "source_country": "IT",
    "country": "Italy",
    "state": "Emilia-Romagna",
    "city": "Cesena"
  },
  {
    "source_id": "ChIJgffGccWkLBMRWvzGQx0UvtI",
    "name": "Benaglia S.A.S. Di Benaglia Franco E C.",
    "category": "Benaglia S.A.S. Di Benaglia Franco E C.",
    "formatted_address": "4,5(54)",
    "phone_number": "+390547611390",
    "source_url": "https://www.google.com/maps/place/Benaglia+S.A.S.+Di+Benaglia+Franco+E+C./data=!4m7!3m6!1s0x132ca4c571c6f781:0xd2be141d43c6fc5a!8m2!3d44.1430377!4d12.2423849!16s%2Fg%2F1tfnk1lx!19sChIJgffGccWkLBMRWvzGQx0UvtI?authuser=0&hl=tr&rclk=1",
    "website_url": "",
    "rating_text": "4,5",
    "stars": null,
    "number_of_reviews": null,
    "price_level": "",
    "open_hours": "",
    "extraction_timestamp": "2025-06-07T16:13:58.548Z",
    "source_name": "google",
    "source_query": "Irrigation Equipment",
    "source_country": "IT",
    "country": "Italy",
    "state": "Emilia-Romagna",
    "city": "Cesena"
  },
  {
    "source_id": "ChIJiZxgSvakLBMRWv3xienVEPE",
    "name": "Consorzio Agrario Adriatico - Tutto Giardino",
    "category": "Consorzio Agrario Adriatico - Tutto Giardino",
    "formatted_address": "4,5(38)",
    "phone_number": "+390547631988",
    "source_url": "https://www.google.com/maps/place/Consorzio+Agrario+Adriatico+-+Tutto+Giardino/data=!4m7!3m6!1s0x132ca4f64a609c89:0xf110d5e989f1fd5a!8m2!3d44.1457244!4d12.2107023!16s%2Fg%2F11dxd2x168!19sChIJiZxgSvakLBMRWv3xienVEPE?authuser=0&hl=tr&rclk=1",
    "website_url": "http://www.consorzioagrario.it/la-struttura-operativa/",
    "rating_text": "4,5",
    "stars": null,
    "number_of_reviews": null,
    "price_level": "",
    "open_hours": "",
    "extraction_timestamp": "2025-06-07T16:13:58.548Z",
    "source_name": "google",
    "source_query": "Irrigation Equipment",
    "source_country": "IT",
    "country": "Italy",
    "state": "Emilia-Romagna",
    "city": "Cesena"
  },
  {
    "source_id": "ChIJ26uxlTulLBMRvXITxnpci0A",
    "name": "Idro Zeta - Sala Esposizione - Cesena",
    "category": "Idro Zeta - Sala Esposizione - Cesena",
    "formatted_address": "4,5(11)",
    "phone_number": "+390547380422",
    "source_url": "https://www.google.com/maps/place/Idro+Zeta+-+Sala+Esposizione+-+Cesena/data=!4m7!3m6!1s0x132ca53b95b1abdb:0x408b5c7ac61372bd!8m2!3d44.1514326!4d12.2444249!16s%2Fg%2F11j61g3cxk!19sChIJ26uxlTulLBMRvXITxnpci0A?authuser=0&hl=tr&rclk=1",
    "website_url": "http://www.idrozetashop.it/",
    "rating_text": "4,5",
    "stars": null,
    "number_of_reviews": null,
    "price_level": "",
    "open_hours": "",
    "extraction_timestamp": "2025-06-07T16:13:58.549Z",
    "source_name": "google",
    "source_query": "Irrigation Equipment",
    "source_country": "IT",
    "country": "Italy",
    "state": "Emilia-Romagna",
    "city": "Cesena"
  },
  {
    "source_id": "ChIJ-esXvMSkLBMRA1zlUOc4I5A",
    "name": "Supermercato Ipercoop",
    "category": "Supermercato Ipercoop",
    "formatted_address": "4,1(2.225)",
    "phone_number": "+390547365011",
    "source_url": "https://www.google.com/maps/place/Supermercato+Ipercoop/data=!4m7!3m6!1s0x132ca4c4bc17ebf9:0x902338e750e55c03!8m2!3d44.1443083!4d12.2383691!16s%2Fg%2F1tg_6qy7!19sChIJ-esXvMSkLBMRA1zlUOc4I5A?authuser=0&hl=tr&rclk=1",
    "website_url": "https://www.coopalleanza3-0.it/volantino/featured/2560-ipercoop-lungo-savio.html?utm_campaign=offerte-volantino&utm_content=2560&utm_medium=gmb&utm_source=google",
    "rating_text": "4,1",
    "stars": null,
    "number_of_reviews": null,
    "price_level": "",
    "open_hours": "",
    "extraction_timestamp": "2025-06-07T16:13:58.551Z",
    "source_name": "google",
    "source_query": "Irrigation Equipment",
    "source_country": "IT",
    "country": "Italy",
    "state": "Emilia-Romagna",
    "city": "Cesena"
  },
  {
    "source_id": "ChIJHz3KVJ-7LBMRmGzOysG9twg",
    "name": "Sintegra Ingegnerie S.r.l.",
    "category": "Sintegra Ingegnerie S.r.l.",
    "formatted_address": "3,3(3)",
    "phone_number": "+3905431900818",
    "source_url": "https://www.google.com/maps/place/Sintegra+Ingegnerie+S.r.l./data=!4m7!3m6!1s0x132cbb9f54ca3d1f:0x8b7bdc1cace6c98!8m2!3d44.1693336!4d12.281488!16s%2Fg%2F11fjtvw_mb!19sChIJHz3KVJ-7LBMRmGzOysG9twg?authuser=0&hl=tr&rclk=1",
    "website_url": "",
    "rating_text": "3,3",
    "stars": null,
    "number_of_reviews": null,
    "price_level": "",
    "open_hours": "",
    "extraction_timestamp": "2025-06-07T16:13:58.552Z",
    "source_name": "google",
    "source_query": "Irrigation Equipment",
    "source_country": "IT",
    "country": "Italy",
    "state": "Emilia-Romagna",
    "city": "Cesena"
  },
  {
    "source_id": "ChIJf2Fg16elLBMRhsuUMXxFksA",
    "name": "Brothers Bissioni Srl",
    "category": "Brothers Bissioni Srl",
    "formatted_address": "4,3(148)",
    "phone_number": "+390547317123",
    "source_url": "https://www.google.com/maps/place/Brothers+Bissioni+Srl/data=!4m7!3m6!1s0x132ca5a7d760617f:0xc092457c3194cb86!8m2!3d44.1677703!4d12.2076254!16s%2Fg%2F1tdtx__7!19sChIJf2Fg16elLBMRhsuUMXxFksA?authuser=0&hl=tr&rclk=1",
    "website_url": "https://www.fratellibissioni.it/",
    "rating_text": "4,3",
    "stars": null,
    "number_of_reviews": null,
    "price_level": "",
    "open_hours": "",
    "extraction_timestamp": "2025-06-07T16:13:58.552Z",
    "source_name": "google",
    "source_query": "Irrigation Equipment",
    "source_country": "IT",
    "country": "Italy",
    "state": "Emilia-Romagna",
    "city": "Cesena"
  },
  {
    "source_id": "ChIJ6ZeBsBqlLBMRxPyH3uXxToA",
    "name": "Pieri Group Srl - Igiene & Comfort",
    "category": "Pieri Group Srl - Igiene & Comfort",
    "formatted_address": "4,5(28)",
    "phone_number": "+390547318754",
    "source_url": "https://www.google.com/maps/place/Pieri+Group+Srl+-+Igiene+%26+Comfort/data=!4m7!3m6!1s0x132ca51ab08197e9:0x804ef1e5de87fcc4!8m2!3d44.1672328!4d12.2036195!16s%2Fg%2F1tf4_04v!19sChIJ6ZeBsBqlLBMRxPyH3uXxToA?authuser=0&hl=tr&rclk=1",
    "website_url": "https://pieri-group.it/",
    "rating_text": "4,5",
    "stars": null,
    "number_of_reviews": null,
    "price_level": "",
    "open_hours": "",
    "extraction_timestamp": "2025-06-07T16:13:58.553Z",
    "source_name": "google",
    "source_query": "Irrigation Equipment",
    "source_country": "IT",
    "country": "Italy",
    "state": "Emilia-Romagna",
    "city": "Cesena"
  },
  {
    "source_id": "ChIJPz2cLUmwLBMRfO1Or_u9T7g",
    "name": "Amwayitalia di De lauro Gaetano",
    "category": "Amwayitalia di De lauro Gaetano",
    "formatted_address": "4,0(1)",
    "phone_number": "+393385636453",
    "source_url": "https://www.google.com/maps/place/Amwayitalia+di+De+lauro+Gaetano/data=!4m7!3m6!1s0x132cb0492d9c3d3f:0xb84fbdfbaf4eed7c!8m2!3d44.2181187!4d12.2843643!16s%2Fg%2F11gdyk0lgx!19sChIJPz2cLUmwLBMRfO1Or_u9T7g?authuser=0&hl=tr&rclk=1",
    "website_url": "",
    "rating_text": "4,0",
    "stars": null,
    "number_of_reviews": null,
    "price_level": "",
    "open_hours": "",
    "extraction_timestamp": "2025-06-07T16:13:58.554Z",
    "source_name": "google",
    "source_query": "Irrigation Equipment",
    "source_country": "IT",
    "country": "Italy",
    "state": "Emilia-Romagna",
    "city": "Cesena"
  },
  {
    "source_id": "ChIJIUt-IhqoLBMRtz1N8N5iFhI",
    "name": "Visani Idrosanitari - Magazzino",
    "category": "Visani Idrosanitari - Magazzino",
    "formatted_address": "4,5(95)",
    "phone_number": "+390543796651",
    "source_url": "https://www.google.com/maps/place/Visani+Idrosanitari+-+Magazzino/data=!4m7!3m6!1s0x132ca81a227e4b21:0x121662def04d3db7!8m2!3d44.2228204!4d12.0813478!16s%2Fg%2F11bc7r6d16!19sChIJIUt-IhqoLBMRtz1N8N5iFhI?authuser=0&hl=tr&rclk=1",
    "website_url": "https://www.visani.com/",
    "rating_text": "4,5",
    "stars": null,
    "number_of_reviews": null,
    "price_level": "",
    "open_hours": "",
    "extraction_timestamp": "2025-06-07T16:13:58.555Z",
    "source_name": "google",
    "source_query": "Irrigation Equipment",
    "source_country": "IT",
    "country": "Italy",
    "state": "Emilia-Romagna",
    "city": "Cesena"
  },
  {
    "source_id": "ChIJC0yrmXClLBMRAfJvTE5LdDE",
    "name": "TECNOWORK di Borghetti Andrea",
    "category": "TECNOWORK di Borghetti Andrea",
    "formatted_address": "5,0(1)",
    "phone_number": "+390547317550",
    "source_url": "https://www.google.com/maps/place/TECNOWORK+di+Borghetti+Andrea/data=!4m7!3m6!1s0x132ca57099ab4c0b:0x31744b4e4c6ff201!8m2!3d44.2222553!4d12.2659255!16s%2Fg%2F1tdhj1kw!19sChIJC0yrmXClLBMRAfJvTE5LdDE?authuser=0&hl=tr&rclk=1",
    "website_url": "http://tecnowork.org/",
    "rating_text": "5,0",
    "stars": null,
    "number_of_reviews": null,
    "price_level": "",
    "open_hours": "",
    "extraction_timestamp": "2025-06-07T16:13:58.555Z",
    "source_name": "google",
    "source_query": "Irrigation Equipment",
    "source_country": "IT",
    "country": "Italy",
    "state": "Emilia-Romagna",
    "city": "Cesena"
  },
  {
    "source_id": "ChIJE0racWWlLBMRCr4tO7OcFJA",
    "name": "Halfalaser",
    "category": "Halfalaser",
    "formatted_address": "5,0(89)",
    "phone_number": "+393714507666",
    "source_url": "https://www.google.com/maps/place/Halfalaser/data=!4m7!3m6!1s0x132ca56571da4a13:0x90149cb33b2dbe0a!8m2!3d44.1456407!4d12.2407539!16s%2Fg%2F11r6yz8jhm!19sChIJE0racWWlLBMRCr4tO7OcFJA?authuser=0&hl=tr&rclk=1",
    "website_url": "http://www.halfalaser.it/",
    "rating_text": "5,0",
    "stars": null,
    "number_of_reviews": null,
    "price_level": "",
    "open_hours": "",
    "extraction_timestamp": "2025-06-07T16:13:58.556Z",
    "source_name": "google",
    "source_query": "Irrigation Equipment",
    "source_country": "IT",
    "country": "Italy",
    "state": "Emilia-Romagna",
    "city": "Cesena"
  },
  {
    "source_id": "ChIJU0QvHetXKxMR8QaxM1nkXxk",
    "name": "Pet&Green Zoodiaco Rosetti",
    "category": "Pet&Green Zoodiaco Rosetti",
    "formatted_address": "4,3(124)",
    "phone_number": "+390547303582",
    "source_url": "https://www.google.com/maps/place/Pet%26Green+Zoodiaco+Rosetti/data=!4m7!3m6!1s0x132b57eb1d2f4453:0x195fe45933b106f1!8m2!3d44.1395801!4d12.2586976!16s%2Fg%2F119tjrzst!19sChIJU0QvHetXKxMR8QaxM1nkXxk?authuser=0&hl=tr&rclk=1",
    "website_url": "",
    "rating_text": "4,3",
    "stars": null,
    "number_of_reviews": null,
    "price_level": "",
    "open_hours": "",
    "extraction_timestamp": "2025-06-07T16:13:58.557Z",
    "source_name": "google",
    "source_query": "Irrigation Equipment",
    "source_country": "IT",
    "country": "Italy",
    "state": "Emilia-Romagna",
    "city": "Cesena"
  },
  {
    "source_id": "ChIJ4UIFK8mkLBMRQafj6i_IQTk",
    "name": "Atec.Clima di Zanoli Andrea & C. snc",
    "category": "Atec.Clima di Zanoli Andrea & C. snc",
    "formatted_address": "3,9(28)",
    "phone_number": "+390547335165",
    "source_url": "https://www.google.com/maps/place/Atec.Clima+di+Zanoli+Andrea+%26+C.+snc/data=!4m7!3m6!1s0x132ca4c92b0542e1:0x3941c82feae3a741!8m2!3d44.1330902!4d12.2134004!16s%2Fg%2F11c3mtdjk8!19sChIJ4UIFK8mkLBMRQafj6i_IQTk?authuser=0&hl=tr&rclk=1",
    "website_url": "http://www.atecclima.it/",
    "rating_text": "3,9",
    "stars": null,
    "number_of_reviews": null,
    "price_level": "",
    "open_hours": "",
    "extraction_timestamp": "2025-06-07T16:13:58.558Z",
    "source_name": "google",
    "source_query": "Irrigation Equipment",
    "source_country": "IT",
    "country": "Italy",
    "state": "Emilia-Romagna",
    "city": "Cesena"
  },
  {
    "source_id": "ChIJAe7_5SKoLBMRrrEmsAWatbY",
    "name": "Romagna Fissaggi",
    "category": "Romagna Fissaggi",
    "formatted_address": "4,8(15)",
    "phone_number": "+390543091323",
    "source_url": "https://www.google.com/maps/place/Romagna+Fissaggi/data=!4m7!3m6!1s0x132ca822e5ffee01:0xb6b59a05b026b1ae!8m2!3d44.2304278!4d12.0823148!16s%2Fg%2F11c6yzgdh_!19sChIJAe7_5SKoLBMRrrEmsAWatbY?authuser=0&hl=tr&rclk=1",
    "website_url": "",
    "rating_text": "4,8",
    "stars": null,
    "number_of_reviews": null,
    "price_level": "",
    "open_hours": "",
    "extraction_timestamp": "2025-06-07T16:13:58.558Z",
    "source_name": "google",
    "source_query": "Irrigation Equipment",
    "source_country": "IT",
    "country": "Italy",
    "state": "Emilia-Romagna",
    "city": "Cesena"
  }
]
