[
  {
    "source_id": "ChIJYYZwJt16fkcRrLpeLmXL8VA",
    "name": "Agri Market",
    "category": "Agri Market",
    "formatted_address": "4,5(19)",
    "phone_number": "+390533307985",
    "source_url": "https://www.google.com/maps/place/Agri+Market/data=!4m7!3m6!1s0x477e7add26708661:0x50f1cb652e5ebaac!8m2!3d44.8346286!4d12.1047359!16s%2Fg%2F1tr7bnfg!19sChIJYYZwJt16fkcRrLpeLmXL8VA?authuser=0&hl=tr&rclk=1",
    "website_url": "",
    "rating_text": "4,5",
    "stars": null,
    "number_of_reviews": null,
    "price_level": "",
    "open_hours": "",
    "extraction_timestamp": "2025-06-07T15:54:38.735Z",
    "source_name": "google",
    "source_query": "Irrigation Equipment",
    "source_country": "IT",
    "country": "Italy",
    "state": "Emilia-Romagna",
    "city": "Codigoro"
  },
  {
    "source_id": "ChIJ62l0h-96fkcRncNwQJjP3eo",
    "name": "BigMat M.A.P.E.F S.r.l",
    "category": "BigMat M.A.P.E.F S.r.l",
    "formatted_address": "4,1(62)",
    "phone_number": "+390533711195",
    "source_url": "https://www.google.com/maps/place/BigMat+M.A.P.E.F+S.r.l/data=!4m7!3m6!1s0x477e7aef877469eb:0xeaddcf984070c39d!8m2!3d44.8320413!4d12.1152269!16s%2Fg%2F1tj83pqx!19sChIJ62l0h-96fkcRncNwQJjP3eo?authuser=0&hl=tr&rclk=1",
    "website_url": "https://mapef.bigmat.it/",
    "rating_text": "4,1",
    "stars": null,
    "number_of_reviews": null,
    "price_level": "",
    "open_hours": "",
    "extraction_timestamp": "2025-06-07T15:54:38.736Z",
    "source_name": "google",
    "source_query": "Irrigation Equipment",
    "source_country": "IT",
    "country": "Italy",
    "state": "Emilia-Romagna",
    "city": "Codigoro"
  },
  {
    "source_id": "ChIJcQG6ul7df0cR3VxKiu5OPBs",
    "name": "Scova Impianti Srl",
    "category": "Scova Impianti Srl",
    "formatted_address": "4,5(64)",
    "phone_number": "+39059923202",
    "source_url": "https://www.google.com/maps/place/Scova+Impianti+Srl/data=!4m7!3m6!1s0x477fdd5ebaba0171:0x1b3c4eee8a4a5cdd!8m2!3d44.6018135!4d11.032294!16s%2Fg%2F1tfzwbfb!19sChIJcQG6ul7df0cR3VxKiu5OPBs?authuser=0&hl=tr&rclk=1",
    "website_url": "https://www.scovaimpianti.com/",
    "rating_text": "4,5",
    "stars": null,
    "number_of_reviews": null,
    "price_level": "",
    "open_hours": "",
    "extraction_timestamp": "2025-06-07T15:54:38.738Z",
    "source_name": "google",
    "source_query": "Irrigation Equipment",
    "source_country": "IT",
    "country": "Italy",
    "state": "Emilia-Romagna",
    "city": "Codigoro"
  },
  {
    "source_id": "ChIJKZtCsvp6fkcRYsDJdbvTtEc",
    "name": "Deltas Gas Service",
    "category": "Deltas Gas Service",
    "formatted_address": "Su Tesisatı Malzemeleri Satıcısı ·  · Via Pomposa Nord, 11Kapalı ⋅ Açılış zamanı: Pzt 08:30 · +39 0533 711655",
    "phone_number": "+390533711655",
    "source_url": "https://www.google.com/maps/place/Deltas+Gas+Service/data=!4m7!3m6!1s0x477e7afab2429b29:0x47b4d3bb75c9c062!8m2!3d44.8332767!4d12.1191824!16s%2Fg%2F11f11pqft4!19sChIJKZtCsvp6fkcRYsDJdbvTtEc?authuser=0&hl=tr&rclk=1",
    "website_url": "http://www.deltagas.it/",
    "rating_text": "",
    "stars": null,
    "number_of_reviews": null,
    "price_level": "",
    "open_hours": "",
    "extraction_timestamp": "2025-06-07T15:54:38.739Z",
    "source_name": "google",
    "source_query": "Irrigation Equipment",
    "source_country": "IT",
    "country": "Italy",
    "state": "Emilia-Romagna",
    "city": "Codigoro"
  },
  {
    "source_id": "ChIJh3Nd8G0sfkcR_m7VewEmxXM",
    "name": "Irrigarden",
    "category": "Irrigarden",
    "formatted_address": "4,7(158)",
    "phone_number": "+39051782013",
    "source_url": "https://www.google.com/maps/place/Irrigarden/data=!4m7!3m6!1s0x477e2c6df05d7387:0x73c526017bd56efe!8m2!3d44.5096266!4d11.4390897!16s%2Fg%2F1vgw_l7w!19sChIJh3Nd8G0sfkcR_m7VewEmxXM?authuser=0&hl=tr&rclk=1",
    "website_url": "https://www.irrigarden-bo.it/",
    "rating_text": "4,7",
    "stars": null,
    "number_of_reviews": null,
    "price_level": "",
    "open_hours": "",
    "extraction_timestamp": "2025-06-07T15:54:38.740Z",
    "source_name": "google",
    "source_query": "Irrigation Equipment",
    "source_country": "IT",
    "country": "Italy",
    "state": "Emilia-Romagna",
    "city": "Codigoro"
  },
  {
    "source_id": "ChIJFW3XPJejLBMRDpQWGwmYqU4",
    "name": "Raggini Irrigazioni e Robot Tosaerba",
    "category": "Raggini Irrigazioni e Robot Tosaerba",
    "formatted_address": "5,0(1)",
    "phone_number": "+393926808947",
    "source_url": "https://www.google.com/maps/place/Raggini+Irrigazioni+e+Robot+Tosaerba/data=!4m7!3m6!1s0x132ca3973cd76d15:0x4ea998091b16940e!8m2!3d44.36369!4d11.8460774!16s%2Fg%2F11dz0bbs9t!19sChIJFW3XPJejLBMRDpQWGwmYqU4?authuser=0&hl=tr&rclk=1",
    "website_url": "",
    "rating_text": "5,0",
    "stars": null,
    "number_of_reviews": null,
    "price_level": "",
    "open_hours": "",
    "extraction_timestamp": "2025-06-07T15:54:38.741Z",
    "source_name": "google",
    "source_query": "Irrigation Equipment",
    "source_country": "IT",
    "country": "Italy",
    "state": "Emilia-Romagna",
    "city": "Codigoro"
  },
  {
    "source_id": "ChIJy805WcDcgEcRtmGWlwosXQc",
    "name": "IRRIMEC SRL",
    "category": "IRRIMEC SRL",
    "formatted_address": "4,5(90)",
    "phone_number": "+390523760441",
    "source_url": "https://www.google.com/maps/place/IRRIMEC+SRL/data=!4m7!3m6!1s0x4780dcc05939cdcb:0x75d2c0a979661b6!8m2!3d45.0612353!4d9.630829!16s%2Fg%2F1tdgt7d_!19sChIJy805WcDcgEcRtmGWlwosXQc?authuser=0&hl=tr&rclk=1",
    "website_url": "http://www.irrimec.com/",
    "rating_text": "4,5",
    "stars": null,
    "number_of_reviews": null,
    "price_level": "",
    "open_hours": "",
    "extraction_timestamp": "2025-06-07T15:54:38.742Z",
    "source_name": "google",
    "source_query": "Irrigation Equipment",
    "source_country": "IT",
    "country": "Italy",
    "state": "Emilia-Romagna",
    "city": "Codigoro"
  },
  {
    "source_id": "ChIJc1dYhn5pfkcRjGkPGtcweT4",
    "name": "Impianto Idrovoro Tersallo",
    "category": "Impianto Idrovoro Tersallo",
    "formatted_address": "3,0(4)",
    "phone_number": "",
    "source_url": "https://www.google.com/maps/place/Impianto+Idrovoro+Tersallo/data=!4m7!3m6!1s0x477e697e86585773:0x3e7930d71a0f698c!8m2!3d44.7538874!4d11.9088418!16s%2Fg%2F11fzsjzw32!19sChIJc1dYhn5pfkcRjGkPGtcweT4?authuser=0&hl=tr&rclk=1",
    "website_url": "http://www.bonificaferrara.it/",
    "rating_text": "3,0",
    "stars": null,
    "number_of_reviews": null,
    "price_level": "",
    "open_hours": "",
    "extraction_timestamp": "2025-06-07T15:54:38.742Z",
    "source_name": "google",
    "source_query": "Irrigation Equipment",
    "source_country": "IT",
    "country": "Italy",
    "state": "Emilia-Romagna",
    "city": "Codigoro"
  },
  {
    "source_id": "ChIJyXgg68QrfkcRAaJCOMJ3PxY",
    "name": "hidrisistem",
    "category": "hidrisistem",
    "formatted_address": "5,0(1)",
    "phone_number": "+39366448310824",
    "source_url": "https://www.google.com/maps/place/hidrisistem/data=!4m7!3m6!1s0x477e2bc4eb2078c9:0x163f77c23842a201!8m2!3d44.496029!4d11.402638!16s%2Fg%2F11w_zjhjy3!19sChIJyXgg68QrfkcRAaJCOMJ3PxY?authuser=0&hl=tr&rclk=1",
    "website_url": "",
    "rating_text": "5,0",
    "stars": null,
    "number_of_reviews": null,
    "price_level": "",
    "open_hours": "",
    "extraction_timestamp": "2025-06-07T15:54:38.743Z",
    "source_name": "google",
    "source_query": "Irrigation Equipment",
    "source_country": "IT",
    "country": "Italy",
    "state": "Emilia-Romagna",
    "city": "Codigoro"
  },
  {
    "source_id": "ChIJm65Jq7t7fkcRnlpbP4VBd4o",
    "name": "Ferramenta L.F.",
    "category": "Ferramenta L.F.",
    "formatted_address": "4,9(27)",
    "phone_number": "+393498172987",
    "source_url": "https://www.google.com/maps/place/Ferramenta+L.F./data=!4m7!3m6!1s0x477e7bbbab49ae9b:0x8a7741853f5b5a9e!8m2!3d44.8316119!4d12.1090898!16s%2Fg%2F11q1r3crm4!19sChIJm65Jq7t7fkcRnlpbP4VBd4o?authuser=0&hl=tr&rclk=1",
    "website_url": "",
    "rating_text": "4,9",
    "stars": null,
    "number_of_reviews": null,
    "price_level": "",
    "open_hours": "",
    "extraction_timestamp": "2025-06-07T15:54:38.744Z",
    "source_name": "google",
    "source_query": "Irrigation Equipment",
    "source_country": "IT",
    "country": "Italy",
    "state": "Emilia-Romagna",
    "city": "Codigoro"
  },
  {
    "source_id": "ChIJJ6V6lMDgf0cR1SpFsfjDuHg",
    "name": "Ocmis Irrigazione Spa",
    "category": "Ocmis Irrigazione Spa",
    "formatted_address": "3,5(31)",
    "phone_number": "+39059702150",
    "source_url": "https://www.google.com/maps/place/Ocmis+Irrigazione+Spa/data=!4m7!3m6!1s0x477fe0c0947aa527:0x78b8c3f8b1452ad5!8m2!3d44.530494!4d10.9794578!16s%2Fg%2F1vd3tn19!19sChIJJ6V6lMDgf0cR1SpFsfjDuHg?authuser=0&hl=tr&rclk=1",
    "website_url": "http://www.ocmis-irrigazione.it/",
    "rating_text": "3,5",
    "stars": null,
    "number_of_reviews": null,
    "price_level": "",
    "open_hours": "",
    "extraction_timestamp": "2025-06-07T15:54:38.745Z",
    "source_name": "google",
    "source_query": "Irrigation Equipment",
    "source_country": "IT",
    "country": "Italy",
    "state": "Emilia-Romagna",
    "city": "Codigoro"
  },
  {
    "source_id": "ChIJtVDkNgRFgEcRqc6umwWIJuI",
    "name": "Rm Spa",
    "category": "Rm Spa",
    "formatted_address": "4,6(81)",
    "phone_number": "+390521872321",
    "source_url": "https://www.google.com/maps/place/Rm+Spa/data=!4m7!3m6!1s0x4780450436e450b5:0xe22688059baecea9!8m2!3d44.9105406!4d10.2583785!16s%2Fg%2F12hl93byl!19sChIJtVDkNgRFgEcRqc6umwWIJuI?authuser=0&hl=tr&rclk=1",
    "website_url": "http://www.rmirrigation.com/",
    "rating_text": "4,6",
    "stars": null,
    "number_of_reviews": null,
    "price_level": "",
    "open_hours": "",
    "extraction_timestamp": "2025-06-07T15:54:38.746Z",
    "source_name": "google",
    "source_query": "Irrigation Equipment",
    "source_country": "IT",
    "country": "Italy",
    "state": "Emilia-Romagna",
    "city": "Codigoro"
  },
  {
    "source_id": "ChIJISlyN8fVfkcRP1ghb3uyg-o",
    "name": "Import Irrigation Systems S.R.L.",
    "category": "Import Irrigation Systems S.R.L.",
    "formatted_address": "Üretici ·  · Via Salvo d'Acquisto, 5Kapalı ⋅ Açılış zamanı: Pzt 08:30 · +39 049 559 1020",
    "phone_number": "+390495591020",
    "source_url": "https://www.google.com/maps/place/Import+Irrigation+Systems+S.R.L./data=!4m7!3m6!1s0x477ed5c737722921:0xea83b27b6f21583f!8m2!3d45.5362842!4d11.825368!16s%2Fg%2F1tsjchn3!19sChIJISlyN8fVfkcRP1ghb3uyg-o?authuser=0&hl=tr&rclk=1",
    "website_url": "http://www.importirrigation.com/",
    "rating_text": "",
    "stars": null,
    "number_of_reviews": null,
    "price_level": "",
    "open_hours": "",
    "extraction_timestamp": "2025-06-07T15:54:38.747Z",
    "source_name": "google",
    "source_query": "Irrigation Equipment",
    "source_country": "IT",
    "country": "Italy",
    "state": "Emilia-Romagna",
    "city": "Codigoro"
  },
  {
    "source_id": "ChIJL7jDDcN6fkcRyF5N6UpeXqI",
    "name": "Telloli Giuseppe & C. Snc Sinergy",
    "category": "Telloli Giuseppe & C. Snc Sinergy",
    "formatted_address": "4,4(37)",
    "phone_number": "+390533711774",
    "source_url": "https://www.google.com/maps/place/Telloli+Giuseppe+%26+C.+Snc+Sinergy/data=!4m7!3m6!1s0x477e7ac30dc3b82f:0xa25e5e4ae94d5ec8!8m2!3d44.8322383!4d12.1014678!16s%2Fg%2F11b6hxcw94!19sChIJL7jDDcN6fkcRyF5N6UpeXqI?authuser=0&hl=tr&rclk=1",
    "website_url": "https://www.sinergy-store.com/store-locator/telloli--?utm_source=GBP&utm_medium=ORGANIC&utm_campaign=TELLOLI",
    "rating_text": "4,4",
    "stars": null,
    "number_of_reviews": null,
    "price_level": "",
    "open_hours": "",
    "extraction_timestamp": "2025-06-07T15:54:38.748Z",
    "source_name": "google",
    "source_query": "Irrigation Equipment",
    "source_country": "IT",
    "country": "Italy",
    "state": "Emilia-Romagna",
    "city": "Codigoro"
  },
  {
    "source_id": "ChIJ10sD7ytxfkcRk0h-LdImkRc",
    "name": "Aziende Agricole Guidi",
    "category": "Aziende Agricole Guidi",
    "formatted_address": "4,0(2)",
    "phone_number": "+390533713198",
    "source_url": "https://www.google.com/maps/place/Aziende+Agricole+Guidi/data=!4m7!3m6!1s0x477e712bef034bd7:0x179126d22d7e4893!8m2!3d44.8314878!4d12.1050596!16s%2Fg%2F1tf85x_w!19sChIJ10sD7ytxfkcRk0h-LdImkRc?authuser=0&hl=tr&rclk=1",
    "website_url": "",
    "rating_text": "4,0",
    "stars": null,
    "number_of_reviews": null,
    "price_level": "",
    "open_hours": "",
    "extraction_timestamp": "2025-06-07T15:54:38.748Z",
    "source_name": "google",
    "source_query": "Irrigation Equipment",
    "source_country": "IT",
    "country": "Italy",
    "state": "Emilia-Romagna",
    "city": "Codigoro"
  },
  {
    "source_id": "ChIJ9UUptR97fkcRsjMNMx4QbSc",
    "name": "SAF - Negozio di Batterie e Officina a Codigoro",
    "category": "SAF - Negozio di Batterie e Officina a Codigoro",
    "formatted_address": "3,8(51)",
    "phone_number": "+390533700425",
    "source_url": "https://www.google.com/maps/place/SAF+-+Negozio+di+Batterie+e+Officina+a+Codigoro/data=!4m7!3m6!1s0x477e7b1fb52945f5:0x276d101e330d33b2!8m2!3d44.832313!4d12.111997!16s%2Fg%2F11j0njc_3n!19sChIJ9UUptR97fkcRsjMNMx4QbSc?authuser=0&hl=tr&rclk=1",
    "website_url": "https://safitaly.net/codigoro/",
    "rating_text": "3,8",
    "stars": null,
    "number_of_reviews": null,
    "price_level": "",
    "open_hours": "",
    "extraction_timestamp": "2025-06-07T15:54:38.750Z",
    "source_name": "google",
    "source_query": "Irrigation Equipment",
    "source_country": "IT",
    "country": "Italy",
    "state": "Emilia-Romagna",
    "city": "Codigoro"
  }
]
