[
  {
    "source_id": "ChIJtVDkNgRFgEcRqc6umwWIJuI",
    "name": "Rm Spa",
    "category": "Rm Spa",
    "formatted_address": "4,6(81)",
    "phone_number": "+390521872321",
    "source_url": "https://www.google.com/maps/place/Rm+Spa/data=!4m7!3m6!1s0x4780450436e450b5:0xe22688059baecea9!8m2!3d44.9105406!4d10.2583785!16s%2Fg%2F12hl93byl!19sChIJtVDkNgRFgEcRqc6umwWIJuI?authuser=0&hl=tr&rclk=1",
    "website_url": "http://www.rmirrigation.com/",
    "rating_text": "4,6",
    "stars": null,
    "number_of_reviews": null,
    "price_level": "",
    "open_hours": "",
    "extraction_timestamp": "2025-06-07T15:45:38.316Z",
    "source_name": "google",
    "source_query": "Irrigation Equipment",
    "source_country": "IT",
    "country": "Italy",
    "state": "Emilia-Romagna",
    "city": "Collecchio"
  },
  {
    "source_id": "ChIJjyfRYOdugEcRNCQvDJBxXgk",
    "name": "Italfer Group SRL",
    "category": "Italfer Group SRL",
    "formatted_address": "5,0(2)",
    "phone_number": "+390521806040",
    "source_url": "https://www.google.com/maps/place/Italfer+Group+SRL/data=!4m7!3m6!1s0x47806ee760d1278f:0x95e71900c2f2434!8m2!3d44.7493667!4d10.2037839!16s%2Fg%2F11clsmvqvq!19sChIJjyfRYOdugEcRNCQvDJBxXgk?authuser=0&hl=tr&rclk=1",
    "website_url": "http://www.italferparma.com/",
    "rating_text": "5,0",
    "stars": null,
    "number_of_reviews": null,
    "price_level": "",
    "open_hours": "",
    "extraction_timestamp": "2025-06-07T15:45:38.332Z",
    "source_name": "google",
    "source_query": "Irrigation Equipment",
    "source_country": "IT",
    "country": "Italy",
    "state": "Emilia-Romagna",
    "city": "Collecchio"
  },
  {
    "source_id": "ChIJT0kMQ7hugEcRkROlpu2taTg",
    "name": "Colfer Srl",
    "category": "Colfer Srl",
    "formatted_address": "3,9(92)",
    "phone_number": "+390521806483",
    "source_url": "https://www.google.com/maps/place/Colfer+Srl/data=!4m7!3m6!1s0x47806eb8430c494f:0x3869adeda6a51391!8m2!3d44.7549638!4d10.2237767!16s%2Fg%2F1tq6hy6l!19sChIJT0kMQ7hugEcRkROlpu2taTg?authuser=0&hl=tr&rclk=1",
    "website_url": "https://www.facebook.com/SRLCOLFER/",
    "rating_text": "3,9",
    "stars": null,
    "number_of_reviews": null,
    "price_level": "",
    "open_hours": "",
    "extraction_timestamp": "2025-06-07T15:45:38.335Z",
    "source_name": "google",
    "source_query": "Irrigation Equipment",
    "source_country": "IT",
    "country": "Italy",
    "state": "Emilia-Romagna",
    "city": "Collecchio"
  },
  {
    "source_id": "ChIJoWn3Mt1ugEcRuJFECy0B-Rs",
    "name": "Maini Giardinaggio",
    "category": "Maini Giardinaggio",
    "formatted_address": "",
    "phone_number": "+393466905853",
    "source_url": "https://www.google.com/maps/place/Maini+Giardinaggio/data=!4m7!3m6!1s0x47806edd32f769a1:0x1bf9012d0b4491b8!8m2!3d41.29085!4d12.71216!16s%2Fg%2F1tg6tkcp!19sChIJoWn3Mt1ugEcRuJFECy0B-Rs?authuser=0&hl=tr&rclk=1",
    "website_url": "",
    "rating_text": "",
    "stars": null,
    "number_of_reviews": null,
    "price_level": "",
    "open_hours": "",
    "extraction_timestamp": "2025-06-07T15:45:38.337Z",
    "source_name": "google",
    "source_query": "Irrigation Equipment",
    "source_country": "IT",
    "country": "Italy",
    "state": "Emilia-Romagna",
    "city": "Collecchio"
  },
  {
    "source_id": "ChIJbwZEaWk-gEcROyY50lBIuBU",
    "name": "TERMOIDRAULICA CERALDI",
    "category": "TERMOIDRAULICA CERALDI",
    "formatted_address": "4,6(11)",
    "phone_number": "+393206738221",
    "source_url": "https://www.google.com/maps/place/TERMOIDRAULICA+CERALDI/data=!4m7!3m6!1s0x47803e696944066f:0x15b84850d239263b!8m2!3d44.7544383!4d10.2211656!16s%2Fg%2F1tj9s5s5!19sChIJbwZEaWk-gEcROyY50lBIuBU?authuser=0&hl=tr&rclk=1",
    "website_url": "http://www.termoidraulicaceraldi.com/",
    "rating_text": "4,6",
    "stars": null,
    "number_of_reviews": null,
    "price_level": "",
    "open_hours": "",
    "extraction_timestamp": "2025-06-07T15:45:38.339Z",
    "source_name": "google",
    "source_query": "Irrigation Equipment",
    "source_country": "IT",
    "country": "Italy",
    "state": "Emilia-Romagna",
    "city": "Collecchio"
  }
]
