[
  {
    "source_id": "ChIJtVDkNgRFgEcRqc6umwWIJuI",
    "name": "Rm Spa",
    "category": "Rm Spa",
    "formatted_address": "4,6(81)",
    "phone_number": "+390521872321",
    "source_url": "https://www.google.com/maps/place/Rm+Spa/data=!4m7!3m6!1s0x4780450436e450b5:0xe22688059baecea9!8m2!3d44.9105406!4d10.2583785!16s%2Fg%2F12hl93byl!19sChIJtVDkNgRFgEcRqc6umwWIJuI?authuser=0&hl=tr&rclk=1",
    "website_url": "",
    "rating_text": "4,6",
    "stars": null,
    "number_of_reviews": null,
    "price_level": "",
    "open_hours": "",
    "extraction_timestamp": "2025-06-07T15:56:38.801Z",
    "source_name": "google",
    "source_query": "Irrigation Equipment",
    "source_country": "IT",
    "country": "Italy",
    "state": "Emilia-Romagna",
    "city": "Colorno"
  },
  {
    "source_id": "ChIJiW5B6xNHgEcRRX5zQpt11fo",
    "name": "Ferramenta Bussolati Guglielmo di Bussolati Carlo",
    "category": "Ferramenta Bussolati Guglielmo di Bussolati Carlo",
    "formatted_address": "4,6(49)",
    "phone_number": "+390521816217",
    "source_url": "https://www.google.com/maps/place/Ferramenta+Bussolati+Guglielmo+di+Bussolati+Carlo/data=!4m7!3m6!1s0x47804713eb416e89:0xfad5759b42737e45!8m2!3d44.9268597!4d10.3737142!16s%2Fg%2F11b6hqnjrn!19sChIJiW5B6xNHgEcRRX5zQpt11fo?authuser=0&hl=tr&rclk=1",
    "website_url": "",
    "rating_text": "4,6",
    "stars": null,
    "number_of_reviews": null,
    "price_level": "",
    "open_hours": "",
    "extraction_timestamp": "2025-06-07T15:56:38.803Z",
    "source_name": "google",
    "source_query": "Irrigation Equipment",
    "source_country": "IT",
    "country": "Italy",
    "state": "Emilia-Romagna",
    "city": "Colorno"
  },
  {
    "source_id": "ChIJfX73CCxHgEcR-zAdUQhCu8I",
    "name": "Tesoro Impianti idraulica Parma",
    "category": "Tesoro Impianti idraulica Parma",
    "formatted_address": "5,0(1)",
    "phone_number": "+39328852121024",
    "source_url": "https://www.google.com/maps/place/Tesoro+Impianti+idraulica+Parma/data=!4m7!3m6!1s0x4780472c08f77e7d:0xc2bb4208511d30fb!8m2!3d44.9242845!4d10.3820471!16s%2Fg%2F11qzmh86lc!19sChIJfX73CCxHgEcR-zAdUQhCu8I?authuser=0&hl=tr&rclk=1",
    "website_url": "",
    "rating_text": "5,0",
    "stars": null,
    "number_of_reviews": null,
    "price_level": "",
    "open_hours": "",
    "extraction_timestamp": "2025-06-07T15:56:38.822Z",
    "source_name": "google",
    "source_query": "Irrigation Equipment",
    "source_country": "IT",
    "country": "Italy",
    "state": "Emilia-Romagna",
    "city": "Colorno"
  },
  {
    "source_id": "ChIJp15_CT1HgEcRkD_IJjV1XWA",
    "name": "Parma Idraulica",
    "category": "Parma Idraulica",
    "formatted_address": "3,7(3)",
    "phone_number": "+39349362149124",
    "source_url": "https://www.google.com/maps/place/Parma+Idraulica/data=!4m7!3m6!1s0x4780473d097f5ea7:0x605d753526c83f90!8m2!3d44.9201968!4d10.3670604!16s%2Fg%2F11h3lg8qhp!19sChIJp15_CT1HgEcRkD_IJjV1XWA?authuser=0&hl=tr&rclk=1",
    "website_url": "",
    "rating_text": "3,7",
    "stars": null,
    "number_of_reviews": null,
    "price_level": "",
    "open_hours": "",
    "extraction_timestamp": "2025-06-07T15:56:38.823Z",
    "source_name": "google",
    "source_query": "Irrigation Equipment",
    "source_country": "IT",
    "country": "Italy",
    "state": "Emilia-Romagna",
    "city": "Colorno"
  },
  {
    "source_id": "ChIJc1g51T5HgEcR2AOH-I9yo3U",
    "name": "Sartori Utensili S.R.L.",
    "category": "Sartori Utensili S.R.L.",
    "formatted_address": "4,7(45)",
    "phone_number": "+390521312031",
    "source_url": "https://www.google.com/maps/place/Sartori+Utensili+S.R.L./data=!4m7!3m6!1s0x4780473ed5395873:0x75a3728ff88703d8!8m2!3d44.9166259!4d10.3707008!16s%2Fg%2F1tf68xfw!19sChIJc1g51T5HgEcR2AOH-I9yo3U?authuser=0&hl=tr&rclk=1",
    "website_url": "",
    "rating_text": "4,7",
    "stars": null,
    "number_of_reviews": null,
    "price_level": "",
    "open_hours": "",
    "extraction_timestamp": "2025-06-07T15:56:38.825Z",
    "source_name": "google",
    "source_query": "Irrigation Equipment",
    "source_country": "IT",
    "country": "Italy",
    "state": "Emilia-Romagna",
    "city": "Colorno"
  },
  {
    "source_id": "ChIJh3Nd8G0sfkcR_m7VewEmxXM",
    "name": "Irrigarden",
    "category": "Irrigarden",
    "formatted_address": "4,7(158)",
    "phone_number": "+39051782013",
    "source_url": "https://www.google.com/maps/place/Irrigarden/data=!4m7!3m6!1s0x477e2c6df05d7387:0x73c526017bd56efe!8m2!3d44.5096266!4d11.4390897!16s%2Fg%2F1vgw_l7w!19sChIJh3Nd8G0sfkcR_m7VewEmxXM?authuser=0&hl=tr&rclk=1",
    "website_url": "",
    "rating_text": "4,7",
    "stars": null,
    "number_of_reviews": null,
    "price_level": "",
    "open_hours": "",
    "extraction_timestamp": "2025-06-07T15:56:38.827Z",
    "source_name": "google",
    "source_query": "Irrigation Equipment",
    "source_country": "IT",
    "country": "Italy",
    "state": "Emilia-Romagna",
    "city": "Colorno"
  },
  {
    "source_id": "ChIJ90762m6rgUcRrOpHkQtN0qE",
    "name": "ACQUAFERT",
    "category": "ACQUAFERT",
    "formatted_address": "4,8(13)",
    "phone_number": "+390372835672",
    "source_url": "https://www.google.com/maps/place/ACQUAFERT/data=!4m7!3m6!1s0x4781ab6edafa4ef7:0xa1d24d0b9147eaac!8m2!3d45.1695663!4d10.1916537!16s%2Fg%2F11c1ny5b5r!19sChIJ90762m6rgUcRrOpHkQtN0qE?authuser=0&hl=tr&rclk=1",
    "website_url": "",
    "rating_text": "4,8",
    "stars": null,
    "number_of_reviews": null,
    "price_level": "",
    "open_hours": "",
    "extraction_timestamp": "2025-06-07T15:56:38.828Z",
    "source_name": "google",
    "source_query": "Irrigation Equipment",
    "source_country": "IT",
    "country": "Italy",
    "state": "Emilia-Romagna",
    "city": "Colorno"
  }
]
