[
  {
    "source_id": "ChIJeWmY9LLYfUcRw3slqbbc3lQ",
    "name": "multiservizi r 2",
    "category": "multiservizi r 2",
    "formatted_address": "4,9(102)",
    "phone_number": "+393334396631",
    "source_url": "https://www.google.com/maps/place/multiservizi+r+2/data=!4m7!3m6!1s0x477dd8b2f4986979:0x54dedcb6a9257bc3!8m2!3d44.7662544!4d11.8164255!16s%2Fg%2F11b5vs07tk!19sChIJeWmY9LLYfUcRw3slqbbc3lQ?authuser=0&hl=tr&rclk=1",
    "website_url": "",
    "rating_text": "4,9",
    "stars": null,
    "number_of_reviews": null,
    "price_level": "",
    "open_hours": "",
    "extraction_timestamp": "2025-06-07T16:44:35.308Z",
    "source_name": "google",
    "source_query": "Irrigation Equipment",
    "source_country": "IT",
    "country": "Italy",
    "state": "Emilia-Romagna",
    "city": "Comacchio"
  },
  {
    "source_id": "ChIJ38dRtgx1fkcRAzwNyI24mXs",
    "name": "C.A.B. S.r.l.",
    "category": "C.A.B. S.r.l.",
    "formatted_address": "5,0(31)",
    "phone_number": "+39053381365",
    "source_url": "https://www.google.com/maps/place/C.A.B.+S.r.l./data=!4m7!3m6!1s0x477e750cb651c7df:0x7b99b88dc80d3c03!8m2!3d44.6944995!4d12.1901002!16s%2Fg%2F11fk1lh5mz!19sChIJ38dRtgx1fkcRAzwNyI24mXs?authuser=0&hl=tr&rclk=1",
    "website_url": "http://www.cabsrl.net/",
    "rating_text": "5,0",
    "stars": null,
    "number_of_reviews": null,
    "price_level": "",
    "open_hours": "",
    "extraction_timestamp": "2025-06-07T16:44:35.308Z",
    "source_name": "google",
    "source_query": "Irrigation Equipment",
    "source_country": "IT",
    "country": "Italy",
    "state": "Emilia-Romagna",
    "city": "Comacchio"
  },
  {
    "source_id": "ChIJl7IsTft5fkcR6HmxBzmyW4E",
    "name": "Gambalonga di Toschi Franco srl",
    "category": "Gambalonga di Toschi Franco srl",
    "formatted_address": "4,5(54)",
    "phone_number": "+390533948107",
    "source_url": "https://www.google.com/maps/place/Gambalonga+di+Toschi+Franco+srl/data=!4m7!3m6!1s0x477e79fb4d2cb297:0x815bb23907b179e8!8m2!3d44.8093244!4d12.1774641!16s%2Fg%2F1trcf7z4!19sChIJl7IsTft5fkcR6HmxBzmyW4E?authuser=0&hl=tr&rclk=1",
    "website_url": "http://www.gambalonga.it/",
    "rating_text": "4,5",
    "stars": null,
    "number_of_reviews": null,
    "price_level": "",
    "open_hours": "",
    "extraction_timestamp": "2025-06-07T16:44:35.308Z",
    "source_name": "google",
    "source_query": "Irrigation Equipment",
    "source_country": "IT",
    "country": "Italy",
    "state": "Emilia-Romagna",
    "city": "Comacchio"
  },
  {
    "source_id": "ChIJxQNlRbt1fkcRTQWGq3GpJEQ",
    "name": "Ferramenta Carli",
    "category": "Ferramenta Carli",
    "formatted_address": "5,0(6)",
    "phone_number": "+39053381137",
    "source_url": "https://www.google.com/maps/place/Ferramenta+Carli/data=!4m7!3m6!1s0x477e75bb456503c5:0x4424a971ab86054d!8m2!3d44.694207!4d12.184807!16s%2Fg%2F11ggn5jrj6!19sChIJxQNlRbt1fkcRTQWGq3GpJEQ?authuser=0&hl=tr&rclk=1",
    "website_url": "",
    "rating_text": "5,0",
    "stars": null,
    "number_of_reviews": null,
    "price_level": "",
    "open_hours": "",
    "extraction_timestamp": "2025-06-07T16:44:35.309Z",
    "source_name": "google",
    "source_query": "Irrigation Equipment",
    "source_country": "IT",
    "country": "Italy",
    "state": "Emilia-Romagna",
    "city": "Comacchio"
  }
]
