[
  {
    "source_id": "ChIJ-eLL5ShMfkcRkJZIiiw4RaU",
    "name": "P.M. di Peverati M. srl",
    "category": "P.M. di Peverati M. srl",
    "formatted_address": "4,7(50)",
    "phone_number": "+39053294452",
    "source_url": "https://www.google.com/maps/place/P.M.+di+Peverati+M.+srl/data=!4m7!3m6!1s0x477e4c28e5cbe2f9:0xa545382c8a489690!8m2!3d44.8147477!4d11.5887959!16s%2Fg%2F1thp6v8g!19sChIJ-eLL5ShMfkcRkJZIiiw4RaU?authuser=0&hl=tr&rclk=1",
    "website_url": "",
    "rating_text": "4,7",
    "stars": null,
    "number_of_reviews": null,
    "price_level": "",
    "open_hours": "",
    "extraction_timestamp": "2025-06-07T17:02:05.894Z",
    "source_name": "google",
    "source_query": "Irrigation Equipment",
    "source_country": "IT",
    "country": "Italy",
    "state": "Emilia-Romagna",
    "city": "Copparo"
  },
  {
    "source_id": "ChIJxz9o84xbfkcR9qCQuQZF4YE",
    "name": "Benini Antonio",
    "category": "Benini Antonio",
    "formatted_address": "4,8(25)",
    "phone_number": "+390532860426",
    "source_url": "https://www.google.com/maps/place/Benini+Antonio/data=!4m7!3m6!1s0x477e5b8cf3683fc7:0x81e14506b990a0f6!8m2!3d44.8894949!4d11.8082509!16s%2Fg%2F1td3dw7m!19sChIJxz9o84xbfkcR9qCQuQZF4YE?authuser=0&hl=tr&rclk=1",
    "website_url": "",
    "rating_text": "4,8",
    "stars": null,
    "number_of_reviews": null,
    "price_level": "",
    "open_hours": "",
    "extraction_timestamp": "2025-06-07T17:02:05.895Z",
    "source_name": "google",
    "source_query": "Irrigation Equipment",
    "source_country": "IT",
    "country": "Italy",
    "state": "Emilia-Romagna",
    "city": "Copparo"
  },
  {
    "source_id": "ChIJmaFkc45bfkcRPT1JwanITtY",
    "name": "Bricocenter",
    "category": "Bricocenter",
    "formatted_address": "3,7(645)",
    "phone_number": "+390532862456",
    "source_url": "https://www.google.com/maps/place/Bricocenter/data=!4m7!3m6!1s0x477e5b8e7364a199:0xd64ec8a9c1493d3d!8m2!3d44.8898925!4d11.8037523!16s%2Fg%2F11b6d9cnf5!19sChIJmaFkc45bfkcRPT1JwanITtY?authuser=0&hl=tr&rclk=1",
    "website_url": "",
    "rating_text": "3,7",
    "stars": null,
    "number_of_reviews": null,
    "price_level": "",
    "open_hours": "",
    "extraction_timestamp": "2025-06-07T17:02:05.896Z",
    "source_name": "google",
    "source_query": "Irrigation Equipment",
    "source_country": "IT",
    "country": "Italy",
    "state": "Emilia-Romagna",
    "city": "Copparo"
  },
  {
    "source_id": "ChIJh3Nd8G0sfkcR_m7VewEmxXM",
    "name": "Irrigarden",
    "category": "Irrigarden",
    "formatted_address": "4,7(158)",
    "phone_number": "+39051782013",
    "source_url": "https://www.google.com/maps/place/Irrigarden/data=!4m7!3m6!1s0x477e2c6df05d7387:0x73c526017bd56efe!8m2!3d44.5096266!4d11.4390897!16s%2Fg%2F1vgw_l7w!19sChIJh3Nd8G0sfkcR_m7VewEmxXM?authuser=0&hl=tr&rclk=1",
    "website_url": "",
    "rating_text": "4,7",
    "stars": null,
    "number_of_reviews": null,
    "price_level": "",
    "open_hours": "",
    "extraction_timestamp": "2025-06-07T17:02:05.897Z",
    "source_name": "google",
    "source_query": "Irrigation Equipment",
    "source_country": "IT",
    "country": "Italy",
    "state": "Emilia-Romagna",
    "city": "Copparo"
  },
  {
    "source_id": "ChIJhQBF-GhIfkcRFZ34l9qDsN0",
    "name": "Baraldi Leonardo",
    "category": "Baraldi Leonardo",
    "formatted_address": "5,0(1)",
    "phone_number": "+390532722654",
    "source_url": "https://www.google.com/maps/place/Baraldi+Leonardo/data=!4m7!3m6!1s0x477e4868f8450085:0xddb083da97f89d15!8m2!3d44.73549!4d11.64391!16s%2Fg%2F1hc1pgtmd!19sChIJhQBF-GhIfkcRFZ34l9qDsN0?authuser=0&hl=tr&rclk=1",
    "website_url": "",
    "rating_text": "5,0",
    "stars": null,
    "number_of_reviews": null,
    "price_level": "",
    "open_hours": "",
    "extraction_timestamp": "2025-06-07T17:02:05.897Z",
    "source_name": "google",
    "source_query": "Irrigation Equipment",
    "source_country": "IT",
    "country": "Italy",
    "state": "Emilia-Romagna",
    "city": "Copparo"
  },
  {
    "source_id": "ChIJWzD8B4xbfkcRmD-HdrLTv1k",
    "name": "La Termoidraulica",
    "category": "La Termoidraulica",
    "formatted_address": "4,7(73)",
    "phone_number": "+390532860078",
    "source_url": "https://www.google.com/maps/place/La+Termoidraulica/data=!4m7!3m6!1s0x477e5b8c07fc305b:0x59bfd3b276873f98!8m2!3d44.8895029!4d11.8088701!16s%2Fg%2F1pt_485r1!19sChIJWzD8B4xbfkcRmD-HdrLTv1k?authuser=0&hl=tr&rclk=1",
    "website_url": "",
    "rating_text": "4,7",
    "stars": null,
    "number_of_reviews": null,
    "price_level": "",
    "open_hours": "",
    "extraction_timestamp": "2025-06-07T17:02:05.898Z",
    "source_name": "google",
    "source_query": "Irrigation Equipment",
    "source_country": "IT",
    "country": "Italy",
    "state": "Emilia-Romagna",
    "city": "Copparo"
  },
  {
    "source_id": "ChIJkaanA4pbfkcRxN8tG3kENC0",
    "name": "Conforti Luca e Malagutti Roberto Sas",
    "category": "Conforti Luca e Malagutti Roberto Sas",
    "formatted_address": "4,3(12)",
    "phone_number": "+390532860721",
    "source_url": "https://www.google.com/maps/place/Conforti+Luca+e+Malagutti+Roberto+Sas/data=!4m7!3m6!1s0x477e5b8a03a7a691:0x2d3404791b2ddfc4!8m2!3d44.8879711!4d11.8133498!16s%2Fg%2F1v1sk1jx!19sChIJkaanA4pbfkcRxN8tG3kENC0?authuser=0&hl=tr&rclk=1",
    "website_url": "",
    "rating_text": "4,3",
    "stars": null,
    "number_of_reviews": null,
    "price_level": "",
    "open_hours": "",
    "extraction_timestamp": "2025-06-07T17:02:05.899Z",
    "source_name": "google",
    "source_query": "Irrigation Equipment",
    "source_country": "IT",
    "country": "Italy",
    "state": "Emilia-Romagna",
    "city": "Copparo"
  },
  {
    "source_id": "ChIJISlyN8fVfkcRP1ghb3uyg-o",
    "name": "Import Irrigation Systems S.R.L.",
    "category": "Import Irrigation Systems S.R.L.",
    "formatted_address": "Üretici ·  · Via Salvo d'Acquisto, 5Kapalı ⋅ Açılış zamanı: Pzt 08:30 · +39 049 559 1020",
    "phone_number": "+390495591020",
    "source_url": "https://www.google.com/maps/place/Import+Irrigation+Systems+S.R.L./data=!4m7!3m6!1s0x477ed5c737722921:0xea83b27b6f21583f!8m2!3d45.5362842!4d11.825368!16s%2Fg%2F1tsjchn3!19sChIJISlyN8fVfkcRP1ghb3uyg-o?authuser=0&hl=tr&rclk=1",
    "website_url": "",
    "rating_text": "",
    "stars": null,
    "number_of_reviews": null,
    "price_level": "",
    "open_hours": "",
    "extraction_timestamp": "2025-06-07T17:02:05.900Z",
    "source_name": "google",
    "source_query": "Irrigation Equipment",
    "source_country": "IT",
    "country": "Italy",
    "state": "Emilia-Romagna",
    "city": "Copparo"
  },
  {
    "source_id": "ChIJcQG6ul7df0cR3VxKiu5OPBs",
    "name": "Scova Impianti Srl",
    "category": "Scova Impianti Srl",
    "formatted_address": "4,5(64)",
    "phone_number": "+39059923202",
    "source_url": "https://www.google.com/maps/place/Scova+Impianti+Srl/data=!4m7!3m6!1s0x477fdd5ebaba0171:0x1b3c4eee8a4a5cdd!8m2!3d44.6018135!4d11.032294!16s%2Fg%2F1tfzwbfb!19sChIJcQG6ul7df0cR3VxKiu5OPBs?authuser=0&hl=tr&rclk=1",
    "website_url": "",
    "rating_text": "4,5",
    "stars": null,
    "number_of_reviews": null,
    "price_level": "",
    "open_hours": "",
    "extraction_timestamp": "2025-06-07T17:02:05.901Z",
    "source_name": "google",
    "source_query": "Irrigation Equipment",
    "source_country": "IT",
    "country": "Italy",
    "state": "Emilia-Romagna",
    "city": "Copparo"
  },
  {
    "source_id": "ChIJ32TFseVbfkcRspO2ZMkFuXg",
    "name": "Idromec Di Rosignoli Alessandra",
    "category": "Idromec Di Rosignoli Alessandra",
    "formatted_address": "4,3(20)",
    "phone_number": "+390532871042",
    "source_url": "https://www.google.com/maps/place/Idromec+Di+Rosignoli+Alessandra/data=!4m7!3m6!1s0x477e5be5b1c564df:0x78b905c964b693b2!8m2!3d44.9046616!4d11.8064588!16s%2Fg%2F1thxzn10!19sChIJ32TFseVbfkcRspO2ZMkFuXg?authuser=0&hl=tr&rclk=1",
    "website_url": "",
    "rating_text": "4,3",
    "stars": null,
    "number_of_reviews": null,
    "price_level": "",
    "open_hours": "",
    "extraction_timestamp": "2025-06-07T17:02:05.901Z",
    "source_name": "google",
    "source_query": "Irrigation Equipment",
    "source_country": "IT",
    "country": "Italy",
    "state": "Emilia-Romagna",
    "city": "Copparo"
  },
  {
    "source_id": "ChIJtVDkNgRFgEcRqc6umwWIJuI",
    "name": "Rm Spa",
    "category": "Rm Spa",
    "formatted_address": "4,6(81)",
    "phone_number": "+390521872321",
    "source_url": "https://www.google.com/maps/place/Rm+Spa/data=!4m7!3m6!1s0x4780450436e450b5:0xe22688059baecea9!8m2!3d44.9105406!4d10.2583785!16s%2Fg%2F12hl93byl!19sChIJtVDkNgRFgEcRqc6umwWIJuI?authuser=0&hl=tr&rclk=1",
    "website_url": "",
    "rating_text": "4,6",
    "stars": null,
    "number_of_reviews": null,
    "price_level": "",
    "open_hours": "",
    "extraction_timestamp": "2025-06-07T17:02:05.902Z",
    "source_name": "google",
    "source_query": "Irrigation Equipment",
    "source_country": "IT",
    "country": "Italy",
    "state": "Emilia-Romagna",
    "city": "Copparo"
  },
  {
    "source_id": "ChIJcQ8T3qS2f0cRALNsVLNyFew",
    "name": "HYDROFER SSRL",
    "category": "HYDROFER SSRL",
    "formatted_address": "4,8(14)",
    "phone_number": "+3905321772422",
    "source_url": "https://www.google.com/maps/place/HYDROFER+SSRL/data=!4m7!3m6!1s0x477fb6a4de130f71:0xec1572b3546cb300!8m2!3d44.7932927!4d11.3818114!16s%2Fg%2F1tk8mfrd!19sChIJcQ8T3qS2f0cRALNsVLNyFew?authuser=0&hl=tr&rclk=1",
    "website_url": "",
    "rating_text": "4,8",
    "stars": null,
    "number_of_reviews": null,
    "price_level": "",
    "open_hours": "",
    "extraction_timestamp": "2025-06-07T17:02:05.903Z",
    "source_name": "google",
    "source_query": "Irrigation Equipment",
    "source_country": "IT",
    "country": "Italy",
    "state": "Emilia-Romagna",
    "city": "Copparo"
  },
  {
    "source_id": "ChIJKXlL1y_1LBMRWKZy2Kocweo",
    "name": "Idrofoglia s.r.l.",
    "category": "Idrofoglia s.r.l.",
    "formatted_address": "4,7(81)",
    "phone_number": "+390722700311",
    "source_url": "https://www.google.com/maps/place/Idrofoglia+s.r.l./data=!4m7!3m6!1s0x132cf52fd74b7929:0xeac11caad872a658!8m2!3d43.735361!4d12.4430347!16s%2Fg%2F1w0dk464!19sChIJKXlL1y_1LBMRWKZy2Kocweo?authuser=0&hl=tr&rclk=1",
    "website_url": "",
    "rating_text": "4,7",
    "stars": null,
    "number_of_reviews": null,
    "price_level": "",
    "open_hours": "",
    "extraction_timestamp": "2025-06-07T17:02:05.904Z",
    "source_name": "google",
    "source_query": "Irrigation Equipment",
    "source_country": "IT",
    "country": "Italy",
    "state": "Emilia-Romagna",
    "city": "Copparo"
  },
  {
    "source_id": "ChIJ_SYf2IMsfkcRVw9xVhrnjyI",
    "name": "Irrigazione Bragaglia",
    "category": "Irrigazione Bragaglia",
    "formatted_address": "4,7(30)",
    "phone_number": "+39051534865",
    "source_url": "https://www.google.com/maps/place/Irrigazione+Bragaglia/data=!4m7!3m6!1s0x477e2c83d81f26fd:0x228fe71a56710f57!8m2!3d44.5053735!4d11.412403!16s%2Fg%2F1vp6z0gf!19sChIJ_SYf2IMsfkcRVw9xVhrnjyI?authuser=0&hl=tr&rclk=1",
    "website_url": "",
    "rating_text": "4,7",
    "stars": null,
    "number_of_reviews": null,
    "price_level": "",
    "open_hours": "",
    "extraction_timestamp": "2025-06-07T17:02:05.905Z",
    "source_name": "google",
    "source_query": "Irrigation Equipment",
    "source_country": "IT",
    "country": "Italy",
    "state": "Emilia-Romagna",
    "city": "Copparo"
  },
  {
    "source_id": "ChIJB5LDVxJcfkcR7UUvx633_s4",
    "name": "Mondo Animale",
    "category": "Mondo Animale",
    "formatted_address": "4,6(181)",
    "phone_number": "+390532870898",
    "source_url": "https://www.google.com/maps/place/Mondo+Animale/data=!4m7!3m6!1s0x477e5c1257c39207:0xcefef7adc72f45ed!8m2!3d44.8935027!4d11.8318782!16s%2Fg%2F11j1j6c234!19sChIJB5LDVxJcfkcR7UUvx633_s4?authuser=0&hl=tr&rclk=1",
    "website_url": "",
    "rating_text": "4,6",
    "stars": null,
    "number_of_reviews": null,
    "price_level": "",
    "open_hours": "",
    "extraction_timestamp": "2025-06-07T17:02:05.907Z",
    "source_name": "google",
    "source_query": "Irrigation Equipment",
    "source_country": "IT",
    "country": "Italy",
    "state": "Emilia-Romagna",
    "city": "Copparo"
  },
  {
    "source_id": "ChIJ7VOFJLpifkcR_YOUvAlJ6ko",
    "name": "Corradi Protection Systems (CPS) | Impianti Antigrandine",
    "category": "Corradi Protection Systems (CPS) | Impianti Antigrandine",
    "formatted_address": "4,3(18)",
    "phone_number": "+390533997808",
    "source_url": "https://www.google.com/maps/place/Corradi+Protection+Systems+%28CPS%29+%7C+Impianti+Antigrandine/data=!4m7!3m6!1s0x477e62ba248553ed:0x4aea4909bc9483fd!8m2!3d44.9416351!4d12.1135654!16s%2Fg%2F11b6d001b8!19sChIJ7VOFJLpifkcR_YOUvAlJ6ko?authuser=0&hl=tr&rclk=1",
    "website_url": "",
    "rating_text": "4,3",
    "stars": null,
    "number_of_reviews": null,
    "price_level": "",
    "open_hours": "",
    "extraction_timestamp": "2025-06-07T17:02:05.908Z",
    "source_name": "google",
    "source_query": "Irrigation Equipment",
    "source_country": "IT",
    "country": "Italy",
    "state": "Emilia-Romagna",
    "city": "Copparo"
  },
  {
    "source_id": "ChIJVWZkXBFcfkcRHKNK9NXLfd0",
    "name": "Zoo Garden Giubertoni di Marco Giubertoni E C.",
    "category": "Zoo Garden Giubertoni di Marco Giubertoni E C.",
    "formatted_address": "4,6(232)",
    "phone_number": "+393281925686",
    "source_url": "https://www.google.com/maps/place/Zoo+Garden+Giubertoni+di+Marco+Giubertoni+E+C./data=!4m7!3m6!1s0x477e5c115c646655:0xdd7dcbd5f44aa31c!8m2!3d44.8890311!4d11.8039472!16s%2Fg%2F11bc7qmp76!19sChIJVWZkXBFcfkcRHKNK9NXLfd0?authuser=0&hl=tr&rclk=1",
    "website_url": "",
    "rating_text": "4,6",
    "stars": null,
    "number_of_reviews": null,
    "price_level": "",
    "open_hours": "",
    "extraction_timestamp": "2025-06-07T17:02:05.909Z",
    "source_name": "google",
    "source_query": "Irrigation Equipment",
    "source_country": "IT",
    "country": "Italy",
    "state": "Emilia-Romagna",
    "city": "Copparo"
  },
  {
    "source_id": "ChIJKTdzu4pbfkcRvn0D5MfpQDE",
    "name": "Ferramenta Marina",
    "category": "Ferramenta Marina",
    "formatted_address": "4,6(160)",
    "phone_number": "+390532863776",
    "source_url": "https://www.google.com/maps/place/Ferramenta+Marina/data=!4m7!3m6!1s0x477e5b8abb733729:0x3140e9c7e4037dbe!8m2!3d44.8919636!4d11.8141053!16s%2Fg%2F1tlc6xlp!19sChIJKTdzu4pbfkcRvn0D5MfpQDE?authuser=0&hl=tr&rclk=1",
    "website_url": "",
    "rating_text": "4,6",
    "stars": null,
    "number_of_reviews": null,
    "price_level": "",
    "open_hours": "",
    "extraction_timestamp": "2025-06-07T17:02:05.910Z",
    "source_name": "google",
    "source_query": "Irrigation Equipment",
    "source_country": "IT",
    "country": "Italy",
    "state": "Emilia-Romagna",
    "city": "Copparo"
  },
  {
    "source_id": "ChIJXQKpGw1cfkcRQDvOVBU6IfU",
    "name": "L'Isola dei Tesori",
    "category": "L'Isola dei Tesori",
    "formatted_address": "4,3(181)",
    "phone_number": "+390532870076",
    "source_url": "https://www.google.com/maps/place/L%27Isola+dei+Tesori/data=!4m7!3m6!1s0x477e5c0d1ba9025d:0xf5213a1554ce3b40!8m2!3d44.8931063!4d11.826921!16s%2Fg%2F1ptw2q_hs!19sChIJXQKpGw1cfkcRQDvOVBU6IfU?authuser=0&hl=tr&rclk=1",
    "website_url": "",
    "rating_text": "4,3",
    "stars": null,
    "number_of_reviews": null,
    "price_level": "",
    "open_hours": "",
    "extraction_timestamp": "2025-06-07T17:02:05.911Z",
    "source_name": "google",
    "source_query": "Irrigation Equipment",
    "source_country": "IT",
    "country": "Italy",
    "state": "Emilia-Romagna",
    "city": "Copparo"
  },
  {
    "source_id": "ChIJSX1TS3NcfkcRrmMLY-gRwfA",
    "name": "Ipercoop",
    "category": "Ipercoop",
    "formatted_address": "3,9(1.572)",
    "phone_number": "+390532860095",
    "source_url": "https://www.google.com/maps/place/Ipercoop/data=!4m7!3m6!1s0x477e5c734b537d49:0xf0c111e8630b63ae!8m2!3d44.891606!4d11.8225383!16s%2Fg%2F11cn3hsfgd!19sChIJSX1TS3NcfkcRrmMLY-gRwfA?authuser=0&hl=tr&rclk=1",
    "website_url": "",
    "rating_text": "3,9",
    "stars": null,
    "number_of_reviews": null,
    "price_level": "",
    "open_hours": "",
    "extraction_timestamp": "2025-06-07T17:02:05.913Z",
    "source_name": "google",
    "source_query": "Irrigation Equipment",
    "source_country": "IT",
    "country": "Italy",
    "state": "Emilia-Romagna",
    "city": "Copparo"
  },
  {
    "source_id": "ChIJ_Utv9KlbfkcR9AFE8AUVxiw",
    "name": "Termoidraulica Fabretti S.R.L.",
    "category": "Termoidraulica Fabretti S.R.L.",
    "formatted_address": "4,4(7)",
    "phone_number": "+390532866848",
    "source_url": "https://www.google.com/maps/place/Termoidraulica+Fabretti+S.R.L./data=!4m7!3m6!1s0x477e5ba9f46f4bfd:0x2cc61505f04401f4!8m2!3d44.879353!4d11.7699407!16s%2Fg%2F11h6nmnm5p!19sChIJ_Utv9KlbfkcR9AFE8AUVxiw?authuser=0&hl=tr&rclk=1",
    "website_url": "",
    "rating_text": "4,4",
    "stars": null,
    "number_of_reviews": null,
    "price_level": "",
    "open_hours": "",
    "extraction_timestamp": "2025-06-07T17:02:05.914Z",
    "source_name": "google",
    "source_query": "Irrigation Equipment",
    "source_country": "IT",
    "country": "Italy",
    "state": "Emilia-Romagna",
    "city": "Copparo"
  },
  {
    "source_id": "ChIJ0VNlJROXf0cRawSw3h0WMtU",
    "name": "Idromarket Srl",
    "category": "Idromarket Srl",
    "formatted_address": "4,5(132)",
    "phone_number": "+390535610490",
    "source_url": "https://www.google.com/maps/place/Idromarket+Srl/data=!4m7!3m6!1s0x477f9713256553d1:0xd532161ddeb0046b!8m2!3d44.8739092!4d11.0680834!16s%2Fg%2F1tql3mhn!19sChIJ0VNlJROXf0cRawSw3h0WMtU?authuser=0&hl=tr&rclk=1",
    "website_url": "",
    "rating_text": "4,5",
    "stars": null,
    "number_of_reviews": null,
    "price_level": "",
    "open_hours": "",
    "extraction_timestamp": "2025-06-07T17:02:05.915Z",
    "source_name": "google",
    "source_query": "Irrigation Equipment",
    "source_country": "IT",
    "country": "Italy",
    "state": "Emilia-Romagna",
    "city": "Copparo"
  },
  {
    "source_id": "ChIJ852RUelPfkcRJg0gl0zL9oo",
    "name": "Miracolo Market",
    "category": "Miracolo Market",
    "formatted_address": "4,8(4)",
    "phone_number": "",
    "source_url": "https://www.google.com/maps/place/Miracolo+Market/data=!4m7!3m6!1s0x477e4fe951919df3:0x8af6cb4c97200d26!8m2!3d44.8403816!4d11.6064209!16s%2Fg%2F11sclqczlc!19sChIJ852RUelPfkcRJg0gl0zL9oo?authuser=0&hl=tr&rclk=1",
    "website_url": "",
    "rating_text": "4,8",
    "stars": null,
    "number_of_reviews": null,
    "price_level": "",
    "open_hours": "",
    "extraction_timestamp": "2025-06-07T17:02:05.915Z",
    "source_name": "google",
    "source_query": "Irrigation Equipment",
    "source_country": "IT",
    "country": "Italy",
    "state": "Emilia-Romagna",
    "city": "Copparo"
  },
  {
    "source_id": "ChIJDRZLmY7Uf0cRoljnG6mk_BQ",
    "name": "Gestione Acque Canali Reno E Savena Srl",
    "category": "Gestione Acque Canali Reno E Savena Srl",
    "formatted_address": "5,0(2)",
    "phone_number": "+39051521025",
    "source_url": "https://www.google.com/maps/place/Gestione+Acque+Canali+Reno+E+Savena+Srl/data=!4m7!3m6!1s0x477fd48e994b160d:0x14fca4a91be758a2!8m2!3d44.4972339!4d11.3284416!16s%2Fg%2F1tj51fwk!19sChIJDRZLmY7Uf0cRoljnG6mk_BQ?authuser=0&hl=tr&rclk=1",
    "website_url": "",
    "rating_text": "5,0",
    "stars": null,
    "number_of_reviews": null,
    "price_level": "",
    "open_hours": "",
    "extraction_timestamp": "2025-06-07T17:02:05.916Z",
    "source_name": "google",
    "source_query": "Irrigation Equipment",
    "source_country": "IT",
    "country": "Italy",
    "state": "Emilia-Romagna",
    "city": "Copparo"
  },
  {
    "source_id": "ChIJrxwbzUfvf0cRlL2VLWoNy_M",
    "name": "Dog&Company by L'Isola dei Tesori",
    "category": "Dog&Company by L'Isola dei Tesori",
    "formatted_address": "4,2(287)",
    "phone_number": "+39059367799",
    "source_url": "https://www.google.com/maps/place/Dog%26Company+by+L%27Isola+dei+Tesori/data=!4m7!3m6!1s0x477fef47cd1b1caf:0xf3cb0d6a2d95bd94!8m2!3d44.640539!4d10.940571!16s%2Fg%2F1tdf05xd!19sChIJrxwbzUfvf0cRlL2VLWoNy_M?authuser=0&hl=tr&rclk=1",
    "website_url": "",
    "rating_text": "4,2",
    "stars": null,
    "number_of_reviews": null,
    "price_level": "",
    "open_hours": "",
    "extraction_timestamp": "2025-06-07T17:02:05.935Z",
    "source_name": "google",
    "source_query": "Irrigation Equipment",
    "source_country": "IT",
    "country": "Italy",
    "state": "Emilia-Romagna",
    "city": "Copparo"
  },
  {
    "source_id": "ChIJfRtZdMvUf0cRw4qmsOOrR8U",
    "name": "Drogheria Olimpia",
    "category": "Drogheria Olimpia",
    "formatted_address": "4,8(125)",
    "phone_number": "+390516142085",
    "source_url": "https://www.google.com/maps/place/Drogheria+Olimpia/data=!4m7!3m6!1s0x477fd4cb74591b7d:0xc547abe3b0a68ac3!8m2!3d44.495307!4d11.3236584!16s%2Fg%2F124yq5pm6!19sChIJfRtZdMvUf0cRw4qmsOOrR8U?authuser=0&hl=tr&rclk=1",
    "website_url": "",
    "rating_text": "4,8",
    "stars": null,
    "number_of_reviews": null,
    "price_level": "",
    "open_hours": "",
    "extraction_timestamp": "2025-06-07T17:02:05.937Z",
    "source_name": "google",
    "source_query": "Irrigation Equipment",
    "source_country": "IT",
    "country": "Italy",
    "state": "Emilia-Romagna",
    "city": "Copparo"
  },
  {
    "source_id": "ChIJRTfJkFgrfkcROAgs4fAwi90",
    "name": "Tecnomat",
    "category": "Tecnomat",
    "formatted_address": "4,3(7.142)",
    "phone_number": "+390283905463",
    "source_url": "https://www.google.com/maps/place/Tecnomat/data=!4m7!3m6!1s0x477e2b5890c93745:0xdd8b30f0e12c0838!8m2!3d44.5047222!4d11.3869444!16s%2Fg%2F1q62m6z7l!19sChIJRTfJkFgrfkcROAgs4fAwi90?authuser=0&hl=tr&rclk=1",
    "website_url": "",
    "rating_text": "4,3",
    "stars": null,
    "number_of_reviews": null,
    "price_level": "",
    "open_hours": "",
    "extraction_timestamp": "2025-06-07T17:02:05.939Z",
    "source_name": "google",
    "source_query": "Irrigation Equipment",
    "source_country": "IT",
    "country": "Italy",
    "state": "Emilia-Romagna",
    "city": "Copparo"
  },
  {
    "source_id": "ChIJJ6V6lMDgf0cRkL2jf5B3MwQ",
    "name": "Scova Engineering Spa",
    "category": "Scova Engineering Spa",
    "formatted_address": "5,0(2)",
    "phone_number": "+39059702012",
    "source_url": "https://www.google.com/maps/place/Scova+Engineering+Spa/data=!4m7!3m6!1s0x477fe0c0947aa527:0x43377907fa3bd90!8m2!3d44.5304758!4d10.9796265!16s%2Fg%2F1tql3mky!19sChIJJ6V6lMDgf0cRkL2jf5B3MwQ?authuser=0&hl=tr&rclk=1",
    "website_url": "",
    "rating_text": "5,0",
    "stars": null,
    "number_of_reviews": null,
    "price_level": "",
    "open_hours": "",
    "extraction_timestamp": "2025-06-07T17:02:05.940Z",
    "source_name": "google",
    "source_query": "Irrigation Equipment",
    "source_country": "IT",
    "country": "Italy",
    "state": "Emilia-Romagna",
    "city": "Copparo"
  },
  {
    "source_id": "ChIJydY5gV9UfkcRVSULAbLwyzs",
    "name": "Lareter - Gruppo Aliaxis",
    "category": "Lareter - Gruppo Aliaxis",
    "formatted_address": "3,9(60)",
    "phone_number": "+390425745511",
    "source_url": "https://www.google.com/maps/place/Lareter+-+Gruppo+Aliaxis/data=!4m7!3m6!1s0x477e545f8139d6c9:0x3bcbf0b2010b2555!8m2!3d44.9548363!4d11.6015862!16s%2Fg%2F1tcwkdpk!19sChIJydY5gV9UfkcRVSULAbLwyzs?authuser=0&hl=tr&rclk=1",
    "website_url": "",
    "rating_text": "3,9",
    "stars": null,
    "number_of_reviews": null,
    "price_level": "",
    "open_hours": "",
    "extraction_timestamp": "2025-06-07T17:02:05.941Z",
    "source_name": "google",
    "source_query": "Irrigation Equipment",
    "source_country": "IT",
    "country": "Italy",
    "state": "Emilia-Romagna",
    "city": "Copparo"
  },
  {
    "source_id": "ChIJtzLXV34mgEcR9sDfnfgzOxg",
    "name": "Sime Idromeccanica S.R.L.",
    "category": "Sime Idromeccanica S.R.L.",
    "formatted_address": "4,8(22)",
    "phone_number": "+390522824724",
    "source_url": "https://www.google.com/maps/place/Sime+Idromeccanica+S.R.L./data=!4m7!3m6!1s0x4780267e57d732b7:0x183b33f89ddfc0f6!8m2!3d44.8931121!4d10.6571392!16s%2Fg%2F1tx1s13m!19sChIJtzLXV34mgEcR9sDfnfgzOxg?authuser=0&hl=tr&rclk=1",
    "website_url": "",
    "rating_text": "4,8",
    "stars": null,
    "number_of_reviews": null,
    "price_level": "",
    "open_hours": "",
    "extraction_timestamp": "2025-06-07T17:02:05.942Z",
    "source_name": "google",
    "source_query": "Irrigation Equipment",
    "source_country": "IT",
    "country": "Italy",
    "state": "Emilia-Romagna",
    "city": "Copparo"
  }
]
