[
  {
    "source_id": "ChIJtVDkNgRFgEcRqc6umwWIJuI",
    "name": "Rm Spa",
    "category": "Rm Spa",
    "formatted_address": "4,6(81)",
    "phone_number": "+390521872321",
    "source_url": "https://www.google.com/maps/place/Rm+Spa/data=!4m7!3m6!1s0x4780450436e450b5:0xe22688059baecea9!8m2!3d44.9105406!4d10.2583785!16s%2Fg%2F12hl93byl!19sChIJtVDkNgRFgEcRqc6umwWIJuI?authuser=0&hl=tr&rclk=1",
    "website_url": "http://www.rmirrigation.com/",
    "rating_text": "4,6",
    "stars": null,
    "number_of_reviews": null,
    "price_level": "",
    "open_hours": "",
    "extraction_timestamp": "2025-06-07T15:59:55.692Z",
    "source_name": "google",
    "source_query": "Irrigation Equipment",
    "source_country": "IT",
    "country": "Italy",
    "state": "Emilia-Romagna",
    "city": "Corcagnano"
  },
  {
    "source_id": "ChIJqZUXIB5tgEcRFvmLEQbD63A",
    "name": "Ghidini E Priori Di Ghidini Marina E C. (S.N.C.)",
    "category": "Ghidini E Priori Di Ghidini Marina E C. (S.N.C.)",
    "formatted_address": "4,8(93)",
    "phone_number": "+390521639141",
    "source_url": "https://www.google.com/maps/place/Ghidini+E+Priori+Di+Ghidini+Marina+E+C.+%28S.N.C.%29/data=!4m7!3m6!1s0x47806d1e201795a9:0x70ebc306118bf916!8m2!3d44.7205127!4d10.3039068!16s%2Fg%2F1v4prvmh!19sChIJqZUXIB5tgEcRFvmLEQbD63A?authuser=0&hl=tr&rclk=1",
    "website_url": "",
    "rating_text": "4,8",
    "stars": null,
    "number_of_reviews": null,
    "price_level": "",
    "open_hours": "",
    "extraction_timestamp": "2025-06-07T15:59:55.695Z",
    "source_name": "google",
    "source_query": "Irrigation Equipment",
    "source_country": "IT",
    "country": "Italy",
    "state": "Emilia-Romagna",
    "city": "Corcagnano"
  },
  {
    "source_id": "ChIJ3ffAufBtgEcRCytqNHDLXR4",
    "name": "Del Frate Srl",
    "category": "Del Frate Srl",
    "formatted_address": "4,8(37)",
    "phone_number": "+390521986971",
    "source_url": "https://www.google.com/maps/place/Del+Frate+Srl/data=!4m7!3m6!1s0x47806df0b9c0f7dd:0x1e5dcb70346a2b0b!8m2!3d44.8108795!4d10.3145985!16s%2Fg%2F119w9gdyl!19sChIJ3ffAufBtgEcRCytqNHDLXR4?authuser=0&hl=tr&rclk=1",
    "website_url": "https://delfrate.it/",
    "rating_text": "4,8",
    "stars": null,
    "number_of_reviews": null,
    "price_level": "",
    "open_hours": "",
    "extraction_timestamp": "2025-06-07T15:59:55.697Z",
    "source_name": "google",
    "source_query": "Irrigation Equipment",
    "source_country": "IT",
    "country": "Italy",
    "state": "Emilia-Romagna",
    "city": "Corcagnano"
  },
  {
    "source_id": "ChIJcQG6ul7df0cR3VxKiu5OPBs",
    "name": "Scova Impianti Srl",
    "category": "Scova Impianti Srl",
    "formatted_address": "4,5(64)",
    "phone_number": "+39059923202",
    "source_url": "https://www.google.com/maps/place/Scova+Impianti+Srl/data=!4m7!3m6!1s0x477fdd5ebaba0171:0x1b3c4eee8a4a5cdd!8m2!3d44.6018135!4d11.032294!16s%2Fg%2F1tfzwbfb!19sChIJcQG6ul7df0cR3VxKiu5OPBs?authuser=0&hl=tr&rclk=1",
    "website_url": "https://www.scovaimpianti.com/",
    "rating_text": "4,5",
    "stars": null,
    "number_of_reviews": null,
    "price_level": "",
    "open_hours": "",
    "extraction_timestamp": "2025-06-07T15:59:55.699Z",
    "source_name": "google",
    "source_query": "Irrigation Equipment",
    "source_country": "IT",
    "country": "Italy",
    "state": "Emilia-Romagna",
    "city": "Corcagnano"
  },
  {
    "source_id": "ChIJy805WcDcgEcRtmGWlwosXQc",
    "name": "IRRIMEC SRL",
    "category": "IRRIMEC SRL",
    "formatted_address": "4,5(90)",
    "phone_number": "+390523760441",
    "source_url": "https://www.google.com/maps/place/IRRIMEC+SRL/data=!4m7!3m6!1s0x4780dcc05939cdcb:0x75d2c0a979661b6!8m2!3d45.0612353!4d9.630829!16s%2Fg%2F1tdgt7d_!19sChIJy805WcDcgEcRtmGWlwosXQc?authuser=0&hl=tr&rclk=1",
    "website_url": "http://www.irrimec.com/",
    "rating_text": "4,5",
    "stars": null,
    "number_of_reviews": null,
    "price_level": "",
    "open_hours": "",
    "extraction_timestamp": "2025-06-07T15:59:55.701Z",
    "source_name": "google",
    "source_query": "Irrigation Equipment",
    "source_country": "IT",
    "country": "Italy",
    "state": "Emilia-Romagna",
    "city": "Corcagnano"
  },
  {
    "source_id": "ChIJvWESljtqgEcRyACWMGuoih0",
    "name": "Idro Verde",
    "category": "Idro Verde",
    "formatted_address": "Çim Yağmurlama Sistemi Yüklenicisi ·  · Via Emilia Ovest, 129Açık ⋅ Kapanış saati: 21:00 · +39 338 397 2503",
    "phone_number": "+393383972503",
    "source_url": "https://www.google.com/maps/place/Idro+Verde/data=!4m7!3m6!1s0x47806a3b961261bd:0x1d8aa86b309600c8!8m2!3d44.8113047!4d10.2811005!16s%2Fg%2F11c6y_k67v!19sChIJvWESljtqgEcRyACWMGuoih0?authuser=0&hl=tr&rclk=1",
    "website_url": "http://idroverdeparma.it/",
    "rating_text": "",
    "stars": null,
    "number_of_reviews": null,
    "price_level": "",
    "open_hours": "",
    "extraction_timestamp": "2025-06-07T15:59:55.703Z",
    "source_name": "google",
    "source_query": "Irrigation Equipment",
    "source_country": "IT",
    "country": "Italy",
    "state": "Emilia-Romagna",
    "city": "Corcagnano"
  },
  {
    "source_id": "ChIJR0cLXhQkgEcRi9oI9GALzlg",
    "name": "IRRILAND",
    "category": "IRRILAND",
    "formatted_address": "4,0(4)",
    "phone_number": "+390522831544",
    "source_url": "https://www.google.com/maps/place/IRRILAND/data=!4m7!3m6!1s0x478024145e0b4747:0x58ce0b60f408da8b!8m2!3d44.891987!4d10.650983!16s%2Fg%2F1tczjb0h!19sChIJR0cLXhQkgEcRi9oI9GALzlg?authuser=0&hl=tr&rclk=1",
    "website_url": "http://www.irriland.it/",
    "rating_text": "4,0",
    "stars": null,
    "number_of_reviews": null,
    "price_level": "",
    "open_hours": "",
    "extraction_timestamp": "2025-06-07T15:59:55.704Z",
    "source_name": "google",
    "source_query": "Irrigation Equipment",
    "source_country": "IT",
    "country": "Italy",
    "state": "Emilia-Romagna",
    "city": "Corcagnano"
  },
  {
    "source_id": "ChIJ37OM8MJsgEcRcK8Py1q0ckQ",
    "name": "Bu.Ge.Go.",
    "category": "Bu.Ge.Go.",
    "formatted_address": "3,7(3)",
    "phone_number": "+390521637013",
    "source_url": "https://www.google.com/maps/place/Bu.Ge.Go./data=!4m7!3m6!1s0x47806cc2f08cb3df:0x4472b45acb0faf70!8m2!3d44.7321472!4d10.3084936!16s%2Fg%2F1tj5plb3!19sChIJ37OM8MJsgEcRcK8Py1q0ckQ?authuser=0&hl=tr&rclk=1",
    "website_url": "http://www.bugego.it/",
    "rating_text": "3,7",
    "stars": null,
    "number_of_reviews": null,
    "price_level": "",
    "open_hours": "",
    "extraction_timestamp": "2025-06-07T15:59:55.706Z",
    "source_name": "google",
    "source_query": "Irrigation Equipment",
    "source_country": "IT",
    "country": "Italy",
    "state": "Emilia-Romagna",
    "city": "Corcagnano"
  },
  {
    "source_id": "ChIJoWn3Mt1ugEcRuJFECy0B-Rs",
    "name": "Maini Giardinaggio",
    "category": "Maini Giardinaggio",
    "formatted_address": "",
    "phone_number": "+393466905853",
    "source_url": "https://www.google.com/maps/place/Maini+Giardinaggio/data=!4m7!3m6!1s0x47806edd32f769a1:0x1bf9012d0b4491b8!8m2!3d41.29085!4d12.71216!16s%2Fg%2F1tg6tkcp!19sChIJoWn3Mt1ugEcRuJFECy0B-Rs?authuser=0&hl=tr&rclk=1",
    "website_url": "",
    "rating_text": "",
    "stars": null,
    "number_of_reviews": null,
    "price_level": "",
    "open_hours": "",
    "extraction_timestamp": "2025-06-07T15:59:55.707Z",
    "source_name": "google",
    "source_query": "Irrigation Equipment",
    "source_country": "IT",
    "country": "Italy",
    "state": "Emilia-Romagna",
    "city": "Corcagnano"
  }
]
