[
  {
    "source_id": "ChIJzVs0xU6Lf0cR7xlr_P8Hzak",
    "name": "Carboni ITS S.r.l.",
    "category": "Carboni ITS S.r.l.",
    "formatted_address": "4,2(186)",
    "phone_number": "+390522633211",
    "source_url": "https://www.google.com/maps/place/Carboni+ITS+S.r.l./data=!4m7!3m6!1s0x477f8b4ec5345bcd:0xa9cd07fffc6b19ef!8m2!3d44.7787934!4d10.7890399!16s%2Fg%2F1tgdb7n4!19sChIJzVs0xU6Lf0cR7xlr_P8Hzak?authuser=0&hl=tr&rclk=1",
    "website_url": "https://www.carboni.com/",
    "rating_text": "4,2",
    "stars": null,
    "number_of_reviews": null,
    "price_level": "",
    "open_hours": "",
    "extraction_timestamp": "2025-06-07T16:15:09.870Z",
    "source_name": "google",
    "source_query": "Irrigation Equipment",
    "source_country": "IT",
    "country": "Italy",
    "state": "Emilia-Romagna",
    "city": "Correggio"
  },
  {
    "source_id": "ChIJ-f-Z3Jb0f0cRxtHhq84QYm4",
    "name": "C.i.v.a. (S.r.l.)",
    "category": "C.i.v.a. (S.r.l.)",
    "formatted_address": "4,5(33)",
    "phone_number": "+390522694269",
    "source_url": "https://www.google.com/maps/place/C.i.v.a.+%28S.r.l.%29/data=!4m7!3m6!1s0x477ff496dc99fff9:0x6e6210ceabe1d1c6!8m2!3d44.7667397!4d10.825354!16s%2Fg%2F1hc1snrhb!19sChIJ-f-Z3Jb0f0cRxtHhq84QYm4?authuser=0&hl=tr&rclk=1",
    "website_url": "https://www.instagram.com/civa.srl/",
    "rating_text": "4,5",
    "stars": null,
    "number_of_reviews": null,
    "price_level": "",
    "open_hours": "",
    "extraction_timestamp": "2025-06-07T16:15:09.872Z",
    "source_name": "google",
    "source_query": "Irrigation Equipment",
    "source_country": "IT",
    "country": "Italy",
    "state": "Emilia-Romagna",
    "city": "Correggio"
  },
  {
    "source_id": "ChIJAcsK30Lzf0cRaTFJPma9CoA",
    "name": "G.F. Srl - Enjoy the garden",
    "category": "G.F. Srl - Enjoy the garden",
    "formatted_address": "4,1(9)",
    "phone_number": "+390522637311",
    "source_url": "https://www.google.com/maps/place/G.F.+Srl+-+Enjoy+the+garden/data=!4m7!3m6!1s0x477ff342df0acb01:0x800abd663e493169!8m2!3d44.7681164!4d10.8260182!16s%2Fg%2F12mm851w6!19sChIJAcsK30Lzf0cRaTFJPma9CoA?authuser=0&hl=tr&rclk=1",
    "website_url": "http://www.gfgarden.it/",
    "rating_text": "4,1",
    "stars": null,
    "number_of_reviews": null,
    "price_level": "",
    "open_hours": "",
    "extraction_timestamp": "2025-06-07T16:15:09.873Z",
    "source_name": "google",
    "source_query": "Irrigation Equipment",
    "source_country": "IT",
    "country": "Italy",
    "state": "Emilia-Romagna",
    "city": "Correggio"
  },
  {
    "source_id": "ChIJIcScjmH0f0cR0UwnzewFrsw",
    "name": "Greenpipe S.r.l. - L'innovazione nel settore dell'acqua",
    "category": "Greenpipe S.r.l. - L'innovazione nel settore dell'acqua",
    "formatted_address": "4,8(21)",
    "phone_number": "+390522746611",
    "source_url": "https://www.google.com/maps/place/Greenpipe+S.r.l.+-+L%27innovazione+nel+settore+dell%27acqua/data=!4m7!3m6!1s0x477ff4618e9cc421:0xccae05eccd274cd1!8m2!3d44.7520027!4d10.7818574!16s%2Fg%2F1tvm1m2n!19sChIJIcScjmH0f0cR0UwnzewFrsw?authuser=0&hl=tr&rclk=1",
    "website_url": "http://www.greenpipe.it/",
    "rating_text": "4,8",
    "stars": null,
    "number_of_reviews": null,
    "price_level": "",
    "open_hours": "",
    "extraction_timestamp": "2025-06-07T16:15:09.875Z",
    "source_name": "google",
    "source_query": "Irrigation Equipment",
    "source_country": "IT",
    "country": "Italy",
    "state": "Emilia-Romagna",
    "city": "Correggio"
  },
  {
    "source_id": "ChIJ4w02-ez0f0cRjXz3HOVn2Ig",
    "name": "THE HOUSE OF THE RUBBER",
    "category": "THE HOUSE OF THE RUBBER",
    "formatted_address": "4,5(50)",
    "phone_number": "+390522643769",
    "source_url": "https://www.google.com/maps/place/THE+HOUSE+OF+THE+RUBBER/data=!4m7!3m6!1s0x477ff4ecf9360de3:0x88d867e51cf77c8d!8m2!3d44.7634198!4d10.7849928!16s%2Fg%2F1tdb7phg!19sChIJ4w02-ez0f0cRjXz3HOVn2Ig?authuser=0&hl=tr&rclk=1",
    "website_url": "http://www.lacasadellagomma.it/",
    "rating_text": "4,5",
    "stars": null,
    "number_of_reviews": null,
    "price_level": "",
    "open_hours": "",
    "extraction_timestamp": "2025-06-07T16:15:09.876Z",
    "source_name": "google",
    "source_query": "Irrigation Equipment",
    "source_country": "IT",
    "country": "Italy",
    "state": "Emilia-Romagna",
    "city": "Correggio"
  },
  {
    "source_id": "ChIJ2aWsLJP0f0cRvtzA-c0RCD0",
    "name": "New Emporio (S.N.C)",
    "category": "New Emporio (S.N.C)",
    "formatted_address": "4,5(83)",
    "phone_number": "+390522693615",
    "source_url": "https://www.google.com/maps/place/New+Emporio+%28S.N.C%29/data=!4m7!3m6!1s0x477ff4932caca5d9:0x3d0811cdf9c0dcbe!8m2!3d44.7622468!4d10.7872051!16s%2Fg%2F1th1bkqh!19sChIJ2aWsLJP0f0cRvtzA-c0RCD0?authuser=0&hl=tr&rclk=1",
    "website_url": "https://www.nuovoemporio.com/",
    "rating_text": "4,5",
    "stars": null,
    "number_of_reviews": null,
    "price_level": "",
    "open_hours": "",
    "extraction_timestamp": "2025-06-07T16:15:09.877Z",
    "source_name": "google",
    "source_query": "Irrigation Equipment",
    "source_country": "IT",
    "country": "Italy",
    "state": "Emilia-Romagna",
    "city": "Correggio"
  },
  {
    "source_id": "ChIJkwFJGWD0f0cR7mGeOyOnZfM",
    "name": "AMG-PLASTIK - Sede di Correggio (RE)",
    "category": "AMG-PLASTIK - Sede di Correggio (RE)",
    "formatted_address": "4,0(24)",
    "phone_number": "+390522692778",
    "source_url": "https://www.google.com/maps/place/AMG-PLASTIK+-+Sede+di+Correggio+%28RE%29/data=!4m7!3m6!1s0x477ff46019490193:0xf365a7233b9e61ee!8m2!3d44.7511062!4d10.784069!16s%2Fg%2F11df816pm0!19sChIJkwFJGWD0f0cR7mGeOyOnZfM?authuser=0&hl=tr&rclk=1",
    "website_url": "http://www.amgwaterfilters.com/",
    "rating_text": "4,0",
    "stars": null,
    "number_of_reviews": null,
    "price_level": "",
    "open_hours": "",
    "extraction_timestamp": "2025-06-07T16:15:09.879Z",
    "source_name": "google",
    "source_query": "Irrigation Equipment",
    "source_country": "IT",
    "country": "Italy",
    "state": "Emilia-Romagna",
    "city": "Correggio"
  },
  {
    "source_id": "ChIJGfAb3_L0f0cRw13oAD9X-YQ",
    "name": "Filtra Srl",
    "category": "Filtra Srl",
    "formatted_address": "4,3(21)",
    "phone_number": "+390522632262",
    "source_url": "https://www.google.com/maps/place/Filtra+Srl/data=!4m7!3m6!1s0x477ff4f2df1bf019:0x84f9573f00e85dc3!8m2!3d44.7588501!4d10.7851469!16s%2Fg%2F1w9x_z53!19sChIJGfAb3_L0f0cRw13oAD9X-YQ?authuser=0&hl=tr&rclk=1",
    "website_url": "http://www.filtrasrl.com/",
    "rating_text": "4,3",
    "stars": null,
    "number_of_reviews": null,
    "price_level": "",
    "open_hours": "",
    "extraction_timestamp": "2025-06-07T16:15:09.880Z",
    "source_name": "google",
    "source_query": "Irrigation Equipment",
    "source_country": "IT",
    "country": "Italy",
    "state": "Emilia-Romagna",
    "city": "Correggio"
  },
  {
    "source_id": "ChIJQVYehvL0f0cRItg-1u00HYI",
    "name": "Waterproofing Srl",
    "category": "Waterproofing Srl",
    "formatted_address": "4,8(12)",
    "phone_number": "+390522641517",
    "source_url": "https://www.google.com/maps/place/Waterproofing+Srl/data=!4m7!3m6!1s0x477ff4f2861e5641:0x821d34edd63ed822!8m2!3d44.7604687!4d10.7840122!16s%2Fg%2F1tg85hpt!19sChIJQVYehvL0f0cRItg-1u00HYI?authuser=0&hl=tr&rclk=1",
    "website_url": "https://www.waterproofing.it/",
    "rating_text": "4,8",
    "stars": null,
    "number_of_reviews": null,
    "price_level": "",
    "open_hours": "",
    "extraction_timestamp": "2025-06-07T16:15:09.881Z",
    "source_name": "google",
    "source_query": "Irrigation Equipment",
    "source_country": "IT",
    "country": "Italy",
    "state": "Emilia-Romagna",
    "city": "Correggio"
  },
  {
    "source_id": "ChIJh1vhhfH0f0cReZV-m5ourSs",
    "name": "Eco Technology S.r.l.",
    "category": "Eco Technology S.r.l.",
    "formatted_address": "4,0(10)",
    "phone_number": "+390522691330",
    "source_url": "https://www.google.com/maps/place/Eco+Technology+S.r.l./data=!4m7!3m6!1s0x477ff4f185e15b87:0x2bad2e9a9b7e9579!8m2!3d44.7568161!4d10.7834402!16s%2Fg%2F11h6nn34yq!19sChIJh1vhhfH0f0cReZV-m5ourSs?authuser=0&hl=tr&rclk=1",
    "website_url": "",
    "rating_text": "4,0",
    "stars": null,
    "number_of_reviews": null,
    "price_level": "",
    "open_hours": "",
    "extraction_timestamp": "2025-06-07T16:15:09.882Z",
    "source_name": "google",
    "source_query": "Irrigation Equipment",
    "source_country": "IT",
    "country": "Italy",
    "state": "Emilia-Romagna",
    "city": "Correggio"
  },
  {
    "source_id": "ChIJsfwobML0f0cRk1GaUHmfgAQ",
    "name": "Sologni Giovanni & C. (S.N.C.)",
    "category": "Sologni Giovanni & C. (S.N.C.)",
    "formatted_address": "4,5(107)",
    "phone_number": "+390522692582",
    "source_url": "https://www.google.com/maps/place/Sologni+Giovanni+%26+C.+%28S.N.C.%29/data=!4m7!3m6!1s0x477ff4c26c28fcb1:0x4809f79509a5193!8m2!3d44.7710565!4d10.7826863!16s%2Fg%2F1hc3d2wc4!19sChIJsfwobML0f0cRk1GaUHmfgAQ?authuser=0&hl=tr&rclk=1",
    "website_url": "",
    "rating_text": "4,5",
    "stars": null,
    "number_of_reviews": null,
    "price_level": "",
    "open_hours": "",
    "extraction_timestamp": "2025-06-07T16:15:09.883Z",
    "source_name": "google",
    "source_query": "Irrigation Equipment",
    "source_country": "IT",
    "country": "Italy",
    "state": "Emilia-Romagna",
    "city": "Correggio"
  },
  {
    "source_id": "ChIJzWyZEf8dgEcRM0sVtbJE3TI",
    "name": "Impiantistica LAVONE",
    "category": "Impiantistica LAVONE",
    "formatted_address": "5,0(3)",
    "phone_number": "+393514759408",
    "source_url": "https://www.google.com/maps/place/Impiantistica+LAVONE/data=!4m7!3m6!1s0x47801dff11996ccd:0x32dd44b2b5154b33!8m2!3d44.7120611!4d10.6241549!16s%2Fg%2F11lp1gdrnd!19sChIJzWyZEf8dgEcRM0sVtbJE3TI?authuser=0&hl=tr&rclk=1",
    "website_url": "",
    "rating_text": "5,0",
    "stars": null,
    "number_of_reviews": null,
    "price_level": "",
    "open_hours": "",
    "extraction_timestamp": "2025-06-07T16:15:09.885Z",
    "source_name": "google",
    "source_query": "Irrigation Equipment",
    "source_country": "IT",
    "country": "Italy",
    "state": "Emilia-Romagna",
    "city": "Correggio"
  },
  {
    "source_id": "ChIJ8S_H450fgEcRen1BwvkupIc",
    "name": "Agro-system Snc di Bassoli - Piscine e Macchine giardino - Reggio Emilia",
    "category": "Agro-system Snc di Bassoli - Piscine e Macchine giardino - Reggio Emilia",
    "formatted_address": "4,6(88)",
    "phone_number": "+390522954100",
    "source_url": "https://www.google.com/maps/place/Agro-system+Snc+di+Bassoli+-+Piscine+e+Macchine+giardino+-+Reggio+Emilia/data=!4m7!3m6!1s0x47801f9de3c72ff1:0x87a42ef9c2417d7a!8m2!3d44.797091!4d10.686568!16s%2Fg%2F1tfb5f45!19sChIJ8S_H450fgEcRen1BwvkupIc?authuser=0&hl=tr&rclk=1",
    "website_url": "https://agrosystem.info/",
    "rating_text": "4,6",
    "stars": null,
    "number_of_reviews": null,
    "price_level": "",
    "open_hours": "",
    "extraction_timestamp": "2025-06-07T16:15:09.886Z",
    "source_name": "google",
    "source_query": "Irrigation Equipment",
    "source_country": "IT",
    "country": "Italy",
    "state": "Emilia-Romagna",
    "city": "Correggio"
  },
  {
    "source_id": "ChIJE9glJ7D1f0cREyEgqsArPLs",
    "name": "Studio Fluid System - Studio Associato",
    "category": "Studio Fluid System - Studio Associato",
    "formatted_address": "4,0(8)",
    "phone_number": "+390522642680",
    "source_url": "https://www.google.com/maps/place/Studio+Fluid+System+-+Studio+Associato/data=!4m7!3m6!1s0x477ff5b02725d813:0xbb3c2bc0aa202113!8m2!3d44.7628101!4d10.7871913!16s%2Fg%2F11gxmc39fs!19sChIJE9glJ7D1f0cREyEgqsArPLs?authuser=0&hl=tr&rclk=1",
    "website_url": "http://www.fluidsystem.info/",
    "rating_text": "4,0",
    "stars": null,
    "number_of_reviews": null,
    "price_level": "",
    "open_hours": "",
    "extraction_timestamp": "2025-06-07T16:15:09.887Z",
    "source_name": "google",
    "source_query": "Irrigation Equipment",
    "source_country": "IT",
    "country": "Italy",
    "state": "Emilia-Romagna",
    "city": "Correggio"
  },
  {
    "source_id": "ChIJLY9IMdz1f0cRbCublFiXJ3o",
    "name": "Idralba srls",
    "category": "Idralba srls",
    "formatted_address": "5,0(23)",
    "phone_number": "+393401796881",
    "source_url": "https://www.google.com/maps/place/Idralba+srls/data=!4m7!3m6!1s0x477ff5dc31488f2d:0x7a279758949b2b6c!8m2!3d44.7348389!4d10.7768553!16s%2Fg%2F11x97khv2b!19sChIJLY9IMdz1f0cRbCublFiXJ3o?authuser=0&hl=tr&rclk=1",
    "website_url": "https://www.idralba.it/",
    "rating_text": "5,0",
    "stars": null,
    "number_of_reviews": null,
    "price_level": "",
    "open_hours": "",
    "extraction_timestamp": "2025-06-07T16:15:09.888Z",
    "source_name": "google",
    "source_query": "Irrigation Equipment",
    "source_country": "IT",
    "country": "Italy",
    "state": "Emilia-Romagna",
    "city": "Correggio"
  },
  {
    "source_id": "ChIJK_uFxu30f0cRzluPz7WtuHA",
    "name": "Scaltriti Romano",
    "category": "Scaltriti Romano",
    "formatted_address": "4,5(146)",
    "phone_number": "+390522692054",
    "source_url": "https://www.google.com/maps/place/Scaltriti+Romano/data=!4m7!3m6!1s0x477ff4edc685fb2b:0x70b8adb5cf8f5bce!8m2!3d44.7626513!4d10.782696!16s%2Fg%2F1tfhf86p!19sChIJK_uFxu30f0cRzluPz7WtuHA?authuser=0&hl=tr&rclk=1",
    "website_url": "https://www.facebook.com/scaltriti.romano.9",
    "rating_text": "4,5",
    "stars": null,
    "number_of_reviews": null,
    "price_level": "",
    "open_hours": "",
    "extraction_timestamp": "2025-06-07T16:15:09.889Z",
    "source_name": "google",
    "source_query": "Irrigation Equipment",
    "source_country": "IT",
    "country": "Italy",
    "state": "Emilia-Romagna",
    "city": "Correggio"
  },
  {
    "source_id": "ChIJq5e6TTv0f0cRe0lfkBwyQVE",
    "name": "Aqua Industrial Group",
    "category": "Aqua Industrial Group",
    "formatted_address": "3,5(10)",
    "phone_number": "+390522695805",
    "source_url": "https://www.google.com/maps/place/Aqua+Industrial+Group/data=!4m7!3m6!1s0x477ff43b4dba97ab:0x5141321c905f497b!8m2!3d44.7252141!4d10.7656823!16s%2Fg%2F1hc61vd63!19sChIJq5e6TTv0f0cRe0lfkBwyQVE?authuser=0&hl=tr&rclk=1",
    "website_url": "http://www.aqua.it/",
    "rating_text": "3,5",
    "stars": null,
    "number_of_reviews": null,
    "price_level": "",
    "open_hours": "",
    "extraction_timestamp": "2025-06-07T16:15:09.890Z",
    "source_name": "google",
    "source_query": "Irrigation Equipment",
    "source_country": "IT",
    "country": "Italy",
    "state": "Emilia-Romagna",
    "city": "Correggio"
  },
  {
    "source_id": "ChIJ11Ewg_n0f0cRolTV_bjsJzA",
    "name": "Zagni Snc Di Claudio - Marco & C.",
    "category": "Zagni Snc Di Claudio - Marco & C.",
    "formatted_address": "4,5(30)",
    "phone_number": "+390522693682",
    "source_url": "https://www.google.com/maps/place/Zagni+Snc+Di+Claudio+-+Marco+%26+C./data=!4m7!3m6!1s0x477ff4f9833051d7:0x3027ecb8fdd554a2!8m2!3d44.758088!4d10.7710355!16s%2Fg%2F1tdm750n!19sChIJ11Ewg_n0f0cRolTV_bjsJzA?authuser=0&hl=tr&rclk=1",
    "website_url": "https://www.zagnisnc.it/",
    "rating_text": "4,5",
    "stars": null,
    "number_of_reviews": null,
    "price_level": "",
    "open_hours": "",
    "extraction_timestamp": "2025-06-07T16:15:09.891Z",
    "source_name": "google",
    "source_query": "Irrigation Equipment",
    "source_country": "IT",
    "country": "Italy",
    "state": "Emilia-Romagna",
    "city": "Correggio"
  },
  {
    "source_id": "ChIJe37mXu30f0cRQ4xa6DeJcDc",
    "name": "Enoservice s.n.c",
    "category": "Enoservice s.n.c",
    "formatted_address": "4,3(4)",
    "phone_number": "+390522631060",
    "source_url": "https://www.google.com/maps/place/Enoservice+s.n.c/data=!4m7!3m6!1s0x477ff4ed5ee67e7b:0x37708937e85a8c43!8m2!3d44.760901!4d10.7858025!16s%2Fg%2F1hc1939bp!19sChIJe37mXu30f0cRQ4xa6DeJcDc?authuser=0&hl=tr&rclk=1",
    "website_url": "http://enoserviceonline.it/",
    "rating_text": "4,3",
    "stars": null,
    "number_of_reviews": null,
    "price_level": "",
    "open_hours": "",
    "extraction_timestamp": "2025-06-07T16:15:09.892Z",
    "source_name": "google",
    "source_query": "Irrigation Equipment",
    "source_country": "IT",
    "country": "Italy",
    "state": "Emilia-Romagna",
    "city": "Correggio"
  },
  {
    "source_id": "ChIJDbgAgu30f0cRrYxRgKvkDjA",
    "name": "Termoidraulica F.G.",
    "category": "Termoidraulica F.G.",
    "formatted_address": "4,2(10)",
    "phone_number": "+390522694381",
    "source_url": "https://www.google.com/maps/place/Termoidraulica+F.G./data=!4m7!3m6!1s0x477ff4ed8200b80d:0x300ee4ab80518cad!8m2!3d44.7611681!4d10.7837795!16s%2Fg%2F1tjv2bwt!19sChIJDbgAgu30f0cRrYxRgKvkDjA?authuser=0&hl=tr&rclk=1",
    "website_url": "https://www.cercatrovaonline.it/it/inserzione-speciale/mondo-casa/termoidraulica-fg",
    "rating_text": "4,2",
    "stars": null,
    "number_of_reviews": null,
    "price_level": "",
    "open_hours": "",
    "extraction_timestamp": "2025-06-07T16:15:09.893Z",
    "source_name": "google",
    "source_query": "Irrigation Equipment",
    "source_country": "IT",
    "country": "Italy",
    "state": "Emilia-Romagna",
    "city": "Correggio"
  },
  {
    "source_id": "ChIJk1xf3gocgEcR7YDnq1JIXQQ",
    "name": "Idraulica Emiliana S.p.A.",
    "category": "Idraulica Emiliana S.p.A.",
    "formatted_address": "4,4(32)",
    "phone_number": "+390522383297",
    "source_url": "https://www.google.com/maps/place/Idraulica+Emiliana+S.p.A./data=!4m7!3m6!1s0x47801c0ade5f5c93:0x45d4852abe780ed!8m2!3d44.7129186!4d10.6066972!16s%2Fg%2F11bzs43my6!19sChIJk1xf3gocgEcR7YDnq1JIXQQ?authuser=0&hl=tr&rclk=1",
    "website_url": "http://www.idraulicaemiliana.com/",
    "rating_text": "4,4",
    "stars": null,
    "number_of_reviews": null,
    "price_level": "",
    "open_hours": "",
    "extraction_timestamp": "2025-06-07T16:15:09.894Z",
    "source_name": "google",
    "source_query": "Irrigation Equipment",
    "source_country": "IT",
    "country": "Italy",
    "state": "Emilia-Romagna",
    "city": "Correggio"
  },
  {
    "source_id": "ChIJQ0CSwgocgEcRVX3A3Ox6yyA",
    "name": "Gom-Plast",
    "category": "Gom-Plast",
    "formatted_address": "4,1(138)",
    "phone_number": "+390522382333",
    "source_url": "https://www.google.com/maps/place/Gom-Plast/data=!4m7!3m6!1s0x47801c0ac2924043:0x20cb7aecdcc07d55!8m2!3d44.7138804!4d10.6066999!16s%2Fg%2F1tcyd9rq!19sChIJQ0CSwgocgEcRVX3A3Ox6yyA?authuser=0&hl=tr&rclk=1",
    "website_url": "http://www.gomplast.it/",
    "rating_text": "4,1",
    "stars": null,
    "number_of_reviews": null,
    "price_level": "",
    "open_hours": "",
    "extraction_timestamp": "2025-06-07T16:15:09.895Z",
    "source_name": "google",
    "source_query": "Irrigation Equipment",
    "source_country": "IT",
    "country": "Italy",
    "state": "Emilia-Romagna",
    "city": "Correggio"
  },
  {
    "source_id": "ChIJwf9JNlvzf0cRvshbegsVoig",
    "name": "Bett Sistemi Srl",
    "category": "Bett Sistemi Srl",
    "formatted_address": "4,7(11)",
    "phone_number": "+390522635111",
    "source_url": "https://www.google.com/maps/place/Bett+Sistemi+Srl/data=!4m7!3m6!1s0x477ff35b3649ffc1:0x28a2150b7a5bc8be!8m2!3d44.7722263!4d10.8258775!16s%2Fg%2F1tdvnlh2!19sChIJwf9JNlvzf0cRvshbegsVoig?authuser=0&hl=tr&rclk=1",
    "website_url": "http://www.bettsistemi.com/",
    "rating_text": "4,7",
    "stars": null,
    "number_of_reviews": null,
    "price_level": "",
    "open_hours": "",
    "extraction_timestamp": "2025-06-07T16:15:09.896Z",
    "source_name": "google",
    "source_query": "Irrigation Equipment",
    "source_country": "IT",
    "country": "Italy",
    "state": "Emilia-Romagna",
    "city": "Correggio"
  },
  {
    "source_id": "ChIJVWVdwZ70f0cRToXB9d15HXk",
    "name": "Spal Automotive",
    "category": "Spal Automotive",
    "formatted_address": "4,3(458)",
    "phone_number": "+390522731311",
    "source_url": "https://www.google.com/maps/place/Spal+Automotive/data=!4m7!3m6!1s0x477ff49ec15d6555:0x791d79ddf5c1854e!8m2!3d44.7656202!4d10.8072335!16s%2Fg%2F11b6hyglby!19sChIJVWVdwZ70f0cRToXB9d15HXk?authuser=0&hl=tr&rclk=1",
    "website_url": "https://www.spalautomotive.com/",
    "rating_text": "4,3",
    "stars": null,
    "number_of_reviews": null,
    "price_level": "",
    "open_hours": "",
    "extraction_timestamp": "2025-06-07T16:15:09.897Z",
    "source_name": "google",
    "source_query": "Irrigation Equipment",
    "source_country": "IT",
    "country": "Italy",
    "state": "Emilia-Romagna",
    "city": "Correggio"
  },
  {
    "source_id": "ChIJi24mSbsggEcRb26xfRLERzM",
    "name": "Garden Store",
    "category": "Garden Store",
    "formatted_address": "4,5(73)",
    "phone_number": "+393351499648",
    "source_url": "https://www.google.com/maps/place/Garden+Store/data=!4m7!3m6!1s0x478020bb49266e8b:0x3347c4127db16e6f!8m2!3d44.8472938!4d10.7413978!16s%2Fg%2F119x3dp7l!19sChIJi24mSbsggEcRb26xfRLERzM?authuser=0&hl=tr&rclk=1",
    "website_url": "http://www.gardenstoresrl.it/",
    "rating_text": "4,5",
    "stars": null,
    "number_of_reviews": null,
    "price_level": "",
    "open_hours": "",
    "extraction_timestamp": "2025-06-07T16:15:09.898Z",
    "source_name": "google",
    "source_query": "Irrigation Equipment",
    "source_country": "IT",
    "country": "Italy",
    "state": "Emilia-Romagna",
    "city": "Correggio"
  },
  {
    "source_id": "ChIJ3SjiCzMagEcRDX4gPOM2sM4",
    "name": "Emiltec Srl - Tecnologie per la pulizia industriale",
    "category": "Emiltec Srl - Tecnologie per la pulizia industriale",
    "formatted_address": "4,3(3)",
    "phone_number": "+390522941825",
    "source_url": "https://www.google.com/maps/place/Emiltec+Srl+-+Tecnologie+per+la+pulizia+industriale/data=!4m7!3m6!1s0x47801a330be228dd:0xceb036e33c207e0d!8m2!3d44.7427684!4d10.6495126!16s%2Fg%2F11g5_4qxs1!19sChIJ3SjiCzMagEcRDX4gPOM2sM4?authuser=0&hl=tr&rclk=1",
    "website_url": "https://www.emiltec.com/",
    "rating_text": "4,3",
    "stars": null,
    "number_of_reviews": null,
    "price_level": "",
    "open_hours": "",
    "extraction_timestamp": "2025-06-07T16:15:09.899Z",
    "source_name": "google",
    "source_query": "Irrigation Equipment",
    "source_country": "IT",
    "country": "Italy",
    "state": "Emilia-Romagna",
    "city": "Correggio"
  },
  {
    "source_id": "ChIJj4sQycL0f0cRkic-CIFg_2E",
    "name": "Erboristeria Colli Ssa Nedda (S N C )",
    "category": "Erboristeria Colli Ssa Nedda (S N C )",
    "formatted_address": "4,9(48)",
    "phone_number": "+390522691863",
    "source_url": "https://www.google.com/maps/place/Erboristeria+Colli+Ssa+Nedda+%28S+N+C+%29/data=!4m7!3m6!1s0x477ff4c2c9108b8f:0x61ff6081083e2792!8m2!3d44.7717637!4d10.7796803!16s%2Fg%2F11b6j0h8q_!19sChIJj4sQycL0f0cRkic-CIFg_2E?authuser=0&hl=tr&rclk=1",
    "website_url": "",
    "rating_text": "4,9",
    "stars": null,
    "number_of_reviews": null,
    "price_level": "",
    "open_hours": "",
    "extraction_timestamp": "2025-06-07T16:15:09.900Z",
    "source_name": "google",
    "source_query": "Irrigation Equipment",
    "source_country": "IT",
    "country": "Italy",
    "state": "Emilia-Romagna",
    "city": "Correggio"
  },
  {
    "source_id": "ChIJEc__GSwcgEcRbm8jWRg9fA4",
    "name": "Camellini Luca",
    "category": "Camellini Luca",
    "formatted_address": "5,0(4)",
    "phone_number": "+393292244740",
    "source_url": "https://www.google.com/maps/place/Camellini+Luca/data=!4m7!3m6!1s0x47801c2c19ffcf11:0xe7c3d1859236f6e!8m2!3d44.7207285!4d10.6491056!16s%2Fg%2F1vxdx437!19sChIJEc__GSwcgEcRbm8jWRg9fA4?authuser=0&hl=tr&rclk=1",
    "website_url": "https://m.facebook.com/camellinigiardinaggio/",
    "rating_text": "5,0",
    "stars": null,
    "number_of_reviews": null,
    "price_level": "",
    "open_hours": "",
    "extraction_timestamp": "2025-06-07T16:15:09.901Z",
    "source_name": "google",
    "source_query": "Irrigation Equipment",
    "source_country": "IT",
    "country": "Italy",
    "state": "Emilia-Romagna",
    "city": "Correggio"
  },
  {
    "source_id": "ChIJeyF_JI0dgEcRph_mLapLnA0",
    "name": "Bertani S.p.a. - Sede e Magazzino di Reggio Emilia",
    "category": "Bertani S.p.a. - Sede e Magazzino di Reggio Emilia",
    "formatted_address": "4,1(98)",
    "phone_number": "+390522355511",
    "source_url": "https://www.google.com/maps/place/Bertani+S.p.a.+-+Sede+e+Magazzino+di+Reggio+Emilia/data=!4m7!3m6!1s0x47801d8d247f217b:0xd9c4baa2de61fa6!8m2!3d44.6724548!4d10.6435146!16s%2Fg%2F1wf37g1y!19sChIJeyF_JI0dgEcRph_mLapLnA0?authuser=0&hl=tr&rclk=1",
    "website_url": "https://www.bertani.it/it_IT/punti-vendita/sede-reggio-emilia",
    "rating_text": "4,1",
    "stars": null,
    "number_of_reviews": null,
    "price_level": "",
    "open_hours": "",
    "extraction_timestamp": "2025-06-07T16:15:09.902Z",
    "source_name": "google",
    "source_query": "Irrigation Equipment",
    "source_country": "IT",
    "country": "Italy",
    "state": "Emilia-Romagna",
    "city": "Correggio"
  },
  {
    "source_id": "ChIJAdruoW0cgEcR3Gg91KmmNQw",
    "name": "Kramp Italia",
    "category": "Kramp Italia",
    "formatted_address": "4,7(18)",
    "phone_number": "+3905221712630",
    "source_url": "https://www.google.com/maps/place/Kramp+Italia/data=!4m7!3m6!1s0x47801c6da1eeda01:0xc35a6a9d43d68dc!8m2!3d44.711173!4d10.7080676!16s%2Fg%2F1hc4fppvw!19sChIJAdruoW0cgEcR3Gg91KmmNQw?authuser=0&hl=tr&rclk=1",
    "website_url": "https://www.kramp.com/shop-it/it?utm_source=google&utm_medium=organic&utm_campaign=gmb&utm_content=website",
    "rating_text": "4,7",
    "stars": null,
    "number_of_reviews": null,
    "price_level": "",
    "open_hours": "",
    "extraction_timestamp": "2025-06-07T16:15:09.903Z",
    "source_name": "google",
    "source_query": "Irrigation Equipment",
    "source_country": "IT",
    "country": "Italy",
    "state": "Emilia-Romagna",
    "city": "Correggio"
  },
  {
    "source_id": "ChIJa8flob_wf0cRa7XVBodnL2I",
    "name": "Arag Srl",
    "category": "Arag Srl",
    "formatted_address": "4,6(141)",
    "phone_number": "+390522622011",
    "source_url": "https://www.google.com/maps/place/Arag+Srl/data=!4m7!3m6!1s0x477ff0bfa1e5c76b:0x622f678706d5b56b!8m2!3d44.6556162!4d10.7922409!16s%2Fg%2F1tdnd2vb!19sChIJa8flob_wf0cRa7XVBodnL2I?authuser=0&hl=tr&rclk=1",
    "website_url": "http://www.aragnet.com/",
    "rating_text": "4,6",
    "stars": null,
    "number_of_reviews": null,
    "price_level": "",
    "open_hours": "",
    "extraction_timestamp": "2025-06-07T16:15:09.904Z",
    "source_name": "google",
    "source_query": "Irrigation Equipment",
    "source_country": "IT",
    "country": "Italy",
    "state": "Emilia-Romagna",
    "city": "Correggio"
  }
]
