[
  {
    "source_id": "ChIJc845KhrCgEcR4Yj_ZQfBl7M",
    "name": "Settima Meccanica S. R. L.",
    "category": "Settima Meccanica S. R. L.",
    "formatted_address": "4,7(19)",
    "phone_number": "+3905233650",
    "source_url": "https://www.google.com/maps/place/Settima+Meccanica+S.+R.+L./data=!4m7!3m6!1s0x4780c21a2a39ce73:0xb397c10765ff88e1!8m2!3d44.9817685!4d9.9220998!16s%2Fg%2F1tdl4_47!19sChIJc845KhrCgEcR4Yj_ZQfBl7M?authuser=0&hl=tr&rclk=1",
    "website_url": "http://www.settima.it/",
    "rating_text": "4,7",
    "stars": null,
    "number_of_reviews": null,
    "price_level": "",
    "open_hours": "",
    "extraction_timestamp": "2025-06-07T16:20:54.960Z",
    "source_name": "google",
    "source_query": "Irrigation Equipment",
    "source_country": "IT",
    "country": "Italy",
    "state": "Emilia-Romagna",
    "city": "Cortemaggiore"
  },
  {
    "source_id": "ChIJy805WcDcgEcRtmGWlwosXQc",
    "name": "IRRIMEC SRL",
    "category": "IRRIMEC SRL",
    "formatted_address": "4,5(90)",
    "phone_number": "+390523760441",
    "source_url": "https://www.google.com/maps/place/IRRIMEC+SRL/data=!4m7!3m6!1s0x4780dcc05939cdcb:0x75d2c0a979661b6!8m2!3d45.0612353!4d9.630829!16s%2Fg%2F1tdgt7d_!19sChIJy805WcDcgEcRtmGWlwosXQc?authuser=0&hl=tr&rclk=1",
    "website_url": "http://www.irrimec.com/",
    "rating_text": "4,5",
    "stars": null,
    "number_of_reviews": null,
    "price_level": "",
    "open_hours": "",
    "extraction_timestamp": "2025-06-07T16:20:54.962Z",
    "source_name": "google",
    "source_query": "Irrigation Equipment",
    "source_country": "IT",
    "country": "Italy",
    "state": "Emilia-Romagna",
    "city": "Cortemaggiore"
  },
  {
    "source_id": "ChIJj-3pYenwgEcRpIkKbiC12uY",
    "name": "Italferramenta Di Affaticati Flaviano",
    "category": "Italferramenta Di Affaticati Flaviano",
    "formatted_address": "4,6(40)",
    "phone_number": "+390523836496",
    "source_url": "https://www.google.com/maps/place/Italferramenta+Di+Affaticati+Flaviano/data=!4m7!3m6!1s0x4780f0e961e9ed8f:0xe6dab5206e0a89a4!8m2!3d44.9939355!4d9.9298772!16s%2Fg%2F1tqf_5g0!19sChIJj-3pYenwgEcRpIkKbiC12uY?authuser=0&hl=tr&rclk=1",
    "website_url": "",
    "rating_text": "4,6",
    "stars": null,
    "number_of_reviews": null,
    "price_level": "",
    "open_hours": "",
    "extraction_timestamp": "2025-06-07T16:20:54.965Z",
    "source_name": "google",
    "source_query": "Irrigation Equipment",
    "source_country": "IT",
    "country": "Italy",
    "state": "Emilia-Romagna",
    "city": "Cortemaggiore"
  },
  {
    "source_id": "ChIJ90762m6rgUcRrOpHkQtN0qE",
    "name": "ACQUAFERT",
    "category": "ACQUAFERT",
    "formatted_address": "4,8(13)",
    "phone_number": "+390372835672",
    "source_url": "https://www.google.com/maps/place/ACQUAFERT/data=!4m7!3m6!1s0x4781ab6edafa4ef7:0xa1d24d0b9147eaac!8m2!3d45.1695663!4d10.1916537!16s%2Fg%2F11c1ny5b5r!19sChIJ90762m6rgUcRrOpHkQtN0qE?authuser=0&hl=tr&rclk=1",
    "website_url": "https://www.acquafertagri.it/",
    "rating_text": "4,8",
    "stars": null,
    "number_of_reviews": null,
    "price_level": "",
    "open_hours": "",
    "extraction_timestamp": "2025-06-07T16:20:54.967Z",
    "source_name": "google",
    "source_query": "Irrigation Equipment",
    "source_country": "IT",
    "country": "Italy",
    "state": "Emilia-Romagna",
    "city": "Cortemaggiore"
  },
  {
    "source_id": "ChIJtVDkNgRFgEcRqc6umwWIJuI",
    "name": "Rm Spa",
    "category": "Rm Spa",
    "formatted_address": "4,6(81)",
    "phone_number": "+390521872321",
    "source_url": "https://www.google.com/maps/place/Rm+Spa/data=!4m7!3m6!1s0x4780450436e450b5:0xe22688059baecea9!8m2!3d44.9105406!4d10.2583785!16s%2Fg%2F12hl93byl!19sChIJtVDkNgRFgEcRqc6umwWIJuI?authuser=0&hl=tr&rclk=1",
    "website_url": "http://www.rmirrigation.com/",
    "rating_text": "4,6",
    "stars": null,
    "number_of_reviews": null,
    "price_level": "",
    "open_hours": "",
    "extraction_timestamp": "2025-06-07T16:20:54.969Z",
    "source_name": "google",
    "source_query": "Irrigation Equipment",
    "source_country": "IT",
    "country": "Italy",
    "state": "Emilia-Romagna",
    "city": "Cortemaggiore"
  },
  {
    "source_id": "ChIJCdwQIfbNgEcRtWOzhvtW0iA",
    "name": "Agrimil Tech Srl",
    "category": "Agrimil Tech Srl",
    "formatted_address": "4,8(9)",
    "phone_number": "+390523849679",
    "source_url": "https://www.google.com/maps/place/Agrimil+Tech+Srl/data=!4m7!3m6!1s0x4780cdf62110dc09:0x20d256fb86b363b5!8m2!3d45.0556557!4d9.5030905!16s%2Fg%2F1tdf9z93!19sChIJCdwQIfbNgEcRtWOzhvtW0iA?authuser=0&hl=tr&rclk=1",
    "website_url": "http://www.agrimil.it/",
    "rating_text": "4,8",
    "stars": null,
    "number_of_reviews": null,
    "price_level": "",
    "open_hours": "",
    "extraction_timestamp": "2025-06-07T16:20:54.971Z",
    "source_name": "google",
    "source_query": "Irrigation Equipment",
    "source_country": "IT",
    "country": "Italy",
    "state": "Emilia-Romagna",
    "city": "Cortemaggiore"
  },
  {
    "source_id": "ChIJ5SlSqmb7gEcRTt-nio3AP2A",
    "name": "G.S Power Air srl",
    "category": "G.S Power Air srl",
    "formatted_address": "4,4(7)",
    "phone_number": "+393357800661",
    "source_url": "https://www.google.com/maps/place/G.S+Power+Air+srl/data=!4m7!3m6!1s0x4780fb66aa5229e5:0x603fc08d8aa7df4e!8m2!3d44.9700849!4d9.9199731!16s%2Fg%2F11b6j81zql!19sChIJ5SlSqmb7gEcRTt-nio3AP2A?authuser=0&hl=tr&rclk=1",
    "website_url": "http://www.gspowerair.it/",
    "rating_text": "4,4",
    "stars": null,
    "number_of_reviews": null,
    "price_level": "",
    "open_hours": "",
    "extraction_timestamp": "2025-06-07T16:20:54.973Z",
    "source_name": "google",
    "source_query": "Irrigation Equipment",
    "source_country": "IT",
    "country": "Italy",
    "state": "Emilia-Romagna",
    "city": "Cortemaggiore"
  },
  {
    "source_id": "ChIJf1rZSIfogEcR3YyIhIElauY",
    "name": "Padana Impianti s.r.l.",
    "category": "Padana Impianti s.r.l.",
    "formatted_address": "2,6(10)",
    "phone_number": "+390523593433",
    "source_url": "https://www.google.com/maps/place/Padana+Impianti+s.r.l./data=!4m7!3m6!1s0x4780e88748d95a7f:0xe66a258184888cdd!8m2!3d45.0296596!4d9.7377708!16s%2Fg%2F1ptw328_0!19sChIJf1rZSIfogEcR3YyIhIElauY?authuser=0&hl=tr&rclk=1",
    "website_url": "http://www.padanaimpianti.it/",
    "rating_text": "2,6",
    "stars": null,
    "number_of_reviews": null,
    "price_level": "",
    "open_hours": "",
    "extraction_timestamp": "2025-06-07T16:20:54.975Z",
    "source_name": "google",
    "source_query": "Irrigation Equipment",
    "source_country": "IT",
    "country": "Italy",
    "state": "Emilia-Romagna",
    "city": "Cortemaggiore"
  },
  {
    "source_id": "ChIJP-CISQ3-gEcRXwl1yi9NW2Q",
    "name": "SIIP - Società Impianti di irrigazione a pioggia",
    "category": "SIIP - Società Impianti di irrigazione a pioggia",
    "formatted_address": "5,0(2)",
    "phone_number": "+393356863605",
    "source_url": "https://www.google.com/maps/place/SIIP+-+Societ%C3%A0+Impianti+di+irrigazione+a+pioggia/data=!4m7!3m6!1s0x4780fe0d4988e03f:0x645b4d2fca75095f!8m2!3d45.1417827!4d10.0200624!16s%2Fg%2F1vqtfn9y!19sChIJP-CISQ3-gEcRXwl1yi9NW2Q?authuser=0&hl=tr&rclk=1",
    "website_url": "https://www.impiantiirrigazionicremona.com/",
    "rating_text": "5,0",
    "stars": null,
    "number_of_reviews": null,
    "price_level": "",
    "open_hours": "",
    "extraction_timestamp": "2025-06-07T16:20:54.977Z",
    "source_name": "google",
    "source_query": "Irrigation Equipment",
    "source_country": "IT",
    "country": "Italy",
    "state": "Emilia-Romagna",
    "city": "Cortemaggiore"
  },
  {
    "source_id": "ChIJ4WnZNofogEcRcCSJgGupNXk",
    "name": "Irrigarden",
    "category": "Irrigarden",
    "formatted_address": "3,7(6)",
    "phone_number": "+390523592012",
    "source_url": "https://www.google.com/maps/place/Irrigarden/data=!4m7!3m6!1s0x4780e88736d969e1:0x7935a96b80892470!8m2!3d45.0288739!4d9.7384753!16s%2Fg%2F11g4d1r753!19sChIJ4WnZNofogEcRcCSJgGupNXk?authuser=0&hl=tr&rclk=1",
    "website_url": "https://www.irrigarden.com/",
    "rating_text": "3,7",
    "stars": null,
    "number_of_reviews": null,
    "price_level": "",
    "open_hours": "",
    "extraction_timestamp": "2025-06-07T16:20:54.978Z",
    "source_name": "google",
    "source_query": "Irrigation Equipment",
    "source_country": "IT",
    "country": "Italy",
    "state": "Emilia-Romagna",
    "city": "Cortemaggiore"
  },
  {
    "source_id": "ChIJC0LYzsXngEcR8g_5HSSzAko",
    "name": "Pulitecno",
    "category": "Pulitecno",
    "formatted_address": "5,0(5)",
    "phone_number": "+390523577811",
    "source_url": "https://www.google.com/maps/place/Pulitecno/data=!4m7!3m6!1s0x4780e7c5ced8420b:0x4a02b3241df90ff2!8m2!3d45.0483093!4d9.7294483!16s%2Fg%2F11fxwb60cv!19sChIJC0LYzsXngEcR8g_5HSSzAko?authuser=0&hl=tr&rclk=1",
    "website_url": "http://www.pulitecnosrl.it/",
    "rating_text": "5,0",
    "stars": null,
    "number_of_reviews": null,
    "price_level": "",
    "open_hours": "",
    "extraction_timestamp": "2025-06-07T16:20:54.980Z",
    "source_name": "google",
    "source_query": "Irrigation Equipment",
    "source_country": "IT",
    "country": "Italy",
    "state": "Emilia-Romagna",
    "city": "Cortemaggiore"
  },
  {
    "source_id": "ChIJc6jM3urzgEcR9CK5Eid06hU",
    "name": "A & P Ferramenta di Dharam Pal",
    "category": "A & P Ferramenta di Dharam Pal",
    "formatted_address": "4,8(20)",
    "phone_number": "+390523836629",
    "source_url": "https://www.google.com/maps/place/A+%26+P+Ferramenta+di+Dharam+Pal/data=!4m7!3m6!1s0x4780f3eadecca873:0x15ea742712b922f4!8m2!3d44.9966192!4d9.9316893!16s%2Fg%2F1tl0w5rz!19sChIJc6jM3urzgEcR9CK5Eid06hU?authuser=0&hl=tr&rclk=1",
    "website_url": "",
    "rating_text": "4,8",
    "stars": null,
    "number_of_reviews": null,
    "price_level": "",
    "open_hours": "",
    "extraction_timestamp": "2025-06-07T16:20:54.982Z",
    "source_name": "google",
    "source_query": "Irrigation Equipment",
    "source_country": "IT",
    "country": "Italy",
    "state": "Emilia-Romagna",
    "city": "Cortemaggiore"
  }
]
