[
  {
    "source_id": "ChIJkzU7v-7Zf0cRXv3FxVV7T4c",
    "name": "Geocentro",
    "category": "Geocentro",
    "formatted_address": "4,3(58)",
    "phone_number": "+390516720044",
    "source_url": "https://www.google.com/maps/place/Geocentro/data=!4m7!3m6!1s0x477fd9eebf3b3593:0x874f7b55c5c5fd5e!8m2!3d44.5139091!4d11.1695675!16s%2Fg%2F11b7jx7b07!19sChIJkzU7v-7Zf0cRXv3FxVV7T4c?authuser=0&hl=tr&rclk=1",
    "website_url": "https://www.geocentro.it/",
    "rating_text": "4,3",
    "stars": null,
    "number_of_reviews": null,
    "price_level": "",
    "open_hours": "",
    "extraction_timestamp": "2025-06-07T16:00:43.639Z",
    "source_name": "google",
    "source_query": "Irrigation Equipment",
    "source_country": "IT",
    "country": "Italy",
    "state": "Emilia-Romagna",
    "city": "Crespellano"
  },
  {
    "source_id": "ChIJD7WBmGnaf0cR-U628W-egio",
    "name": "Euroequipe Srl",
    "category": "Euroequipe Srl",
    "formatted_address": "4,4(20)",
    "phone_number": "+39051734808",
    "source_url": "https://www.google.com/maps/place/Euroequipe+Srl/data=!4m7!3m6!1s0x477fda699881b50f:0x2a829e6ff1b64ef9!8m2!3d44.5504658!4d11.1791057!16s%2Fg%2F1hc0wtx5b!19sChIJD7WBmGnaf0cR-U628W-egio?authuser=0&hl=tr&rclk=1",
    "website_url": "https://euroequipe.eu/",
    "rating_text": "4,4",
    "stars": null,
    "number_of_reviews": null,
    "price_level": "",
    "open_hours": "",
    "extraction_timestamp": "2025-06-07T16:00:43.641Z",
    "source_name": "google",
    "source_query": "Irrigation Equipment",
    "source_country": "IT",
    "country": "Italy",
    "state": "Emilia-Romagna",
    "city": "Crespellano"
  },
  {
    "source_id": "ChIJK9a8G-rZf0cRqP4gBIJd80o",
    "name": "RN Servizi Tecnici",
    "category": "RN Servizi Tecnici",
    "formatted_address": "4,0(5)",
    "phone_number": "+39051969658",
    "source_url": "https://www.google.com/maps/place/RN+Servizi+Tecnici/data=!4m7!3m6!1s0x477fd9ea1bbcd62b:0x4af35d820420fea8!8m2!3d44.5107709!4d11.1391225!16s%2Fg%2F1ptxvf6vc!19sChIJK9a8G-rZf0cRqP4gBIJd80o?authuser=0&hl=tr&rclk=1",
    "website_url": "",
    "rating_text": "4,0",
    "stars": null,
    "number_of_reviews": null,
    "price_level": "",
    "open_hours": "",
    "extraction_timestamp": "2025-06-07T16:00:43.643Z",
    "source_name": "google",
    "source_query": "Irrigation Equipment",
    "source_country": "IT",
    "country": "Italy",
    "state": "Emilia-Romagna",
    "city": "Crespellano"
  },
  {
    "source_id": "ChIJE_3jOnMtfkcRkxtTFj3Ym9E",
    "name": "Irrigation Scarabelli Srl",
    "category": "Irrigation Scarabelli Srl",
    "formatted_address": "4,5(23)",
    "phone_number": "+39051763363",
    "source_url": "https://www.google.com/maps/place/Irrigation+Scarabelli+Srl/data=!4m7!3m6!1s0x477e2d733ae3fd13:0xd19bd83d16531b93!8m2!3d44.5426053!4d11.4189136!16s%2Fg%2F11gzdz6vf!19sChIJE_3jOnMtfkcRkxtTFj3Ym9E?authuser=0&hl=tr&rclk=1",
    "website_url": "",
    "rating_text": "4,5",
    "stars": null,
    "number_of_reviews": null,
    "price_level": "",
    "open_hours": "",
    "extraction_timestamp": "2025-06-07T16:00:43.645Z",
    "source_name": "google",
    "source_query": "Irrigation Equipment",
    "source_country": "IT",
    "country": "Italy",
    "state": "Emilia-Romagna",
    "city": "Crespellano"
  },
  {
    "source_id": "ChIJcd-ddhPZf0cRCzEmVpsdjPM",
    "name": "Grilli Egidio",
    "category": "Grilli Egidio",
    "formatted_address": "4,3(62)",
    "phone_number": "+39051964603",
    "source_url": "https://www.google.com/maps/place/Grilli+Egidio/data=!4m7!3m6!1s0x477fd913769ddf71:0xf38c1d9b5626310b!8m2!3d44.5103135!4d11.1126965!16s%2Fg%2F1tl7mknq!19sChIJcd-ddhPZf0cRCzEmVpsdjPM?authuser=0&hl=tr&rclk=1",
    "website_url": "",
    "rating_text": "4,3",
    "stars": null,
    "number_of_reviews": null,
    "price_level": "",
    "open_hours": "",
    "extraction_timestamp": "2025-06-07T16:00:43.647Z",
    "source_name": "google",
    "source_query": "Irrigation Equipment",
    "source_country": "IT",
    "country": "Italy",
    "state": "Emilia-Romagna",
    "city": "Crespellano"
  },
  {
    "source_id": "ChIJcQG6ul7df0cR3VxKiu5OPBs",
    "name": "Scova Impianti Srl",
    "category": "Scova Impianti Srl",
    "formatted_address": "4,5(64)",
    "phone_number": "+39059923202",
    "source_url": "https://www.google.com/maps/place/Scova+Impianti+Srl/data=!4m7!3m6!1s0x477fdd5ebaba0171:0x1b3c4eee8a4a5cdd!8m2!3d44.6018135!4d11.032294!16s%2Fg%2F1tfzwbfb!19sChIJcQG6ul7df0cR3VxKiu5OPBs?authuser=0&hl=tr&rclk=1",
    "website_url": "https://www.scovaimpianti.com/",
    "rating_text": "4,5",
    "stars": null,
    "number_of_reviews": null,
    "price_level": "",
    "open_hours": "",
    "extraction_timestamp": "2025-06-07T16:00:43.648Z",
    "source_name": "google",
    "source_query": "Irrigation Equipment",
    "source_country": "IT",
    "country": "Italy",
    "state": "Emilia-Romagna",
    "city": "Crespellano"
  },
  {
    "source_id": "ChIJ_SYf2IMsfkcRVw9xVhrnjyI",
    "name": "Irrigazione Bragaglia",
    "category": "Irrigazione Bragaglia",
    "formatted_address": "4,7(30)",
    "phone_number": "+39051534865",
    "source_url": "https://www.google.com/maps/place/Irrigazione+Bragaglia/data=!4m7!3m6!1s0x477e2c83d81f26fd:0x228fe71a56710f57!8m2!3d44.5053735!4d11.412403!16s%2Fg%2F1vp6z0gf!19sChIJ_SYf2IMsfkcRVw9xVhrnjyI?authuser=0&hl=tr&rclk=1",
    "website_url": "http://www.irrigazionebragaglia.it/",
    "rating_text": "4,7",
    "stars": null,
    "number_of_reviews": null,
    "price_level": "",
    "open_hours": "",
    "extraction_timestamp": "2025-06-07T16:00:43.650Z",
    "source_name": "google",
    "source_query": "Irrigation Equipment",
    "source_country": "IT",
    "country": "Italy",
    "state": "Emilia-Romagna",
    "city": "Crespellano"
  },
  {
    "source_id": "ChIJc49_1mvaf0cRt-X4SuFoM0Q",
    "name": "Idroeasy",
    "category": "Idroeasy",
    "formatted_address": "5,0(1)",
    "phone_number": "+39051734808",
    "source_url": "https://www.google.com/maps/place/Idroeasy/data=!4m7!3m6!1s0x477fda6bd67f8f73:0x443368e14af8e5b7!8m2!3d44.5504658!4d11.1791057!16s%2Fg%2F11c6s45w5s!19sChIJc49_1mvaf0cRt-X4SuFoM0Q?authuser=0&hl=tr&rclk=1",
    "website_url": "http://idroeasy.com/",
    "rating_text": "5,0",
    "stars": null,
    "number_of_reviews": null,
    "price_level": "",
    "open_hours": "",
    "extraction_timestamp": "2025-06-07T16:00:43.652Z",
    "source_name": "google",
    "source_query": "Irrigation Equipment",
    "source_country": "IT",
    "country": "Italy",
    "state": "Emilia-Romagna",
    "city": "Crespellano"
  },
  {
    "source_id": "ChIJNdkI15jMKhMR0pvkGYU1wA8",
    "name": "VI-BO s.r.l.",
    "category": "VI-BO s.r.l.",
    "formatted_address": "4,4(61)",
    "phone_number": "+39051831443",
    "source_url": "https://www.google.com/maps/place/VI-BO+s.r.l./data=!4m7!3m6!1s0x132acc98d708d935:0xfc0358519e49bd2!8m2!3d44.5068134!4d11.0738512!16s%2Fg%2F11b6jh6jxk!19sChIJNdkI15jMKhMR0pvkGYU1wA8?authuser=0&hl=tr&rclk=1",
    "website_url": "http://www.vibogreen.it/",
    "rating_text": "4,4",
    "stars": null,
    "number_of_reviews": null,
    "price_level": "",
    "open_hours": "",
    "extraction_timestamp": "2025-06-07T16:00:43.654Z",
    "source_name": "google",
    "source_query": "Irrigation Equipment",
    "source_country": "IT",
    "country": "Italy",
    "state": "Emilia-Romagna",
    "city": "Crespellano"
  },
  {
    "source_id": "ChIJqdtsqMTaf0cRFSqvzNBB5Tw",
    "name": "Ricchetti Irrigazione Snc Di Alberghini Paolo E C.",
    "category": "Ricchetti Irrigazione Snc Di Alberghini Paolo E C.",
    "formatted_address": "4,9(31)",
    "phone_number": "+39051950115",
    "source_url": "https://www.google.com/maps/place/Ricchetti+Irrigazione+Snc+Di+Alberghini+Paolo+E+C./data=!4m7!3m6!1s0x477fdac4a86cdba9:0x3ce541d0ccaf2a15!8m2!3d44.5883369!4d11.1803569!16s%2Fg%2F1vfn5hgh!19sChIJqdtsqMTaf0cRFSqvzNBB5Tw?authuser=0&hl=tr&rclk=1",
    "website_url": "http://www.ricchetti-irrigatori.it/",
    "rating_text": "4,9",
    "stars": null,
    "number_of_reviews": null,
    "price_level": "",
    "open_hours": "",
    "extraction_timestamp": "2025-06-07T16:00:43.655Z",
    "source_name": "google",
    "source_query": "Irrigation Equipment",
    "source_country": "IT",
    "country": "Italy",
    "state": "Emilia-Romagna",
    "city": "Crespellano"
  },
  {
    "source_id": "ChIJNVXOBZjZf0cRtBfq6iJt3RA",
    "name": "Idrotermica Zola Di Cannata Nicola",
    "category": "Idrotermica Zola Di Cannata Nicola",
    "formatted_address": "4,3(40)",
    "phone_number": "+390510231688",
    "source_url": "https://www.google.com/maps/place/Idrotermica+Zola+Di+Cannata+Nicola/data=!4m7!3m6!1s0x477fd99805ce5535:0x10dd6d22eaea17b4!8m2!3d44.5112447!4d11.1465953!16s%2Fg%2F1ptwffqbs!19sChIJNVXOBZjZf0cRtBfq6iJt3RA?authuser=0&hl=tr&rclk=1",
    "website_url": "",
    "rating_text": "4,3",
    "stars": null,
    "number_of_reviews": null,
    "price_level": "",
    "open_hours": "",
    "extraction_timestamp": "2025-06-07T16:00:43.657Z",
    "source_name": "google",
    "source_query": "Irrigation Equipment",
    "source_country": "IT",
    "country": "Italy",
    "state": "Emilia-Romagna",
    "city": "Crespellano"
  },
  {
    "source_id": "ChIJh3Nd8G0sfkcR_m7VewEmxXM",
    "name": "Irrigarden",
    "category": "Irrigarden",
    "formatted_address": "4,7(158)",
    "phone_number": "+39051782013",
    "source_url": "https://www.google.com/maps/place/Irrigarden/data=!4m7!3m6!1s0x477e2c6df05d7387:0x73c526017bd56efe!8m2!3d44.5096266!4d11.4390897!16s%2Fg%2F1vgw_l7w!19sChIJh3Nd8G0sfkcR_m7VewEmxXM?authuser=0&hl=tr&rclk=1",
    "website_url": "https://www.irrigarden-bo.it/",
    "rating_text": "4,7",
    "stars": null,
    "number_of_reviews": null,
    "price_level": "",
    "open_hours": "",
    "extraction_timestamp": "2025-06-07T16:00:43.659Z",
    "source_name": "google",
    "source_query": "Irrigation Equipment",
    "source_country": "IT",
    "country": "Italy",
    "state": "Emilia-Romagna",
    "city": "Crespellano"
  },
  {
    "source_id": "ChIJ5yLikrjbf0cRBf97Zg1XAaE",
    "name": "Tecnicomm Snc",
    "category": "Tecnicomm Snc",
    "formatted_address": "4,7(3)",
    "phone_number": "+39051963053",
    "source_url": "https://www.google.com/maps/place/Tecnicomm+Snc/data=!4m7!3m6!1s0x477fdbb892e222e7:0xa101570d667bff05!8m2!3d44.5497512!4d11.1371438!16s%2Fg%2F1tvykm5b!19sChIJ5yLikrjbf0cRBf97Zg1XAaE?authuser=0&hl=tr&rclk=1",
    "website_url": "http://www.tecnicomm.it/",
    "rating_text": "4,7",
    "stars": null,
    "number_of_reviews": null,
    "price_level": "",
    "open_hours": "",
    "extraction_timestamp": "2025-06-07T16:00:43.660Z",
    "source_name": "google",
    "source_query": "Irrigation Equipment",
    "source_country": "IT",
    "country": "Italy",
    "state": "Emilia-Romagna",
    "city": "Crespellano"
  },
  {
    "source_id": "ChIJhT-kpAXff0cRKJQqKYwIulA",
    "name": "Irrigo",
    "category": "Irrigo",
    "formatted_address": "4,7(36)",
    "phone_number": "+393473096499",
    "source_url": "https://www.google.com/maps/place/Irrigo/data=!4m7!3m6!1s0x477fdf05a4a43f85:0x50ba088c292a9428!8m2!3d44.5018172!4d11.005272!16s%2Fg%2F11hdjcp5pk!19sChIJhT-kpAXff0cRKJQqKYwIulA?authuser=0&hl=tr&rclk=1",
    "website_url": "https://www.irrigovignola.it/",
    "rating_text": "4,7",
    "stars": null,
    "number_of_reviews": null,
    "price_level": "",
    "open_hours": "",
    "extraction_timestamp": "2025-06-07T16:00:43.662Z",
    "source_name": "google",
    "source_query": "Irrigation Equipment",
    "source_country": "IT",
    "country": "Italy",
    "state": "Emilia-Romagna",
    "city": "Crespellano"
  },
  {
    "source_id": "ChIJJ6V6lMDgf0cR1SpFsfjDuHg",
    "name": "Ocmis Irrigazione Spa",
    "category": "Ocmis Irrigazione Spa",
    "formatted_address": "3,5(31)",
    "phone_number": "+39059702150",
    "source_url": "https://www.google.com/maps/place/Ocmis+Irrigazione+Spa/data=!4m7!3m6!1s0x477fe0c0947aa527:0x78b8c3f8b1452ad5!8m2!3d44.530494!4d10.9794578!16s%2Fg%2F1vd3tn19!19sChIJJ6V6lMDgf0cR1SpFsfjDuHg?authuser=0&hl=tr&rclk=1",
    "website_url": "http://www.ocmis-irrigazione.it/",
    "rating_text": "3,5",
    "stars": null,
    "number_of_reviews": null,
    "price_level": "",
    "open_hours": "",
    "extraction_timestamp": "2025-06-07T16:00:43.663Z",
    "source_name": "google",
    "source_query": "Irrigation Equipment",
    "source_country": "IT",
    "country": "Italy",
    "state": "Emilia-Romagna",
    "city": "Crespellano"
  },
  {
    "source_id": "ChIJyXgg68QrfkcRAaJCOMJ3PxY",
    "name": "hidrisistem",
    "category": "hidrisistem",
    "formatted_address": "5,0(1)",
    "phone_number": "+39366448310824",
    "source_url": "https://www.google.com/maps/place/hidrisistem/data=!4m7!3m6!1s0x477e2bc4eb2078c9:0x163f77c23842a201!8m2!3d44.496029!4d11.402638!16s%2Fg%2F11w_zjhjy3!19sChIJyXgg68QrfkcRAaJCOMJ3PxY?authuser=0&hl=tr&rclk=1",
    "website_url": "",
    "rating_text": "5,0",
    "stars": null,
    "number_of_reviews": null,
    "price_level": "",
    "open_hours": "",
    "extraction_timestamp": "2025-06-07T16:00:43.665Z",
    "source_name": "google",
    "source_query": "Irrigation Equipment",
    "source_country": "IT",
    "country": "Italy",
    "state": "Emilia-Romagna",
    "city": "Crespellano"
  },
  {
    "source_id": "ChIJtVDkNgRFgEcRqc6umwWIJuI",
    "name": "Rm Spa",
    "category": "Rm Spa",
    "formatted_address": "4,6(81)",
    "phone_number": "+390521872321",
    "source_url": "https://www.google.com/maps/place/Rm+Spa/data=!4m7!3m6!1s0x4780450436e450b5:0xe22688059baecea9!8m2!3d44.9105406!4d10.2583785!16s%2Fg%2F12hl93byl!19sChIJtVDkNgRFgEcRqc6umwWIJuI?authuser=0&hl=tr&rclk=1",
    "website_url": "http://www.rmirrigation.com/",
    "rating_text": "4,6",
    "stars": null,
    "number_of_reviews": null,
    "price_level": "",
    "open_hours": "",
    "extraction_timestamp": "2025-06-07T16:00:43.666Z",
    "source_name": "google",
    "source_query": "Irrigation Equipment",
    "source_country": "IT",
    "country": "Italy",
    "state": "Emilia-Romagna",
    "city": "Crespellano"
  },
  {
    "source_id": "ChIJc_wCKNTZf0cRNnaWE8apGb8",
    "name": "Ferramenta CIONI di Cioni Silvano",
    "category": "Ferramenta CIONI di Cioni Silvano",
    "formatted_address": "4,7(112)",
    "phone_number": "+39051964828",
    "source_url": "https://www.google.com/maps/place/Ferramenta+CIONI+di+Cioni+Silvano/data=!4m7!3m6!1s0x477fd9d42802fc73:0xbf19a9c613967636!8m2!3d44.5116908!4d11.1284862!16s%2Fg%2F11g2wnznfw!19sChIJc_wCKNTZf0cRNnaWE8apGb8?authuser=0&hl=tr&rclk=1",
    "website_url": "",
    "rating_text": "4,7",
    "stars": null,
    "number_of_reviews": null,
    "price_level": "",
    "open_hours": "",
    "extraction_timestamp": "2025-06-07T16:00:43.668Z",
    "source_name": "google",
    "source_query": "Irrigation Equipment",
    "source_country": "IT",
    "country": "Italy",
    "state": "Emilia-Romagna",
    "city": "Crespellano"
  },
  {
    "source_id": "ChIJj6lqi20sfkcRzOHfxextuA0",
    "name": "La Pioggia",
    "category": "La Pioggia",
    "formatted_address": "4,6(54)",
    "phone_number": "+39051781194",
    "source_url": "https://www.google.com/maps/place/La+Pioggia/data=!4m7!3m6!1s0x477e2c6d8b6aa98f:0xdb86decc5dfe1cc!8m2!3d44.5092215!4d11.4394615!16s%2Fg%2F1tffc0h0!19sChIJj6lqi20sfkcRzOHfxextuA0?authuser=0&hl=tr&rclk=1",
    "website_url": "http://www.lapioggia.it/",
    "rating_text": "4,6",
    "stars": null,
    "number_of_reviews": null,
    "price_level": "",
    "open_hours": "",
    "extraction_timestamp": "2025-06-07T16:00:43.670Z",
    "source_name": "google",
    "source_query": "Irrigation Equipment",
    "source_country": "IT",
    "country": "Italy",
    "state": "Emilia-Romagna",
    "city": "Crespellano"
  },
  {
    "source_id": "ChIJ4f0MXkHRf0cRt8XT-F86zk4",
    "name": "Draintech s.r.l. Gruppo Transtecno Interpump",
    "category": "Draintech s.r.l. Gruppo Transtecno Interpump",
    "formatted_address": "4,4(5)",
    "phone_number": "+39051727447",
    "source_url": "https://www.google.com/maps/place/Draintech+s.r.l.+Gruppo+Transtecno+Interpump/data=!4m7!3m6!1s0x477fd1415e0cfde1:0x4ece3a5ff8d3c5b7!8m2!3d44.5355338!4d11.219571!16s%2Fg%2F11b6j8bd0w!19sChIJ4f0MXkHRf0cRt8XT-F86zk4?authuser=0&hl=tr&rclk=1",
    "website_url": "http://www.draintech.it/",
    "rating_text": "4,4",
    "stars": null,
    "number_of_reviews": null,
    "price_level": "",
    "open_hours": "",
    "extraction_timestamp": "2025-06-07T16:00:43.671Z",
    "source_name": "google",
    "source_query": "Irrigation Equipment",
    "source_country": "IT",
    "country": "Italy",
    "state": "Emilia-Romagna",
    "city": "Crespellano"
  },
  {
    "source_id": "ChIJj7p79zMzKxMRxzB_tpcRXKE",
    "name": "F.lli Farne' Srl",
    "category": "F.lli Farne' Srl",
    "formatted_address": "4,7(97)",
    "phone_number": "+39051941145",
    "source_url": "https://www.google.com/maps/place/F.lli+Farne%27+Srl/data=!4m7!3m6!1s0x132b3333f77bba8f:0xa15c1197b67f30c7!8m2!3d44.4060269!4d11.5874732!16s%2Fg%2F1vx88btc!19sChIJj7p79zMzKxMRxzB_tpcRXKE?authuser=0&hl=tr&rclk=1",
    "website_url": "https://fratellifarnesrl.it/",
    "rating_text": "4,7",
    "stars": null,
    "number_of_reviews": null,
    "price_level": "",
    "open_hours": "",
    "extraction_timestamp": "2025-06-07T16:00:43.673Z",
    "source_name": "google",
    "source_query": "Irrigation Equipment",
    "source_country": "IT",
    "country": "Italy",
    "state": "Emilia-Romagna",
    "city": "Crespellano"
  },
  {
    "source_id": "ChIJvbBU8onnf0cRPQohczz7vW0",
    "name": "Zenit Italia",
    "category": "Zenit Italia",
    "formatted_address": "4,4(42)",
    "phone_number": "+39059950611",
    "source_url": "https://www.google.com/maps/place/Zenit+Italia/data=!4m7!3m6!1s0x477fe789f254b0bd:0x6dbdfb3c73210a3d!8m2!3d44.5916183!4d11.0267414!16s%2Fg%2F1tg77x9h!19sChIJvbBU8onnf0cRPQohczz7vW0?authuser=0&hl=tr&rclk=1",
    "website_url": "http://www.zenit.com/",
    "rating_text": "4,4",
    "stars": null,
    "number_of_reviews": null,
    "price_level": "",
    "open_hours": "",
    "extraction_timestamp": "2025-06-07T16:00:43.674Z",
    "source_name": "google",
    "source_query": "Irrigation Equipment",
    "source_country": "IT",
    "country": "Italy",
    "state": "Emilia-Romagna",
    "city": "Crespellano"
  },
  {
    "source_id": "ChIJAdruoW0cgEcR3Gg91KmmNQw",
    "name": "Kramp Italia",
    "category": "Kramp Italia",
    "formatted_address": "4,7(18)",
    "phone_number": "+3905221712630",
    "source_url": "https://www.google.com/maps/place/Kramp+Italia/data=!4m7!3m6!1s0x47801c6da1eeda01:0xc35a6a9d43d68dc!8m2!3d44.711173!4d10.7080676!16s%2Fg%2F1hc4fppvw!19sChIJAdruoW0cgEcR3Gg91KmmNQw?authuser=0&hl=tr&rclk=1",
    "website_url": "https://www.kramp.com/shop-it/it?utm_source=google&utm_medium=organic&utm_campaign=gmb&utm_content=website",
    "rating_text": "4,7",
    "stars": null,
    "number_of_reviews": null,
    "price_level": "",
    "open_hours": "",
    "extraction_timestamp": "2025-06-07T16:00:43.676Z",
    "source_name": "google",
    "source_query": "Irrigation Equipment",
    "source_country": "IT",
    "country": "Italy",
    "state": "Emilia-Romagna",
    "city": "Crespellano"
  },
  {
    "source_id": "ChIJ1y4OVaXof0cRjh5OXu9PYTo",
    "name": "Idraulica Emiliana S.p.A.",
    "category": "Idraulica Emiliana S.p.A.",
    "formatted_address": "4,4(10)",
    "phone_number": "+39059283221",
    "source_url": "https://www.google.com/maps/place/Idraulica+Emiliana+S.p.A./data=!4m7!3m6!1s0x477fe8a5550e2ed7:0x3a614fef5e4e1e8e!8m2!3d44.6311603!4d10.9615121!16s%2Fg%2F11b6jgwn2p!19sChIJ1y4OVaXof0cRjh5OXu9PYTo?authuser=0&hl=tr&rclk=1",
    "website_url": "http://www.idraulicaemiliana.com/",
    "rating_text": "4,4",
    "stars": null,
    "number_of_reviews": null,
    "price_level": "",
    "open_hours": "",
    "extraction_timestamp": "2025-06-07T16:00:43.678Z",
    "source_name": "google",
    "source_query": "Irrigation Equipment",
    "source_country": "IT",
    "country": "Italy",
    "state": "Emilia-Romagna",
    "city": "Crespellano"
  },
  {
    "source_id": "ChIJp2R3w7_Qf0cRHlt9J4ovm_o",
    "name": "Irritec S.p.A. - Stabilimento F",
    "category": "Irritec S.p.A. - Stabilimento F",
    "formatted_address": "5,0(2)",
    "phone_number": "+390516508020",
    "source_url": "https://www.google.com/maps/place/Irritec+S.p.A.+-+Stabilimento+F/data=!4m7!3m6!1s0x477fd0bfc37764a7:0xfa9b2f8a277d5b1e!8m2!3d44.6210254!4d11.3703614!16s%2Fg%2F1xpwhmq4!19sChIJp2R3w7_Qf0cRHlt9J4ovm_o?authuser=0&hl=tr&rclk=1",
    "website_url": "http://www.irritec.com/",
    "rating_text": "5,0",
    "stars": null,
    "number_of_reviews": null,
    "price_level": "",
    "open_hours": "",
    "extraction_timestamp": "2025-06-07T16:00:43.679Z",
    "source_name": "google",
    "source_query": "Irrigation Equipment",
    "source_country": "IT",
    "country": "Italy",
    "state": "Emilia-Romagna",
    "city": "Crespellano"
  },
  {
    "source_id": "ChIJ-Z_RHvbnf0cRry0jCm7Q5GQ",
    "name": "Scova Impianti",
    "category": "Scova Impianti",
    "formatted_address": "4,0(4)",
    "phone_number": "+39059925910",
    "source_url": "https://www.google.com/maps/place/Scova+Impianti/data=!4m7!3m6!1s0x477fe7f61ed19ff9:0x64e4d06e0a232daf!8m2!3d44.6018937!4d11.0315223!16s%2Fg%2F1td6wznv!19sChIJ-Z_RHvbnf0cRry0jCm7Q5GQ?authuser=0&hl=tr&rclk=1",
    "website_url": "https://scovaimpianti.com/",
    "rating_text": "4,0",
    "stars": null,
    "number_of_reviews": null,
    "price_level": "",
    "open_hours": "",
    "extraction_timestamp": "2025-06-07T16:00:43.680Z",
    "source_name": "google",
    "source_query": "Irrigation Equipment",
    "source_country": "IT",
    "country": "Italy",
    "state": "Emilia-Romagna",
    "city": "Crespellano"
  },
  {
    "source_id": "ChIJc_FRC6Ltf0cRdOFGl6sEcxM",
    "name": "Emmebi Agrotecnica",
    "category": "Emmebi Agrotecnica",
    "formatted_address": "4,5(123)",
    "phone_number": "+39059566838",
    "source_url": "https://www.google.com/maps/place/Emmebi+Agrotecnica/data=!4m7!3m6!1s0x477feda20b51f173:0x137304ab9746e174!8m2!3d44.7330703!4d10.9184999!16s%2Fg%2F1q62bql9t!19sChIJc_FRC6Ltf0cRdOFGl6sEcxM?authuser=0&hl=tr&rclk=1",
    "website_url": "https://www.gogoverde.it/",
    "rating_text": "4,5",
    "stars": null,
    "number_of_reviews": null,
    "price_level": "",
    "open_hours": "",
    "extraction_timestamp": "2025-06-07T16:00:43.682Z",
    "source_name": "google",
    "source_query": "Irrigation Equipment",
    "source_country": "IT",
    "country": "Italy",
    "state": "Emilia-Romagna",
    "city": "Crespellano"
  },
  {
    "source_id": "ChIJJ6V6lMDgf0cRkL2jf5B3MwQ",
    "name": "Scova Engineering Spa",
    "category": "Scova Engineering Spa",
    "formatted_address": "5,0(2)",
    "phone_number": "+39059702012",
    "source_url": "https://www.google.com/maps/place/Scova+Engineering+Spa/data=!4m7!3m6!1s0x477fe0c0947aa527:0x43377907fa3bd90!8m2!3d44.5304758!4d10.9796265!16s%2Fg%2F1tql3mky!19sChIJJ6V6lMDgf0cRkL2jf5B3MwQ?authuser=0&hl=tr&rclk=1",
    "website_url": "https://www.scova-engineering.it/",
    "rating_text": "5,0",
    "stars": null,
    "number_of_reviews": null,
    "price_level": "",
    "open_hours": "",
    "extraction_timestamp": "2025-06-07T16:00:43.683Z",
    "source_name": "google",
    "source_query": "Irrigation Equipment",
    "source_country": "IT",
    "country": "Italy",
    "state": "Emilia-Romagna",
    "city": "Crespellano"
  },
  {
    "source_id": "ChIJ36EFbM_vf0cRQVPDXPOyqi8",
    "name": "Caprari",
    "category": "Caprari",
    "formatted_address": "4,2(22)",
    "phone_number": "",
    "source_url": "https://www.google.com/maps/place/Caprari/data=!4m7!3m6!1s0x477fefcf6c05a1df:0x2faab2f35cc35341!8m2!3d44.6582946!4d10.8809223!16s%2Fg%2F11f4wjg43c!19sChIJ36EFbM_vf0cRQVPDXPOyqi8?authuser=0&hl=tr&rclk=1",
    "website_url": "http://www.caprari.it/",
    "rating_text": "4,2",
    "stars": null,
    "number_of_reviews": null,
    "price_level": "",
    "open_hours": "",
    "extraction_timestamp": "2025-06-07T16:00:43.684Z",
    "source_name": "google",
    "source_query": "Irrigation Equipment",
    "source_country": "IT",
    "country": "Italy",
    "state": "Emilia-Romagna",
    "city": "Crespellano"
  },
  {
    "source_id": "ChIJgVjbdx7df0cRsMjOLRKEzBA",
    "name": "Geocentro",
    "category": "Geocentro",
    "formatted_address": "4,4(87)",
    "phone_number": "+39059926168",
    "source_url": "https://www.google.com/maps/place/Geocentro/data=!4m7!3m6!1s0x477fdd1e77db5881:0x10cc84122dcec8b0!8m2!3d44.5868616!4d11.070717!16s%2Fg%2F11cn3ph0_q!19sChIJgVjbdx7df0cRsMjOLRKEzBA?authuser=0&hl=tr&rclk=1",
    "website_url": "https://www.geocentrosrl.it/",
    "rating_text": "4,4",
    "stars": null,
    "number_of_reviews": null,
    "price_level": "",
    "open_hours": "",
    "extraction_timestamp": "2025-06-07T16:00:43.685Z",
    "source_name": "google",
    "source_query": "Irrigation Equipment",
    "source_country": "IT",
    "country": "Italy",
    "state": "Emilia-Romagna",
    "city": "Crespellano"
  }
]
