[
  {
    "source_id": "ChIJM37KC0W4f0cRYwYAmbn3bd8",
    "name": "GL1 Srl| Fornitura di trinciatrici, decespugliatrici e macchine da giardinaggio| Bologna| Crevalcore",
    "category": "GL1 Srl| Fornitura di trinciatrici, decespugliatrici e macchine da giardinaggio| Bologna| Crevalcore",
    "formatted_address": "GL1 Srl| Fornitura di trinciatrici, decespugliatrici e macchine da giardinaggio| Bologna| Crevalcore",
    "phone_number": "+39051909140",
    "source_url": "https://www.google.com/maps/place/GL1+Srl%7C+Fornitura+di+trinciatrici,+decespugliatrici+e+macchine+da+giardinaggio%7C+Bologna%7C+Crevalcore/data=!4m7!3m6!1s0x477fb8450bca7e33:0xdf6df7b999000663!8m2!3d44.7693502!4d11.2537839!16s%2Fg%2F1t_tj43b!19sChIJM37KC0W4f0cRYwYAmbn3bd8?authuser=0&hl=tr&rclk=1",
    "website_url": "https://www.gl1srl.it/",
    "rating_text": "4,8",
    "stars": null,
    "number_of_reviews": null,
    "price_level": "",
    "open_hours": "",
    "extraction_timestamp": "2025-06-07T16:34:10.434Z",
    "source_name": "google",
    "source_query": "Irrigation Equipment",
    "source_country": "IT",
    "country": "Italy",
    "state": "Emilia-Romagna",
    "city": "Crevalcore"
  },
  {
    "source_id": "ChIJcQG6ul7df0cR3VxKiu5OPBs",
    "name": "Scova Impianti Srl",
    "category": "Scova Impianti Srl",
    "formatted_address": "4,5(64)",
    "phone_number": "+39059923202",
    "source_url": "https://www.google.com/maps/place/Scova+Impianti+Srl/data=!4m7!3m6!1s0x477fdd5ebaba0171:0x1b3c4eee8a4a5cdd!8m2!3d44.6018135!4d11.032294!16s%2Fg%2F1tfzwbfb!19sChIJcQG6ul7df0cR3VxKiu5OPBs?authuser=0&hl=tr&rclk=1",
    "website_url": "https://www.scovaimpianti.com/",
    "rating_text": "4,5",
    "stars": null,
    "number_of_reviews": null,
    "price_level": "",
    "open_hours": "",
    "extraction_timestamp": "2025-06-07T16:34:10.435Z",
    "source_name": "google",
    "source_query": "Irrigation Equipment",
    "source_country": "IT",
    "country": "Italy",
    "state": "Emilia-Romagna",
    "city": "Crevalcore"
  },
  {
    "source_id": "ChIJd7T_8CvHf0cR8pvrO719XW4",
    "name": "Agridelpa srl",
    "category": "Agridelpa srl",
    "formatted_address": "4,3(4)",
    "phone_number": "+390516800786",
    "source_url": "https://www.google.com/maps/place/Agridelpa+srl/data=!4m7!3m6!1s0x477fc72bf0ffb477:0x6e5d7dbd3beb9bf2!8m2!3d44.7183562!4d11.1790215!16s%2Fg%2F12hw7hsf5!19sChIJd7T_8CvHf0cR8pvrO719XW4?authuser=0&hl=tr&rclk=1",
    "website_url": "http://www.agridelpa.net/",
    "rating_text": "4,3",
    "stars": null,
    "number_of_reviews": null,
    "price_level": "",
    "open_hours": "",
    "extraction_timestamp": "2025-06-07T16:34:10.436Z",
    "source_name": "google",
    "source_query": "Irrigation Equipment",
    "source_country": "IT",
    "country": "Italy",
    "state": "Emilia-Romagna",
    "city": "Crevalcore"
  },
  {
    "source_id": "ChIJE_3jOnMtfkcRkxtTFj3Ym9E",
    "name": "Irrigation Scarabelli Srl",
    "category": "Irrigation Scarabelli Srl",
    "formatted_address": "4,5(23)",
    "phone_number": "+39051763363",
    "source_url": "https://www.google.com/maps/place/Irrigation+Scarabelli+Srl/data=!4m7!3m6!1s0x477e2d733ae3fd13:0xd19bd83d16531b93!8m2!3d44.5426053!4d11.4189136!16s%2Fg%2F11gzdz6vf!19sChIJE_3jOnMtfkcRkxtTFj3Ym9E?authuser=0&hl=tr&rclk=1",
    "website_url": "",
    "rating_text": "4,5",
    "stars": null,
    "number_of_reviews": null,
    "price_level": "",
    "open_hours": "",
    "extraction_timestamp": "2025-06-07T16:34:10.437Z",
    "source_name": "google",
    "source_query": "Irrigation Equipment",
    "source_country": "IT",
    "country": "Italy",
    "state": "Emilia-Romagna",
    "city": "Crevalcore"
  },
  {
    "source_id": "ChIJqdtsqMTaf0cRFSqvzNBB5Tw",
    "name": "Ricchetti Irrigazione Snc Di Alberghini Paolo E C.",
    "category": "Ricchetti Irrigazione Snc Di Alberghini Paolo E C.",
    "formatted_address": "4,9(31)",
    "phone_number": "+39051950115",
    "source_url": "https://www.google.com/maps/place/Ricchetti+Irrigazione+Snc+Di+Alberghini+Paolo+E+C./data=!4m7!3m6!1s0x477fdac4a86cdba9:0x3ce541d0ccaf2a15!8m2!3d44.5883369!4d11.1803569!16s%2Fg%2F1vfn5hgh!19sChIJqdtsqMTaf0cRFSqvzNBB5Tw?authuser=0&hl=tr&rclk=1",
    "website_url": "http://www.ricchetti-irrigatori.it/",
    "rating_text": "4,9",
    "stars": null,
    "number_of_reviews": null,
    "price_level": "",
    "open_hours": "",
    "extraction_timestamp": "2025-06-07T16:34:10.439Z",
    "source_name": "google",
    "source_query": "Irrigation Equipment",
    "source_country": "IT",
    "country": "Italy",
    "state": "Emilia-Romagna",
    "city": "Crevalcore"
  },
  {
    "source_id": "ChIJ_SYf2IMsfkcRVw9xVhrnjyI",
    "name": "Irrigazione Bragaglia",
    "category": "Irrigazione Bragaglia",
    "formatted_address": "4,7(30)",
    "phone_number": "+39051534865",
    "source_url": "https://www.google.com/maps/place/Irrigazione+Bragaglia/data=!4m7!3m6!1s0x477e2c83d81f26fd:0x228fe71a56710f57!8m2!3d44.5053735!4d11.412403!16s%2Fg%2F1vp6z0gf!19sChIJ_SYf2IMsfkcRVw9xVhrnjyI?authuser=0&hl=tr&rclk=1",
    "website_url": "http://www.irrigazionebragaglia.it/",
    "rating_text": "4,7",
    "stars": null,
    "number_of_reviews": null,
    "price_level": "",
    "open_hours": "",
    "extraction_timestamp": "2025-06-07T16:34:10.440Z",
    "source_name": "google",
    "source_query": "Irrigation Equipment",
    "source_country": "IT",
    "country": "Italy",
    "state": "Emilia-Romagna",
    "city": "Crevalcore"
  },
  {
    "source_id": "ChIJ1Qi3nSHBf0cR5rOGbXHwlCY",
    "name": "Ferramenta Fiocchi Di Fiocchi Stefano",
    "category": "Ferramenta Fiocchi Di Fiocchi Stefano",
    "formatted_address": "4,7(136)",
    "phone_number": "+39051981257",
    "source_url": "https://www.google.com/maps/place/Ferramenta+Fiocchi+Di+Fiocchi+Stefano/data=!4m7!3m6!1s0x477fc1219db708d5:0x2694f0716d86b3e6!8m2!3d44.7124437!4d11.1486527!16s%2Fg%2F12hmy9ww6!19sChIJ1Qi3nSHBf0cR5rOGbXHwlCY?authuser=0&hl=tr&rclk=1",
    "website_url": "",
    "rating_text": "4,7",
    "stars": null,
    "number_of_reviews": null,
    "price_level": "",
    "open_hours": "",
    "extraction_timestamp": "2025-06-07T16:34:10.441Z",
    "source_name": "google",
    "source_query": "Irrigation Equipment",
    "source_country": "IT",
    "country": "Italy",
    "state": "Emilia-Romagna",
    "city": "Crevalcore"
  },
  {
    "source_id": "ChIJGSi9FzfBf0cROZjuVzi7l3M",
    "name": "Multiservice Di Sessi Armando",
    "category": "Multiservice Di Sessi Armando",
    "formatted_address": "4,3(29)",
    "phone_number": "+393200971104",
    "source_url": "https://www.google.com/maps/place/Multiservice+Di+Sessi+Armando/data=!4m7!3m6!1s0x477fc13717bd2819:0x7397bb3857ee9839!8m2!3d44.7203837!4d11.1491238!16s%2Fg%2F11rx3wmszh!19sChIJGSi9FzfBf0cROZjuVzi7l3M?authuser=0&hl=tr&rclk=1",
    "website_url": "https://multiservicedisessiarmando.it/",
    "rating_text": "4,3",
    "stars": null,
    "number_of_reviews": null,
    "price_level": "",
    "open_hours": "",
    "extraction_timestamp": "2025-06-07T16:34:10.442Z",
    "source_name": "google",
    "source_query": "Irrigation Equipment",
    "source_country": "IT",
    "country": "Italy",
    "state": "Emilia-Romagna",
    "city": "Crevalcore"
  },
  {
    "source_id": "ChIJJ6V6lMDgf0cR1SpFsfjDuHg",
    "name": "Ocmis Irrigazione Spa",
    "category": "Ocmis Irrigazione Spa",
    "formatted_address": "3,5(31)",
    "phone_number": "+39059702150",
    "source_url": "https://www.google.com/maps/place/Ocmis+Irrigazione+Spa/data=!4m7!3m6!1s0x477fe0c0947aa527:0x78b8c3f8b1452ad5!8m2!3d44.530494!4d10.9794578!16s%2Fg%2F1vd3tn19!19sChIJJ6V6lMDgf0cR1SpFsfjDuHg?authuser=0&hl=tr&rclk=1",
    "website_url": "http://www.ocmis-irrigazione.it/",
    "rating_text": "3,5",
    "stars": null,
    "number_of_reviews": null,
    "price_level": "",
    "open_hours": "",
    "extraction_timestamp": "2025-06-07T16:34:10.443Z",
    "source_name": "google",
    "source_query": "Irrigation Equipment",
    "source_country": "IT",
    "country": "Italy",
    "state": "Emilia-Romagna",
    "city": "Crevalcore"
  },
  {
    "source_id": "ChIJh3Nd8G0sfkcR_m7VewEmxXM",
    "name": "Irrigarden",
    "category": "Irrigarden",
    "formatted_address": "4,7(158)",
    "phone_number": "+39051782013",
    "source_url": "https://www.google.com/maps/place/Irrigarden/data=!4m7!3m6!1s0x477e2c6df05d7387:0x73c526017bd56efe!8m2!3d44.5096266!4d11.4390897!16s%2Fg%2F1vgw_l7w!19sChIJh3Nd8G0sfkcR_m7VewEmxXM?authuser=0&hl=tr&rclk=1",
    "website_url": "https://www.irrigarden-bo.it/",
    "rating_text": "4,7",
    "stars": null,
    "number_of_reviews": null,
    "price_level": "",
    "open_hours": "",
    "extraction_timestamp": "2025-06-07T16:34:10.446Z",
    "source_name": "google",
    "source_query": "Irrigation Equipment",
    "source_country": "IT",
    "country": "Italy",
    "state": "Emilia-Romagna",
    "city": "Crevalcore"
  },
  {
    "source_id": "ChIJZV2MuLrGf0cR38J8u4MV8So",
    "name": "Impianto di compostaggio, digestione anaerobica e produzione Biometano",
    "category": "Impianto di compostaggio, digestione anaerobica e produzione Biometano",
    "formatted_address": "Impianto di compostaggio, digestione anaerobica e produzione Biometano",
    "phone_number": "+39800185075",
    "source_url": "https://www.google.com/maps/place/Impianto+di+compostaggio,+digestione+anaerobica+e+produzione+Biometano/data=!4m7!3m6!1s0x477fc6bab88c5d65:0x2af11583bb7cc2df!8m2!3d44.6860619!4d11.1722802!16s%2Fg%2F1tgjk40b!19sChIJZV2MuLrGf0cR38J8u4MV8So?authuser=0&hl=tr&rclk=1",
    "website_url": "http://ha.gruppohera.it/impianti/compostaggio/impianto_compostaggio_santagata_bolognese?utm_source=google&utm_medium=organic&utm_campaign=gmb_local",
    "rating_text": "4,2",
    "stars": null,
    "number_of_reviews": null,
    "price_level": "",
    "open_hours": "",
    "extraction_timestamp": "2025-06-07T16:34:10.448Z",
    "source_name": "google",
    "source_query": "Irrigation Equipment",
    "source_country": "IT",
    "country": "Italy",
    "state": "Emilia-Romagna",
    "city": "Crevalcore"
  },
  {
    "source_id": "ChIJC-dXxirHf0cRRiU39xJPgWs",
    "name": "I.Te.Sa. Di Cavicchi Chiara",
    "category": "I.Te.Sa. Di Cavicchi Chiara",
    "formatted_address": "Tesisatçı · 2113 Via Di Mezzo Levante, Crevalcore, BO 40014+39 051 981948",
    "phone_number": "+39051981948",
    "source_url": "https://www.google.com/maps/place/I.Te.Sa.+Di+Cavicchi+Chiara/data=!4m7!3m6!1s0x477fc72ac657e70b:0x6b814f12f7372546!8m2!3d44.7196!4d11.15648!16s%2Fg%2F1td6lhr0!19sChIJC-dXxirHf0cRRiU39xJPgWs?authuser=0&hl=tr&rclk=1",
    "website_url": "",
    "rating_text": "",
    "stars": null,
    "number_of_reviews": null,
    "price_level": "",
    "open_hours": "",
    "extraction_timestamp": "2025-06-07T16:34:10.449Z",
    "source_name": "google",
    "source_query": "Irrigation Equipment",
    "source_country": "IT",
    "country": "Italy",
    "state": "Emilia-Romagna",
    "city": "Crevalcore"
  },
  {
    "source_id": "ChIJCdemP1a3f0cRPMl4lGeSCLI",
    "name": "Pianeta Acqua",
    "category": "Pianeta Acqua",
    "formatted_address": "5,0(1)",
    "phone_number": "+390510549799",
    "source_url": "https://www.google.com/maps/place/Pianeta+Acqua/data=!4m7!3m6!1s0x477fb7563fa6d709:0xb20892679478c93c!8m2!3d44.7409448!4d11.2994357!16s%2Fg%2F11h3l0gzc4!19sChIJCdemP1a3f0cRPMl4lGeSCLI?authuser=0&hl=tr&rclk=1",
    "website_url": "http://www.pianetaacquasrl.it/",
    "rating_text": "5,0",
    "stars": null,
    "number_of_reviews": null,
    "price_level": "",
    "open_hours": "",
    "extraction_timestamp": "2025-06-07T16:34:10.450Z",
    "source_name": "google",
    "source_query": "Irrigation Equipment",
    "source_country": "IT",
    "country": "Italy",
    "state": "Emilia-Romagna",
    "city": "Crevalcore"
  },
  {
    "source_id": "ChIJYc_GBibHf0cR6t-OL3gTJXg",
    "name": "Sico Società Italiana Carburo Ossigeno Spa",
    "category": "Sico Società Italiana Carburo Ossigeno Spa",
    "formatted_address": "3,9(12)",
    "phone_number": "+39051750892",
    "source_url": "https://www.google.com/maps/place/Sico+Societ%C3%A0+Italiana+Carburo+Ossigeno+Spa/data=!4m7!3m6!1s0x477fc72606c6cf61:0x782513782f8edfea!8m2!3d44.7168474!4d11.1840475!16s%2Fg%2F1tddr0vc!19sChIJYc_GBibHf0cR6t-OL3gTJXg?authuser=0&hl=tr&rclk=1",
    "website_url": "http://www.sicospa.it/",
    "rating_text": "3,9",
    "stars": null,
    "number_of_reviews": null,
    "price_level": "",
    "open_hours": "",
    "extraction_timestamp": "2025-06-07T16:34:10.451Z",
    "source_name": "google",
    "source_query": "Irrigation Equipment",
    "source_country": "IT",
    "country": "Italy",
    "state": "Emilia-Romagna",
    "city": "Crevalcore"
  },
  {
    "source_id": "ChIJexE3xLDAf0cRpzDFYvA1QiQ",
    "name": "Fri-El Crevalcore Soc. Agricola S.R.L.",
    "category": "Fri-El Crevalcore Soc. Agricola S.R.L.",
    "formatted_address": "5,0(7)",
    "phone_number": "+390516800871",
    "source_url": "https://www.google.com/maps/place/Fri-El+Crevalcore+Soc.+Agricola+S.R.L./data=!4m7!3m6!1s0x477fc0b0c437117b:0x244235f062c530a7!8m2!3d44.7870085!4d11.2071893!16s%2Fg%2F12hkr27xk!19sChIJexE3xLDAf0cRpzDFYvA1QiQ?authuser=0&hl=tr&rclk=1",
    "website_url": "",
    "rating_text": "5,0",
    "stars": null,
    "number_of_reviews": null,
    "price_level": "",
    "open_hours": "",
    "extraction_timestamp": "2025-06-07T16:34:10.452Z",
    "source_name": "google",
    "source_query": "Irrigation Equipment",
    "source_country": "IT",
    "country": "Italy",
    "state": "Emilia-Romagna",
    "city": "Crevalcore"
  },
  {
    "source_id": "ChIJz0dkH-fAf0cR7x251iaVfQE",
    "name": "Sport Time di Reggiani Luca",
    "category": "Sport Time di Reggiani Luca",
    "formatted_address": "4,7(11)",
    "phone_number": "+39051982671",
    "source_url": "https://www.google.com/maps/place/Sport+Time+di+Reggiani+Luca/data=!4m7!3m6!1s0x477fc0e71f6447cf:0x17d9526d6b91def!8m2!3d44.7094733!4d11.1448628!16s%2Fg%2F1hc36rntf!19sChIJz0dkH-fAf0cR7x251iaVfQE?authuser=0&hl=tr&rclk=1",
    "website_url": "http://www.sporttimecrevalcore.it/",
    "rating_text": "4,7",
    "stars": null,
    "number_of_reviews": null,
    "price_level": "",
    "open_hours": "",
    "extraction_timestamp": "2025-06-07T16:34:10.453Z",
    "source_name": "google",
    "source_query": "Irrigation Equipment",
    "source_country": "IT",
    "country": "Italy",
    "state": "Emilia-Romagna",
    "city": "Crevalcore"
  },
  {
    "source_id": "ChIJyXgg68QrfkcRAaJCOMJ3PxY",
    "name": "hidrisistem",
    "category": "hidrisistem",
    "formatted_address": "5,0(1)",
    "phone_number": "+39366448310824",
    "source_url": "https://www.google.com/maps/place/hidrisistem/data=!4m7!3m6!1s0x477e2bc4eb2078c9:0x163f77c23842a201!8m2!3d44.496029!4d11.402638!16s%2Fg%2F11w_zjhjy3!19sChIJyXgg68QrfkcRAaJCOMJ3PxY?authuser=0&hl=tr&rclk=1",
    "website_url": "",
    "rating_text": "5,0",
    "stars": null,
    "number_of_reviews": null,
    "price_level": "",
    "open_hours": "",
    "extraction_timestamp": "2025-06-07T16:34:10.454Z",
    "source_name": "google",
    "source_query": "Irrigation Equipment",
    "source_country": "IT",
    "country": "Italy",
    "state": "Emilia-Romagna",
    "city": "Crevalcore"
  },
  {
    "source_id": "ChIJxTwObOzBf0cRYVPCWsIPzg0",
    "name": "VL Welse",
    "category": "VL Welse",
    "formatted_address": "4,7(32)",
    "phone_number": "",
    "source_url": "https://www.google.com/maps/place/VL+Welse/data=!4m7!3m6!1s0x477fc1ec6c0e3cc5:0xdce0fc25ac25361!8m2!3d44.7238033!4d11.1515817!16s%2Fg%2F11p0vcmlks!19sChIJxTwObOzBf0cRYVPCWsIPzg0?authuser=0&hl=tr&rclk=1",
    "website_url": "https://www.vlwelse.it/",
    "rating_text": "4,7",
    "stars": null,
    "number_of_reviews": null,
    "price_level": "",
    "open_hours": "",
    "extraction_timestamp": "2025-06-07T16:34:10.455Z",
    "source_name": "google",
    "source_query": "Irrigation Equipment",
    "source_country": "IT",
    "country": "Italy",
    "state": "Emilia-Romagna",
    "city": "Crevalcore"
  },
  {
    "source_id": "ChIJj6lqi20sfkcRzOHfxextuA0",
    "name": "La Pioggia",
    "category": "La Pioggia",
    "formatted_address": "4,6(54)",
    "phone_number": "+39051781194",
    "source_url": "https://www.google.com/maps/place/La+Pioggia/data=!4m7!3m6!1s0x477e2c6d8b6aa98f:0xdb86decc5dfe1cc!8m2!3d44.5092215!4d11.4394615!16s%2Fg%2F1tffc0h0!19sChIJj6lqi20sfkcRzOHfxextuA0?authuser=0&hl=tr&rclk=1",
    "website_url": "http://www.lapioggia.it/",
    "rating_text": "4,6",
    "stars": null,
    "number_of_reviews": null,
    "price_level": "",
    "open_hours": "",
    "extraction_timestamp": "2025-06-07T16:34:10.456Z",
    "source_name": "google",
    "source_query": "Irrigation Equipment",
    "source_country": "IT",
    "country": "Italy",
    "state": "Emilia-Romagna",
    "city": "Crevalcore"
  },
  {
    "source_id": "ChIJHbNw3vbEf0cRdjvey_FBTDk",
    "name": "Techno Green di Buriani Andrea",
    "category": "Techno Green di Buriani Andrea",
    "formatted_address": "4,8(57)",
    "phone_number": "+39051825816",
    "source_url": "https://www.google.com/maps/place/Techno+Green+di+Buriani+Andrea/data=!4m7!3m6!1s0x477fc4f6de70b31d:0x394c41f1cbde3b76!8m2!3d44.6364226!4d11.1653803!16s%2Fg%2F1vfwbpqm!19sChIJHbNw3vbEf0cRdjvey_FBTDk?authuser=0&hl=tr&rclk=1",
    "website_url": "http://www.technogreen.eu/",
    "rating_text": "4,8",
    "stars": null,
    "number_of_reviews": null,
    "price_level": "",
    "open_hours": "",
    "extraction_timestamp": "2025-06-07T16:34:10.457Z",
    "source_name": "google",
    "source_query": "Irrigation Equipment",
    "source_country": "IT",
    "country": "Italy",
    "state": "Emilia-Romagna",
    "city": "Crevalcore"
  },
  {
    "source_id": "ChIJJ6V6lMDgf0cRkL2jf5B3MwQ",
    "name": "Scova Engineering Spa",
    "category": "Scova Engineering Spa",
    "formatted_address": "5,0(2)",
    "phone_number": "+39059702012",
    "source_url": "https://www.google.com/maps/place/Scova+Engineering+Spa/data=!4m7!3m6!1s0x477fe0c0947aa527:0x43377907fa3bd90!8m2!3d44.5304758!4d10.9796265!16s%2Fg%2F1tql3mky!19sChIJJ6V6lMDgf0cRkL2jf5B3MwQ?authuser=0&hl=tr&rclk=1",
    "website_url": "https://www.scova-engineering.it/",
    "rating_text": "5,0",
    "stars": null,
    "number_of_reviews": null,
    "price_level": "",
    "open_hours": "",
    "extraction_timestamp": "2025-06-07T16:34:10.458Z",
    "source_name": "google",
    "source_query": "Irrigation Equipment",
    "source_country": "IT",
    "country": "Italy",
    "state": "Emilia-Romagna",
    "city": "Crevalcore"
  },
  {
    "source_id": "ChIJJbw7jKrNf0cR-Jb9f_5Wjms",
    "name": "Z.P. Motori Elettrici e Elettropompe",
    "category": "Z.P. Motori Elettrici e Elettropompe",
    "formatted_address": "4,7(19)",
    "phone_number": "+390516650012",
    "source_url": "https://www.google.com/maps/place/Z.P.+Motori+Elettrici+e+Elettropompe/data=!4m7!3m6!1s0x477fcdaa8c3bbc25:0x6b8e56fe7ffd96f8!8m2!3d44.6168604!4d11.3681876!16s%2Fg%2F1tdxd3pt!19sChIJJbw7jKrNf0cR-Jb9f_5Wjms?authuser=0&hl=tr&rclk=1",
    "website_url": "http://www.zpzanardi.com/",
    "rating_text": "4,7",
    "stars": null,
    "number_of_reviews": null,
    "price_level": "",
    "open_hours": "",
    "extraction_timestamp": "2025-06-07T16:34:10.459Z",
    "source_name": "google",
    "source_query": "Irrigation Equipment",
    "source_country": "IT",
    "country": "Italy",
    "state": "Emilia-Romagna",
    "city": "Crevalcore"
  },
  {
    "source_id": "ChIJgVjbdx7df0cRsMjOLRKEzBA",
    "name": "Geocentro",
    "category": "Geocentro",
    "formatted_address": "4,4(87)",
    "phone_number": "+39059926168",
    "source_url": "https://www.google.com/maps/place/Geocentro/data=!4m7!3m6!1s0x477fdd1e77db5881:0x10cc84122dcec8b0!8m2!3d44.5868616!4d11.070717!16s%2Fg%2F11cn3ph0_q!19sChIJgVjbdx7df0cRsMjOLRKEzBA?authuser=0&hl=tr&rclk=1",
    "website_url": "https://www.geocentrosrl.it/",
    "rating_text": "4,4",
    "stars": null,
    "number_of_reviews": null,
    "price_level": "",
    "open_hours": "",
    "extraction_timestamp": "2025-06-07T16:34:10.460Z",
    "source_name": "google",
    "source_query": "Irrigation Equipment",
    "source_country": "IT",
    "country": "Italy",
    "state": "Emilia-Romagna",
    "city": "Crevalcore"
  },
  {
    "source_id": "ChIJhT-kpAXff0cRKJQqKYwIulA",
    "name": "Irrigo",
    "category": "Irrigo",
    "formatted_address": "4,7(36)",
    "phone_number": "+393473096499",
    "source_url": "https://www.google.com/maps/place/Irrigo/data=!4m7!3m6!1s0x477fdf05a4a43f85:0x50ba088c292a9428!8m2!3d44.5018172!4d11.005272!16s%2Fg%2F11hdjcp5pk!19sChIJhT-kpAXff0cRKJQqKYwIulA?authuser=0&hl=tr&rclk=1",
    "website_url": "https://www.irrigovignola.it/",
    "rating_text": "4,7",
    "stars": null,
    "number_of_reviews": null,
    "price_level": "",
    "open_hours": "",
    "extraction_timestamp": "2025-06-07T16:34:10.461Z",
    "source_name": "google",
    "source_query": "Irrigation Equipment",
    "source_country": "IT",
    "country": "Italy",
    "state": "Emilia-Romagna",
    "city": "Crevalcore"
  },
  {
    "source_id": "ChIJc_FRC6Ltf0cRdOFGl6sEcxM",
    "name": "Emmebi Agrotecnica",
    "category": "Emmebi Agrotecnica",
    "formatted_address": "4,5(123)",
    "phone_number": "+39059566838",
    "source_url": "https://www.google.com/maps/place/Emmebi+Agrotecnica/data=!4m7!3m6!1s0x477feda20b51f173:0x137304ab9746e174!8m2!3d44.7330703!4d10.9184999!16s%2Fg%2F1q62bql9t!19sChIJc_FRC6Ltf0cRdOFGl6sEcxM?authuser=0&hl=tr&rclk=1",
    "website_url": "https://www.gogoverde.it/",
    "rating_text": "4,5",
    "stars": null,
    "number_of_reviews": null,
    "price_level": "",
    "open_hours": "",
    "extraction_timestamp": "2025-06-07T16:34:10.462Z",
    "source_name": "google",
    "source_query": "Irrigation Equipment",
    "source_country": "IT",
    "country": "Italy",
    "state": "Emilia-Romagna",
    "city": "Crevalcore"
  },
  {
    "source_id": "ChIJkzU7v-7Zf0cRXv3FxVV7T4c",
    "name": "Geocentro",
    "category": "Geocentro",
    "formatted_address": "4,3(58)",
    "phone_number": "+390516720044",
    "source_url": "https://www.google.com/maps/place/Geocentro/data=!4m7!3m6!1s0x477fd9eebf3b3593:0x874f7b55c5c5fd5e!8m2!3d44.5139091!4d11.1695675!16s%2Fg%2F11b7jx7b07!19sChIJkzU7v-7Zf0cRXv3FxVV7T4c?authuser=0&hl=tr&rclk=1",
    "website_url": "https://www.geocentro.it/",
    "rating_text": "4,3",
    "stars": null,
    "number_of_reviews": null,
    "price_level": "",
    "open_hours": "",
    "extraction_timestamp": "2025-06-07T16:34:10.463Z",
    "source_name": "google",
    "source_query": "Irrigation Equipment",
    "source_country": "IT",
    "country": "Italy",
    "state": "Emilia-Romagna",
    "city": "Crevalcore"
  },
  {
    "source_id": "ChIJzT4Ye07Gf0cR3GBsmV4iKwk",
    "name": "Idros.art & Bozzola Group S.p.A.",
    "category": "Idros.art & Bozzola Group S.p.A.",
    "formatted_address": "4,2(26)",
    "phone_number": "+390516827188",
    "source_url": "https://www.google.com/maps/place/Idros.art+%26+Bozzola+Group+S.p.A./data=!4m7!3m6!1s0x477fc64e7b183ecd:0x92b225e996c60dc!8m2!3d44.7029479!4d11.2278297!16s%2Fg%2F1tfcb08v!19sChIJzT4Ye07Gf0cR3GBsmV4iKwk?authuser=0&hl=tr&rclk=1",
    "website_url": "http://www.idrosart-bozzola.it/",
    "rating_text": "4,2",
    "stars": null,
    "number_of_reviews": null,
    "price_level": "",
    "open_hours": "",
    "extraction_timestamp": "2025-06-07T16:34:10.464Z",
    "source_name": "google",
    "source_query": "Irrigation Equipment",
    "source_country": "IT",
    "country": "Italy",
    "state": "Emilia-Romagna",
    "city": "Crevalcore"
  },
  {
    "source_id": "ChIJPze1Uw7Ff0cRlZlEchtDZgo",
    "name": "B. Center",
    "category": "B. Center",
    "formatted_address": "4,7(24)",
    "phone_number": "+39051827084",
    "source_url": "https://www.google.com/maps/place/B.+Center/data=!4m7!3m6!1s0x477fc50e53b5373f:0xa66431b72449995!8m2!3d44.6289206!4d11.197344!16s%2Fg%2F1td3qb7t!19sChIJPze1Uw7Ff0cRlZlEchtDZgo?authuser=0&hl=tr&rclk=1",
    "website_url": "http://www.bcentersrl.com/contatti/",
    "rating_text": "4,7",
    "stars": null,
    "number_of_reviews": null,
    "price_level": "",
    "open_hours": "",
    "extraction_timestamp": "2025-06-07T16:34:10.466Z",
    "source_name": "google",
    "source_query": "Irrigation Equipment",
    "source_country": "IT",
    "country": "Italy",
    "state": "Emilia-Romagna",
    "city": "Crevalcore"
  },
  {
    "source_id": "ChIJA48bp-zuf0cR5X_1epiGBsI",
    "name": "Usco Spa",
    "category": "Usco Spa",
    "formatted_address": "4,1(292)",
    "phone_number": "+390599780111",
    "source_url": "https://www.google.com/maps/place/Usco+Spa/data=!4m7!3m6!1s0x477feeeca71b8f03:0xc20686987af57fe5!8m2!3d44.6796173!4d10.9388601!16s%2Fg%2F1tfpnk4c!19sChIJA48bp-zuf0cR5X_1epiGBsI?authuser=0&hl=tr&rclk=1",
    "website_url": "https://www.usco.it/",
    "rating_text": "4,1",
    "stars": null,
    "number_of_reviews": null,
    "price_level": "",
    "open_hours": "",
    "extraction_timestamp": "2025-06-07T16:34:10.467Z",
    "source_name": "google",
    "source_query": "Irrigation Equipment",
    "source_country": "IT",
    "country": "Italy",
    "state": "Emilia-Romagna",
    "city": "Crevalcore"
  },
  {
    "source_id": "ChIJnTMseWMrfkcROkZnl9Ut3MM",
    "name": "Supreme Compression Fittings Quapus Srl",
    "category": "Supreme Compression Fittings Quapus Srl",
    "formatted_address": "4,6(9)",
    "phone_number": "+390516053557",
    "source_url": "https://www.google.com/maps/place/Supreme+Compression+Fittings+Quapus+Srl/data=!4m7!3m6!1s0x477e2b63792c339d:0xc3dc2dd59767463a!8m2!3d44.4986604!4d11.4240626!16s%2Fg%2F1ptw88990!19sChIJnTMseWMrfkcROkZnl9Ut3MM?authuser=0&hl=tr&rclk=1",
    "website_url": "https://www.supreme-systems.net/",
    "rating_text": "4,6",
    "stars": null,
    "number_of_reviews": null,
    "price_level": "",
    "open_hours": "",
    "extraction_timestamp": "2025-06-07T16:34:10.468Z",
    "source_name": "google",
    "source_query": "Irrigation Equipment",
    "source_country": "IT",
    "country": "Italy",
    "state": "Emilia-Romagna",
    "city": "Crevalcore"
  },
  {
    "source_id": "ChIJC-dXxirHf0cRUs_dU1j4Z9E",
    "name": "Parenti e Tesini",
    "category": "Parenti e Tesini",
    "formatted_address": "3,4(41)",
    "phone_number": "+39051982762",
    "source_url": "https://www.google.com/maps/place/Parenti+e+Tesini/data=!4m7!3m6!1s0x477fc72ac657e70b:0xd167f85853ddcf52!8m2!3d44.7152092!4d11.1719899!16s%2Fg%2F1tj4xkdp!19sChIJC-dXxirHf0cRUs_dU1j4Z9E?authuser=0&hl=tr&rclk=1",
    "website_url": "http://www.parentietesini.it/",
    "rating_text": "3,4",
    "stars": null,
    "number_of_reviews": null,
    "price_level": "",
    "open_hours": "",
    "extraction_timestamp": "2025-06-07T16:34:10.469Z",
    "source_name": "google",
    "source_query": "Irrigation Equipment",
    "source_country": "IT",
    "country": "Italy",
    "state": "Emilia-Romagna",
    "city": "Crevalcore"
  },
  {
    "source_id": "ChIJXzSwqdjIf0cR4P0DeFRTvc0",
    "name": "Collari s.n.c. - agricultural machines and coil winders",
    "category": "Collari s.n.c. - agricultural machines and coil winders",
    "formatted_address": "5,0(4)",
    "phone_number": "+39051977022",
    "source_url": "https://www.google.com/maps/place/Collari+s.n.c.+-+agricultural+machines+and+coil+winders/data=!4m7!3m6!1s0x477fc8d8a9b0345f:0xcdbd53547803fde0!8m2!3d44.6774419!4d11.2978108!16s%2Fg%2F1wf37f_3!19sChIJXzSwqdjIf0cR4P0DeFRTvc0?authuser=0&hl=tr&rclk=1",
    "website_url": "https://collarimacchine.it/",
    "rating_text": "5,0",
    "stars": null,
    "number_of_reviews": null,
    "price_level": "",
    "open_hours": "",
    "extraction_timestamp": "2025-06-07T16:34:10.469Z",
    "source_name": "google",
    "source_query": "Irrigation Equipment",
    "source_country": "IT",
    "country": "Italy",
    "state": "Emilia-Romagna",
    "city": "Crevalcore"
  },
  {
    "source_id": "ChIJ7XDKj2HTf0cRxmbaBjcZlt8",
    "name": "Polyter Italia",
    "category": "Polyter Italia",
    "formatted_address": "Gübre Tedarikçisi · Via Giuseppe Massarenti, 46/MKapalı ⋅ Açılış zamanı: Pzt 09:00 · +39 051 468 4641",
    "phone_number": "+390514684641",
    "source_url": "https://www.google.com/maps/place/Polyter+Italia/data=!4m7!3m6!1s0x477fd3618fca70ed:0xdf96193706da66c6!8m2!3d44.4936904!4d11.3594386!16s%2Fg%2F11t3nlqk6f!19sChIJ7XDKj2HTf0cRxmbaBjcZlt8?authuser=0&hl=tr&rclk=1",
    "website_url": "https://polyter.it/",
    "rating_text": "",
    "stars": null,
    "number_of_reviews": null,
    "price_level": "",
    "open_hours": "",
    "extraction_timestamp": "2025-06-07T16:34:10.470Z",
    "source_name": "google",
    "source_query": "Irrigation Equipment",
    "source_country": "IT",
    "country": "Italy",
    "state": "Emilia-Romagna",
    "city": "Crevalcore"
  }
]
