[
  {
    "source_id": "ChIJU6Z66TSoLBMR6zMJ5uyLHQo",
    "name": "Valdinoci Luigi SpA",
    "category": "Valdinoci Luigi SpA",
    "formatted_address": "4,6(30)",
    "phone_number": "+390543720909",
    "source_url": "https://www.google.com/maps/place/Valdinoci+Luigi+SpA/data=!4m7!3m6!1s0x132ca834e97aa653:0xa1d8bece60933eb!8m2!3d44.245172!4d12.0923394!16s%2Fg%2F1tfjbsv3!19sChIJU6Z66TSoLBMR6zMJ5uyLHQo?authuser=0&hl=tr&rclk=1",
    "website_url": "http://www.valdinoci.it/",
    "rating_text": "4,6",
    "stars": null,
    "number_of_reviews": null,
    "price_level": "",
    "open_hours": "",
    "extraction_timestamp": "2025-06-07T15:51:14.722Z",
    "source_name": "google",
    "source_query": "Irrigation Equipment",
    "source_country": "IT",
    "country": "Italy",
    "state": "Emilia-Romagna",
    "city": "Dovadola"
  },
  {
    "source_id": "ChIJy4AVn9C-LBMRn6nsnuZl82A",
    "name": "Ramilli Irrigazioni S.R.L.",
    "category": "Ramilli Irrigazioni S.R.L.",
    "formatted_address": "4,3(52)",
    "phone_number": "+390541945335",
    "source_url": "https://www.google.com/maps/place/Ramilli+Irrigazioni+S.R.L./data=!4m7!3m6!1s0x132cbed09f1580cb:0x60f365e69eeca99f!8m2!3d44.0923156!4d12.3843691!16s%2Fg%2F1ts2ls1r!19sChIJy4AVn9C-LBMRn6nsnuZl82A?authuser=0&hl=tr&rclk=1",
    "website_url": "https://www.ramilli.it/",
    "rating_text": "4,3",
    "stars": null,
    "number_of_reviews": null,
    "price_level": "",
    "open_hours": "",
    "extraction_timestamp": "2025-06-07T15:51:14.724Z",
    "source_name": "google",
    "source_query": "Irrigation Equipment",
    "source_country": "IT",
    "country": "Italy",
    "state": "Emilia-Romagna",
    "city": "Dovadola"
  },
  {
    "source_id": "ChIJcQG6ul7df0cR3VxKiu5OPBs",
    "name": "Scova Impianti Srl",
    "category": "Scova Impianti Srl",
    "formatted_address": "4,5(64)",
    "phone_number": "+39059923202",
    "source_url": "https://www.google.com/maps/place/Scova+Impianti+Srl/data=!4m7!3m6!1s0x477fdd5ebaba0171:0x1b3c4eee8a4a5cdd!8m2!3d44.6018135!4d11.032294!16s%2Fg%2F1tfzwbfb!19sChIJcQG6ul7df0cR3VxKiu5OPBs?authuser=0&hl=tr&rclk=1",
    "website_url": "https://www.scovaimpianti.com/",
    "rating_text": "4,5",
    "stars": null,
    "number_of_reviews": null,
    "price_level": "",
    "open_hours": "",
    "extraction_timestamp": "2025-06-07T15:51:14.724Z",
    "source_name": "google",
    "source_query": "Irrigation Equipment",
    "source_country": "IT",
    "country": "Italy",
    "state": "Emilia-Romagna",
    "city": "Dovadola"
  },
  {
    "source_id": "ChIJKXlL1y_1LBMRWKZy2Kocweo",
    "name": "Idrofoglia s.r.l.",
    "category": "Idrofoglia s.r.l.",
    "formatted_address": "4,7(81)",
    "phone_number": "+390722700311",
    "source_url": "https://www.google.com/maps/place/Idrofoglia+s.r.l./data=!4m7!3m6!1s0x132cf52fd74b7929:0xeac11caad872a658!8m2!3d43.735361!4d12.4430347!16s%2Fg%2F1w0dk464!19sChIJKXlL1y_1LBMRWKZy2Kocweo?authuser=0&hl=tr&rclk=1",
    "website_url": "http://www.idrofoglia.it/",
    "rating_text": "4,7",
    "stars": null,
    "number_of_reviews": null,
    "price_level": "",
    "open_hours": "",
    "extraction_timestamp": "2025-06-07T15:51:14.726Z",
    "source_name": "google",
    "source_query": "Irrigation Equipment",
    "source_country": "IT",
    "country": "Italy",
    "state": "Emilia-Romagna",
    "city": "Dovadola"
  },
  {
    "source_id": "ChIJh3Nd8G0sfkcR_m7VewEmxXM",
    "name": "Irrigarden",
    "category": "Irrigarden",
    "formatted_address": "4,7(158)",
    "phone_number": "+39051782013",
    "source_url": "https://www.google.com/maps/place/Irrigarden/data=!4m7!3m6!1s0x477e2c6df05d7387:0x73c526017bd56efe!8m2!3d44.5096266!4d11.4390897!16s%2Fg%2F1vgw_l7w!19sChIJh3Nd8G0sfkcR_m7VewEmxXM?authuser=0&hl=tr&rclk=1",
    "website_url": "https://www.irrigarden-bo.it/",
    "rating_text": "4,7",
    "stars": null,
    "number_of_reviews": null,
    "price_level": "",
    "open_hours": "",
    "extraction_timestamp": "2025-06-07T15:51:14.727Z",
    "source_name": "google",
    "source_query": "Irrigation Equipment",
    "source_country": "IT",
    "country": "Italy",
    "state": "Emilia-Romagna",
    "city": "Dovadola"
  },
  {
    "source_id": "ChIJJ5gwCCtDKxMRl389DiLIls8",
    "name": "SVELTO A&O",
    "category": "SVELTO A&O",
    "formatted_address": "5,0(1)",
    "phone_number": "+390543934713",
    "source_url": "https://www.google.com/maps/place/SVELTO+A%26O/data=!4m7!3m6!1s0x132b432b08309827:0xcf96c8220e3d7f97!8m2!3d44.1209733!4d11.8857718!16s%2Fg%2F11f388f8ds!19sChIJJ5gwCCtDKxMRl389DiLIls8?authuser=0&hl=tr&rclk=1",
    "website_url": "https://www.aeo.it/",
    "rating_text": "5,0",
    "stars": null,
    "number_of_reviews": null,
    "price_level": "",
    "open_hours": "",
    "extraction_timestamp": "2025-06-07T15:51:14.728Z",
    "source_name": "google",
    "source_query": "Irrigation Equipment",
    "source_country": "IT",
    "country": "Italy",
    "state": "Emilia-Romagna",
    "city": "Dovadola"
  },
  {
    "source_id": "ChIJFW3XPJejLBMRDpQWGwmYqU4",
    "name": "Raggini Irrigazioni e Robot Tosaerba",
    "category": "Raggini Irrigazioni e Robot Tosaerba",
    "formatted_address": "5,0(1)",
    "phone_number": "+393926808947",
    "source_url": "https://www.google.com/maps/place/Raggini+Irrigazioni+e+Robot+Tosaerba/data=!4m7!3m6!1s0x132ca3973cd76d15:0x4ea998091b16940e!8m2!3d44.36369!4d11.8460774!16s%2Fg%2F11dz0bbs9t!19sChIJFW3XPJejLBMRDpQWGwmYqU4?authuser=0&hl=tr&rclk=1",
    "website_url": "",
    "rating_text": "5,0",
    "stars": null,
    "number_of_reviews": null,
    "price_level": "",
    "open_hours": "",
    "extraction_timestamp": "2025-06-07T15:51:14.729Z",
    "source_name": "google",
    "source_query": "Irrigation Equipment",
    "source_country": "IT",
    "country": "Italy",
    "state": "Emilia-Romagna",
    "city": "Dovadola"
  },
  {
    "source_id": "ChIJhZ5AeitDKxMRzsxPwnpwa_g",
    "name": "Fagnoli Massimo Alimentari",
    "category": "Fagnoli Massimo Alimentari",
    "formatted_address": "4,5(24)",
    "phone_number": "+393392299156",
    "source_url": "https://www.google.com/maps/place/Fagnoli+Massimo+Alimentari/data=!4m7!3m6!1s0x132b432b7a409e85:0xf86b707ac24fccce!8m2!3d44.1215623!4d11.886749!16s%2Fg%2F1tnxz5vp!19sChIJhZ5AeitDKxMRzsxPwnpwa_g?authuser=0&hl=tr&rclk=1",
    "website_url": "",
    "rating_text": "4,5",
    "stars": null,
    "number_of_reviews": null,
    "price_level": "",
    "open_hours": "",
    "extraction_timestamp": "2025-06-07T15:51:14.730Z",
    "source_name": "google",
    "source_query": "Irrigation Equipment",
    "source_country": "IT",
    "country": "Italy",
    "state": "Emilia-Romagna",
    "city": "Dovadola"
  },
  {
    "source_id": "ChIJJ6V6lMDgf0cR1SpFsfjDuHg",
    "name": "Ocmis Irrigazione Spa",
    "category": "Ocmis Irrigazione Spa",
    "formatted_address": "3,5(31)",
    "phone_number": "+39059702150",
    "source_url": "https://www.google.com/maps/place/Ocmis+Irrigazione+Spa/data=!4m7!3m6!1s0x477fe0c0947aa527:0x78b8c3f8b1452ad5!8m2!3d44.530494!4d10.9794578!16s%2Fg%2F1vd3tn19!19sChIJJ6V6lMDgf0cR1SpFsfjDuHg?authuser=0&hl=tr&rclk=1",
    "website_url": "http://www.ocmis-irrigazione.it/",
    "rating_text": "3,5",
    "stars": null,
    "number_of_reviews": null,
    "price_level": "",
    "open_hours": "",
    "extraction_timestamp": "2025-06-07T15:51:14.732Z",
    "source_name": "google",
    "source_query": "Irrigation Equipment",
    "source_country": "IT",
    "country": "Italy",
    "state": "Emilia-Romagna",
    "city": "Dovadola"
  },
  {
    "source_id": "ChIJR0cLXhQkgEcRi9oI9GALzlg",
    "name": "IRRILAND",
    "category": "IRRILAND",
    "formatted_address": "4,0(4)",
    "phone_number": "+390522831544",
    "source_url": "https://www.google.com/maps/place/IRRILAND/data=!4m7!3m6!1s0x478024145e0b4747:0x58ce0b60f408da8b!8m2!3d44.891987!4d10.650983!16s%2Fg%2F1tczjb0h!19sChIJR0cLXhQkgEcRi9oI9GALzlg?authuser=0&hl=tr&rclk=1",
    "website_url": "http://www.irriland.it/",
    "rating_text": "4,0",
    "stars": null,
    "number_of_reviews": null,
    "price_level": "",
    "open_hours": "",
    "extraction_timestamp": "2025-06-07T15:51:14.733Z",
    "source_name": "google",
    "source_query": "Irrigation Equipment",
    "source_country": "IT",
    "country": "Italy",
    "state": "Emilia-Romagna",
    "city": "Dovadola"
  },
  {
    "source_id": "ChIJtVDkNgRFgEcRqc6umwWIJuI",
    "name": "Rm Spa",
    "category": "Rm Spa",
    "formatted_address": "4,6(81)",
    "phone_number": "+390521872321",
    "source_url": "https://www.google.com/maps/place/Rm+Spa/data=!4m7!3m6!1s0x4780450436e450b5:0xe22688059baecea9!8m2!3d44.9105406!4d10.2583785!16s%2Fg%2F12hl93byl!19sChIJtVDkNgRFgEcRqc6umwWIJuI?authuser=0&hl=tr&rclk=1",
    "website_url": "http://www.rmirrigation.com/",
    "rating_text": "4,6",
    "stars": null,
    "number_of_reviews": null,
    "price_level": "",
    "open_hours": "",
    "extraction_timestamp": "2025-06-07T15:51:14.734Z",
    "source_name": "google",
    "source_query": "Irrigation Equipment",
    "source_country": "IT",
    "country": "Italy",
    "state": "Emilia-Romagna",
    "city": "Dovadola"
  },
  {
    "source_id": "ChIJy805WcDcgEcRtmGWlwosXQc",
    "name": "IRRIMEC SRL",
    "category": "IRRIMEC SRL",
    "formatted_address": "4,5(90)",
    "phone_number": "+390523760441",
    "source_url": "https://www.google.com/maps/place/IRRIMEC+SRL/data=!4m7!3m6!1s0x4780dcc05939cdcb:0x75d2c0a979661b6!8m2!3d45.0612353!4d9.630829!16s%2Fg%2F1tdgt7d_!19sChIJy805WcDcgEcRtmGWlwosXQc?authuser=0&hl=tr&rclk=1",
    "website_url": "http://www.irrimec.com/",
    "rating_text": "4,5",
    "stars": null,
    "number_of_reviews": null,
    "price_level": "",
    "open_hours": "",
    "extraction_timestamp": "2025-06-07T15:51:14.736Z",
    "source_name": "google",
    "source_query": "Irrigation Equipment",
    "source_country": "IT",
    "country": "Italy",
    "state": "Emilia-Romagna",
    "city": "Dovadola"
  },
  {
    "source_id": "ChIJoUdjxvcrfkcRNBRxZxbabWs",
    "name": "Roli D. macchine ed attrezzature per giardinaggio",
    "category": "Roli D. macchine ed attrezzature per giardinaggio",
    "formatted_address": "4,6(27)",
    "phone_number": "+390514842351",
    "source_url": "https://www.google.com/maps/place/Roli+D.+macchine+ed+attrezzature+per+giardinaggio/data=!4m7!3m6!1s0x477e2bf7c66347a1:0x6b6dda1667711434!8m2!3d44.5028239!4d11.4035209!16s%2Fg%2F11tj6kzpf8!19sChIJoUdjxvcrfkcRNBRxZxbabWs?authuser=0&hl=tr&rclk=1",
    "website_url": "http://www.rolid.it/",
    "rating_text": "4,6",
    "stars": null,
    "number_of_reviews": null,
    "price_level": "",
    "open_hours": "",
    "extraction_timestamp": "2025-06-07T15:51:14.737Z",
    "source_name": "google",
    "source_query": "Irrigation Equipment",
    "source_country": "IT",
    "country": "Italy",
    "state": "Emilia-Romagna",
    "city": "Dovadola"
  },
  {
    "source_id": "ChIJIZ--0Hu7LBMRsAwRWW9yZP8",
    "name": "Irritalia Di Vecchi Andrea & C. S.N.C.",
    "category": "Irritalia Di Vecchi Andrea & C. S.N.C.",
    "formatted_address": "Üretici ·  · Via Archimede, 200Kapalı ⋅ Açılış zamanı: Pzt 08:00 · +39 0547 301569",
    "phone_number": "+390547301569",
    "source_url": "https://www.google.com/maps/place/Irritalia+Di+Vecchi+Andrea+%26+C.+S.N.C./data=!4m7!3m6!1s0x132cbb7bd0be9f21:0xff64726f59110cb0!8m2!3d44.1175203!4d12.2941807!16s%2Fg%2F1th2n8t5!19sChIJIZ--0Hu7LBMRsAwRWW9yZP8?authuser=0&hl=tr&rclk=1",
    "website_url": "http://www.irritalia.com/contatti.php",
    "rating_text": "",
    "stars": null,
    "number_of_reviews": null,
    "price_level": "",
    "open_hours": "",
    "extraction_timestamp": "2025-06-07T15:51:14.738Z",
    "source_name": "google",
    "source_query": "Irrigation Equipment",
    "source_country": "IT",
    "country": "Italy",
    "state": "Emilia-Romagna",
    "city": "Dovadola"
  },
  {
    "source_id": "ChIJ-ZYke-VfLBMRSl_s0b4UacM",
    "name": "Valducci Web S.r.l.",
    "category": "Valducci Web S.r.l.",
    "formatted_address": "5,0(1)",
    "phone_number": "+393371267358",
    "source_url": "https://www.google.com/maps/place/Valducci+Web+S.r.l./data=!4m7!3m6!1s0x132c5fe57b2496f9:0xc36914bed1ec5f4a!8m2!3d43.6598005!4d12.5231511!16s%2Fg%2F11f66g3g7d!19sChIJ-ZYke-VfLBMRSl_s0b4UacM?authuser=0&hl=tr&rclk=1",
    "website_url": "http://www.irrigationvalducci.com/",
    "rating_text": "5,0",
    "stars": null,
    "number_of_reviews": null,
    "price_level": "",
    "open_hours": "",
    "extraction_timestamp": "2025-06-07T15:51:14.739Z",
    "source_name": "google",
    "source_query": "Irrigation Equipment",
    "source_country": "IT",
    "country": "Italy",
    "state": "Emilia-Romagna",
    "city": "Dovadola"
  }
]
