[
  {
    "source_id": "ChIJfc8S9cmiKhMRJfKamWSno3M",
    "name": "Ferramenta C.D.B.",
    "category": "Ferramenta C.D.B.",
    "formatted_address": "4,8(142)",
    "phone_number": "+39053668356",
    "source_url": "https://www.google.com/maps/place/Ferramenta+C.D.B./data=!4m7!3m6!1s0x132aa2c9f512cf7d:0x73a3a764999af225!8m2!3d44.2090455!4d10.7930436!16s%2Fg%2F1td354z_!19sChIJfc8S9cmiKhMRJfKamWSno3M?authuser=0&hl=tr&rclk=1",
    "website_url": "",
    "rating_text": "4,8",
    "stars": null,
    "number_of_reviews": null,
    "price_level": "",
    "open_hours": "",
    "extraction_timestamp": "2025-06-07T16:31:23.121Z",
    "source_name": "google",
    "source_query": "Irrigation Equipment",
    "source_country": "IT",
    "country": "Italy",
    "state": "Emilia-Romagna",
    "city": "Fanano"
  },
  {
    "source_id": "ChIJcQG6ul7df0cR3VxKiu5OPBs",
    "name": "Scova Impianti Srl",
    "category": "Scova Impianti Srl",
    "formatted_address": "4,5(64)",
    "phone_number": "+39059923202",
    "source_url": "https://www.google.com/maps/place/Scova+Impianti+Srl/data=!4m7!3m6!1s0x477fdd5ebaba0171:0x1b3c4eee8a4a5cdd!8m2!3d44.6018135!4d11.032294!16s%2Fg%2F1tfzwbfb!19sChIJcQG6ul7df0cR3VxKiu5OPBs?authuser=0&hl=tr&rclk=1",
    "website_url": "https://www.scovaimpianti.com/",
    "rating_text": "4,5",
    "stars": null,
    "number_of_reviews": null,
    "price_level": "",
    "open_hours": "",
    "extraction_timestamp": "2025-06-07T16:31:23.122Z",
    "source_name": "google",
    "source_query": "Irrigation Equipment",
    "source_country": "IT",
    "country": "Italy",
    "state": "Emilia-Romagna",
    "city": "Fanano"
  },
  {
    "source_id": "ChIJJ6V6lMDgf0cR1SpFsfjDuHg",
    "name": "Ocmis Irrigazione Spa",
    "category": "Ocmis Irrigazione Spa",
    "formatted_address": "3,5(31)",
    "phone_number": "+39059702150",
    "source_url": "https://www.google.com/maps/place/Ocmis+Irrigazione+Spa/data=!4m7!3m6!1s0x477fe0c0947aa527:0x78b8c3f8b1452ad5!8m2!3d44.530494!4d10.9794578!16s%2Fg%2F1vd3tn19!19sChIJJ6V6lMDgf0cR1SpFsfjDuHg?authuser=0&hl=tr&rclk=1",
    "website_url": "http://www.ocmis-irrigazione.it/",
    "rating_text": "3,5",
    "stars": null,
    "number_of_reviews": null,
    "price_level": "",
    "open_hours": "",
    "extraction_timestamp": "2025-06-07T16:31:23.124Z",
    "source_name": "google",
    "source_query": "Irrigation Equipment",
    "source_country": "IT",
    "country": "Italy",
    "state": "Emilia-Romagna",
    "city": "Fanano"
  },
  {
    "source_id": "ChIJ9w4NToGjKhMRUpf2iB2H8wo",
    "name": "BB Service",
    "category": "BB Service",
    "formatted_address": "3,6(5)",
    "phone_number": "+393484203602",
    "source_url": "https://www.google.com/maps/place/BB+Service/data=!4m7!3m6!1s0x132aa3814e0d0ef7:0xaf3871d88f69752!8m2!3d44.2100644!4d10.7868851!16s%2Fg%2F11h2qn6tpl!19sChIJ9w4NToGjKhMRUpf2iB2H8wo?authuser=0&hl=tr&rclk=1",
    "website_url": "https://www.facebook.com/BB-Service-546393682494928/",
    "rating_text": "3,6",
    "stars": null,
    "number_of_reviews": null,
    "price_level": "",
    "open_hours": "",
    "extraction_timestamp": "2025-06-07T16:31:23.125Z",
    "source_name": "google",
    "source_query": "Irrigation Equipment",
    "source_country": "IT",
    "country": "Italy",
    "state": "Emilia-Romagna",
    "city": "Fanano"
  },
  {
    "source_id": "ChIJ6XeLDcqiKhMRMdSIZe1kFdc",
    "name": "Geminiano Tintorri s.a.s.- ferramenta e mobili",
    "category": "Geminiano Tintorri s.a.s.- ferramenta e mobili",
    "formatted_address": "4,3(9)",
    "phone_number": "+393356479230",
    "source_url": "https://www.google.com/maps/place/Geminiano+Tintorri+s.a.s.-+ferramenta+e+mobili/data=!4m7!3m6!1s0x132aa2ca0d8b77e9:0xd71564ed6588d431!8m2!3d44.2084765!4d10.7954863!16s%2Fg%2F11c0wp4yqf!19sChIJ6XeLDcqiKhMRMdSIZe1kFdc?authuser=0&hl=tr&rclk=1",
    "website_url": "",
    "rating_text": "4,3",
    "stars": null,
    "number_of_reviews": null,
    "price_level": "",
    "open_hours": "",
    "extraction_timestamp": "2025-06-07T16:31:23.127Z",
    "source_name": "google",
    "source_query": "Irrigation Equipment",
    "source_country": "IT",
    "country": "Italy",
    "state": "Emilia-Romagna",
    "city": "Fanano"
  },
  {
    "source_id": "ChIJtVDkNgRFgEcRqc6umwWIJuI",
    "name": "Rm Spa",
    "category": "Rm Spa",
    "formatted_address": "4,6(81)",
    "phone_number": "+390521872321",
    "source_url": "https://www.google.com/maps/place/Rm+Spa/data=!4m7!3m6!1s0x4780450436e450b5:0xe22688059baecea9!8m2!3d44.9105406!4d10.2583785!16s%2Fg%2F12hl93byl!19sChIJtVDkNgRFgEcRqc6umwWIJuI?authuser=0&hl=tr&rclk=1",
    "website_url": "http://www.rmirrigation.com/",
    "rating_text": "4,6",
    "stars": null,
    "number_of_reviews": null,
    "price_level": "",
    "open_hours": "",
    "extraction_timestamp": "2025-06-07T16:31:23.128Z",
    "source_name": "google",
    "source_query": "Irrigation Equipment",
    "source_country": "IT",
    "country": "Italy",
    "state": "Emilia-Romagna",
    "city": "Fanano"
  },
  {
    "source_id": "ChIJhT-kpAXff0cRKJQqKYwIulA",
    "name": "Irrigo",
    "category": "Irrigo",
    "formatted_address": "4,7(36)",
    "phone_number": "+393473096499",
    "source_url": "https://www.google.com/maps/place/Irrigo/data=!4m7!3m6!1s0x477fdf05a4a43f85:0x50ba088c292a9428!8m2!3d44.5018172!4d11.005272!16s%2Fg%2F11hdjcp5pk!19sChIJhT-kpAXff0cRKJQqKYwIulA?authuser=0&hl=tr&rclk=1",
    "website_url": "https://www.irrigovignola.it/",
    "rating_text": "4,7",
    "stars": null,
    "number_of_reviews": null,
    "price_level": "",
    "open_hours": "",
    "extraction_timestamp": "2025-06-07T16:31:23.129Z",
    "source_name": "google",
    "source_query": "Irrigation Equipment",
    "source_country": "IT",
    "country": "Italy",
    "state": "Emilia-Romagna",
    "city": "Fanano"
  },
  {
    "source_id": "ChIJE_3jOnMtfkcRkxtTFj3Ym9E",
    "name": "Irrigation Scarabelli Srl",
    "category": "Irrigation Scarabelli Srl",
    "formatted_address": "4,5(23)",
    "phone_number": "+39051763363",
    "source_url": "https://www.google.com/maps/place/Irrigation+Scarabelli+Srl/data=!4m7!3m6!1s0x477e2d733ae3fd13:0xd19bd83d16531b93!8m2!3d44.5426053!4d11.4189136!16s%2Fg%2F11gzdz6vf!19sChIJE_3jOnMtfkcRkxtTFj3Ym9E?authuser=0&hl=tr&rclk=1",
    "website_url": "",
    "rating_text": "4,5",
    "stars": null,
    "number_of_reviews": null,
    "price_level": "",
    "open_hours": "",
    "extraction_timestamp": "2025-06-07T16:31:23.131Z",
    "source_name": "google",
    "source_query": "Irrigation Equipment",
    "source_country": "IT",
    "country": "Italy",
    "state": "Emilia-Romagna",
    "city": "Fanano"
  },
  {
    "source_id": "ChIJDXjY3y29KhMRfLh2YSoGjzU",
    "name": "Alimentari Minus",
    "category": "Alimentari Minus",
    "formatted_address": "4,0(151)",
    "phone_number": "+39053669397",
    "source_url": "https://www.google.com/maps/place/Alimentari+Minus/data=!4m7!3m6!1s0x132abd2ddfd8780d:0x358f062a6176b87c!8m2!3d44.2172966!4d10.8057346!16s%2Fg%2F1tf4b7zs!19sChIJDXjY3y29KhMRfLh2YSoGjzU?authuser=0&hl=tr&rclk=1",
    "website_url": "https://www.supermercatometa.it/",
    "rating_text": "4,0",
    "stars": null,
    "number_of_reviews": null,
    "price_level": "",
    "open_hours": "",
    "extraction_timestamp": "2025-06-07T16:31:23.132Z",
    "source_name": "google",
    "source_query": "Irrigation Equipment",
    "source_country": "IT",
    "country": "Italy",
    "state": "Emilia-Romagna",
    "city": "Fanano"
  },
  {
    "source_id": "ChIJ5fHXCcqiKhMRuW_G65o88I4",
    "name": "Pet Station",
    "category": "Pet Station",
    "formatted_address": "4,8(33)",
    "phone_number": "+393407760963",
    "source_url": "https://www.google.com/maps/place/Pet+Station/data=!4m7!3m6!1s0x132aa2ca09d7f1e5:0x8ef03c9aebc66fb9!8m2!3d44.2085386!4d10.7938229!16s%2Fg%2F11hb118y72!19sChIJ5fHXCcqiKhMRuW_G65o88I4?authuser=0&hl=tr&rclk=1",
    "website_url": "",
    "rating_text": "4,8",
    "stars": null,
    "number_of_reviews": null,
    "price_level": "",
    "open_hours": "",
    "extraction_timestamp": "2025-06-07T16:31:23.133Z",
    "source_name": "google",
    "source_query": "Irrigation Equipment",
    "source_country": "IT",
    "country": "Italy",
    "state": "Emilia-Romagna",
    "city": "Fanano"
  }
]
