[
  {
    "source_id": "ChIJtVDkNgRFgEcRqc6umwWIJuI",
    "name": "Rm Spa",
    "category": "Rm Spa",
    "formatted_address": "4,6(81)",
    "phone_number": "+390521872321",
    "source_url": "https://www.google.com/maps/place/Rm+Spa/data=!4m7!3m6!1s0x4780450436e450b5:0xe22688059baecea9!8m2!3d44.9105406!4d10.2583785!16s%2Fg%2F12hl93byl!19sChIJtVDkNgRFgEcRqc6umwWIJuI?authuser=0&hl=tr&rclk=1",
    "website_url": "http://www.rmirrigation.com/",
    "rating_text": "4,6",
    "stars": null,
    "number_of_reviews": null,
    "price_level": "",
    "open_hours": "",
    "extraction_timestamp": "2025-06-07T17:05:59.482Z",
    "source_name": "google",
    "source_query": "Irrigation Equipment",
    "source_country": "IT",
    "country": "Italy",
    "state": "Emilia-Romagna",
    "city": "Ferriere"
  },
  {
    "source_id": "ChIJad_bPByhgEcRG8GX70T9Cd4",
    "name": "Casa Mia di Bergonzi Marianora",
    "category": "Casa Mia di Bergonzi Marianora",
    "formatted_address": "4,8(13)",
    "phone_number": "+390523922204",
    "source_url": "https://www.google.com/maps/place/Casa+Mia+di+Bergonzi+Marianora/data=!4m7!3m6!1s0x4780a11c3cdbdf69:0xde09fd44ef97c11b!8m2!3d44.6452744!4d9.4977721!16s%2Fg%2F1tf7ldv4!19sChIJad_bPByhgEcRG8GX70T9Cd4?authuser=0&hl=tr&rclk=1",
    "website_url": "http://www.casamiashopping.it/",
    "rating_text": "4,8",
    "stars": null,
    "number_of_reviews": null,
    "price_level": "",
    "open_hours": "",
    "extraction_timestamp": "2025-06-07T17:05:59.482Z",
    "source_name": "google",
    "source_query": "Irrigation Equipment",
    "source_country": "IT",
    "country": "Italy",
    "state": "Emilia-Romagna",
    "city": "Ferriere"
  },
  {
    "source_id": "ChIJcQG6ul7df0cR3VxKiu5OPBs",
    "name": "Scova Impianti Srl",
    "category": "Scova Impianti Srl",
    "formatted_address": "4,5(64)",
    "phone_number": "+39059923202",
    "source_url": "https://www.google.com/maps/place/Scova+Impianti+Srl/data=!4m7!3m6!1s0x477fdd5ebaba0171:0x1b3c4eee8a4a5cdd!8m2!3d44.6018135!4d11.032294!16s%2Fg%2F1tfzwbfb!19sChIJcQG6ul7df0cR3VxKiu5OPBs?authuser=0&hl=tr&rclk=1",
    "website_url": "https://www.scovaimpianti.com/",
    "rating_text": "4,5",
    "stars": null,
    "number_of_reviews": null,
    "price_level": "",
    "open_hours": "",
    "extraction_timestamp": "2025-06-07T17:05:59.483Z",
    "source_name": "google",
    "source_query": "Irrigation Equipment",
    "source_country": "IT",
    "country": "Italy",
    "state": "Emilia-Romagna",
    "city": "Ferriere"
  },
  {
    "source_id": "ChIJURNsXunRgEcRmae-SVNqONs",
    "name": "IDROPAVESE SAS DI VARESI GIAMPAOLO E VARESI MARA",
    "category": "IDROPAVESE SAS DI VARESI GIAMPAOLO E VARESI MARA",
    "formatted_address": "4,2(17)",
    "phone_number": "+390523882596",
    "source_url": "https://www.google.com/maps/place/IDROPAVESE+SAS+DI+VARESI+GIAMPAOLO+E+VARESI+MARA/data=!4m7!3m6!1s0x4780d1e95e6c1351:0xdb386a5349bea799!8m2!3d45.0733425!4d9.4455294!16s%2Fg%2F11b6hssh7j!19sChIJURNsXunRgEcRmae-SVNqONs?authuser=0&hl=tr&rclk=1",
    "website_url": "http://www.idropavese.it/",
    "rating_text": "4,2",
    "stars": null,
    "number_of_reviews": null,
    "price_level": "",
    "open_hours": "",
    "extraction_timestamp": "2025-06-07T17:05:59.483Z",
    "source_name": "google",
    "source_query": "Irrigation Equipment",
    "source_country": "IT",
    "country": "Italy",
    "state": "Emilia-Romagna",
    "city": "Ferriere"
  },
  {
    "source_id": "ChIJz36NkAKhgEcR8jf2H4RBKec",
    "name": "Sigma Di Ferriere Risorgimento",
    "category": "Sigma Di Ferriere Risorgimento",
    "formatted_address": "4,5(21)",
    "phone_number": "+390523922242",
    "source_url": "https://www.google.com/maps/place/Sigma+Di+Ferriere+Risorgimento/data=!4m7!3m6!1s0x4780a102908d7ecf:0xe72941841ff637f2!8m2!3d44.6445723!4d9.4980153!16s%2Fg%2F11ghp1swm7!19sChIJz36NkAKhgEcR8jf2H4RBKec?authuser=0&hl=tr&rclk=1",
    "website_url": "https://www.supersigma.com/pdv/realc_pc_4248",
    "rating_text": "4,5",
    "stars": null,
    "number_of_reviews": null,
    "price_level": "",
    "open_hours": "",
    "extraction_timestamp": "2025-06-07T17:05:59.483Z",
    "source_name": "google",
    "source_query": "Irrigation Equipment",
    "source_country": "IT",
    "country": "Italy",
    "state": "Emilia-Romagna",
    "city": "Ferriere"
  },
  {
    "source_id": "ChIJ4WnZNofogEcRcCSJgGupNXk",
    "name": "Irrigarden",
    "category": "Irrigarden",
    "formatted_address": "3,7(6)",
    "phone_number": "+390523592012",
    "source_url": "https://www.google.com/maps/place/Irrigarden/data=!4m7!3m6!1s0x4780e88736d969e1:0x7935a96b80892470!8m2!3d45.0288739!4d9.7384753!16s%2Fg%2F11g4d1r753!19sChIJ4WnZNofogEcRcCSJgGupNXk?authuser=0&hl=tr&rclk=1",
    "website_url": "https://www.irrigarden.com/",
    "rating_text": "3,7",
    "stars": null,
    "number_of_reviews": null,
    "price_level": "",
    "open_hours": "",
    "extraction_timestamp": "2025-06-07T17:05:59.484Z",
    "source_name": "google",
    "source_query": "Irrigation Equipment",
    "source_country": "IT",
    "country": "Italy",
    "state": "Emilia-Romagna",
    "city": "Ferriere"
  },
  {
    "source_id": "ChIJh3Nd8G0sfkcR_m7VewEmxXM",
    "name": "Irrigarden",
    "category": "Irrigarden",
    "formatted_address": "4,7(158)",
    "phone_number": "+39051782013",
    "source_url": "https://www.google.com/maps/place/Irrigarden/data=!4m7!3m6!1s0x477e2c6df05d7387:0x73c526017bd56efe!8m2!3d44.5096266!4d11.4390897!16s%2Fg%2F1vgw_l7w!19sChIJh3Nd8G0sfkcR_m7VewEmxXM?authuser=0&hl=tr&rclk=1",
    "website_url": "https://www.irrigarden-bo.it/",
    "rating_text": "4,7",
    "stars": null,
    "number_of_reviews": null,
    "price_level": "",
    "open_hours": "",
    "extraction_timestamp": "2025-06-07T17:05:59.484Z",
    "source_name": "google",
    "source_query": "Irrigation Equipment",
    "source_country": "IT",
    "country": "Italy",
    "state": "Emilia-Romagna",
    "city": "Ferriere"
  },
  {
    "source_id": "ChIJnyyozzLFgEcRveCr7YkDeKI",
    "name": "Carella Sas di Carella Enrico Filippo e C.",
    "category": "Carella Sas di Carella Enrico Filippo e C.",
    "formatted_address": "4,7(46)",
    "phone_number": "+390523884055",
    "source_url": "https://www.google.com/maps/place/Carella+Sas+di+Carella+Enrico+Filippo+e+C./data=!4m7!3m6!1s0x4780c532cfa82c9f:0xa2780389edabe0bd!8m2!3d45.0555848!4d9.5038928!16s%2Fg%2F11jpkclgfy!19sChIJnyyozzLFgEcRveCr7YkDeKI?authuser=0&hl=tr&rclk=1",
    "website_url": "https://www.carellastore.it/",
    "rating_text": "4,7",
    "stars": null,
    "number_of_reviews": null,
    "price_level": "",
    "open_hours": "",
    "extraction_timestamp": "2025-06-07T17:05:59.484Z",
    "source_name": "google",
    "source_query": "Irrigation Equipment",
    "source_country": "IT",
    "country": "Italy",
    "state": "Emilia-Romagna",
    "city": "Ferriere"
  },
  {
    "source_id": "ChIJJ6V6lMDgf0cR1SpFsfjDuHg",
    "name": "Ocmis Irrigazione Spa",
    "category": "Ocmis Irrigazione Spa",
    "formatted_address": "3,5(31)",
    "phone_number": "+39059702150",
    "source_url": "https://www.google.com/maps/place/Ocmis+Irrigazione+Spa/data=!4m7!3m6!1s0x477fe0c0947aa527:0x78b8c3f8b1452ad5!8m2!3d44.530494!4d10.9794578!16s%2Fg%2F1vd3tn19!19sChIJJ6V6lMDgf0cR1SpFsfjDuHg?authuser=0&hl=tr&rclk=1",
    "website_url": "http://www.ocmis-irrigazione.it/",
    "rating_text": "3,5",
    "stars": null,
    "number_of_reviews": null,
    "price_level": "",
    "open_hours": "",
    "extraction_timestamp": "2025-06-07T17:05:59.485Z",
    "source_name": "google",
    "source_query": "Irrigation Equipment",
    "source_country": "IT",
    "country": "Italy",
    "state": "Emilia-Romagna",
    "city": "Ferriere"
  },
  {
    "source_id": "ChIJfTTntR2hgEcR_bElMUtjkAc",
    "name": "Ferrari Giancarlo",
    "category": "Ferrari Giancarlo",
    "formatted_address": "4,4(8)",
    "phone_number": "+390523922684",
    "source_url": "https://www.google.com/maps/place/Ferrari+Giancarlo/data=!4m7!3m6!1s0x4780a11db5e7347d:0x790634b3125b1fd!8m2!3d44.6441679!4d9.4978657!16s%2Fg%2F1tcyjx2x!19sChIJfTTntR2hgEcR_bElMUtjkAc?authuser=0&hl=tr&rclk=1",
    "website_url": "",
    "rating_text": "4,4",
    "stars": null,
    "number_of_reviews": null,
    "price_level": "",
    "open_hours": "",
    "extraction_timestamp": "2025-06-07T17:05:59.485Z",
    "source_name": "google",
    "source_query": "Irrigation Equipment",
    "source_country": "IT",
    "country": "Italy",
    "state": "Emilia-Romagna",
    "city": "Ferriere"
  },
  {
    "source_id": "ChIJsU6P1QHpgEcRewrpa3hJZmY",
    "name": "Irrigarden di Imberti Paolo Giovanni",
    "category": "Irrigarden di Imberti Paolo Giovanni",
    "formatted_address": "Peyzaj Malzemeleri Satıcısı · Via Emilia Parmense, 148/H+39 0523 592012",
    "phone_number": "+390523592012",
    "source_url": "https://www.google.com/maps/place/Irrigarden+di+Imberti+Paolo+Giovanni/data=!4m7!3m6!1s0x4780e901d58f4eb1:0x666649786be90a7b!8m2!3d45.0295966!4d9.7376067!16s%2Fg%2F11vr0r_p__!19sChIJsU6P1QHpgEcRewrpa3hJZmY?authuser=0&hl=tr&rclk=1",
    "website_url": "",
    "rating_text": "",
    "stars": null,
    "number_of_reviews": null,
    "price_level": "",
    "open_hours": "",
    "extraction_timestamp": "2025-06-07T17:05:59.485Z",
    "source_name": "google",
    "source_query": "Irrigation Equipment",
    "source_country": "IT",
    "country": "Italy",
    "state": "Emilia-Romagna",
    "city": "Ferriere"
  }
]
