[
  {
    "source_id": "ChIJxxUaMJ1OfkcRnpYB5tFP62M",
    "name": "Tecnomat",
    "category": "Tecnomat",
    "formatted_address": "4,3(6.454)",
    "phone_number": "+390283905463",
    "source_url": "https://www.google.com/maps/place/Tecnomat/data=!4m7!3m6!1s0x477e4e9d301a15c7:0x63eb4fd1e601969e!8m2!3d44.812181!4d11.592758!16s%2Fg%2F1tgf21cc!19sChIJxxUaMJ1OfkcRnpYB5tFP62M?authuser=0&hl=tr&rclk=1",
    "website_url": "",
    "rating_text": "4,3",
    "stars": null,
    "number_of_reviews": null,
    "price_level": "",
    "open_hours": "",
    "extraction_timestamp": "2025-06-07T17:05:08.498Z",
    "source_name": "google",
    "source_query": "Irrigation Equipment",
    "source_country": "IT",
    "country": "Italy",
    "state": "Emilia-Romagna",
    "city": "Ferrara"
  },
  {
    "source_id": "ChIJ-eLL5ShMfkcRkJZIiiw4RaU",
    "name": "P.M. di Peverati M. srl",
    "category": "P.M. di Peverati M. srl",
    "formatted_address": "4,7(50)",
    "phone_number": "+39053294452",
    "source_url": "https://www.google.com/maps/place/P.M.+di+Peverati+M.+srl/data=!4m7!3m6!1s0x477e4c28e5cbe2f9:0xa545382c8a489690!8m2!3d44.8147477!4d11.5887959!16s%2Fg%2F1thp6v8g!19sChIJ-eLL5ShMfkcRkJZIiiw4RaU?authuser=0&hl=tr&rclk=1",
    "website_url": "http://www.pmpeverati.it/",
    "rating_text": "4,7",
    "stars": null,
    "number_of_reviews": null,
    "price_level": "",
    "open_hours": "",
    "extraction_timestamp": "2025-06-07T17:05:08.499Z",
    "source_name": "google",
    "source_query": "Irrigation Equipment",
    "source_country": "IT",
    "country": "Italy",
    "state": "Emilia-Romagna",
    "city": "Ferrara"
  },
  {
    "source_id": "ChIJN8KqvTtOfkcRs5u1djigkKI",
    "name": "Cila Ciicai Magazzino Ferrara",
    "category": "Cila Ciicai Magazzino Ferrara",
    "formatted_address": "4,4(41)",
    "phone_number": "+390532415000",
    "source_url": "https://www.google.com/maps/place/Cila+Ciicai+Magazzino+Ferrara/data=!4m7!3m6!1s0x477e4e3bbdaac237:0xa290a03876b59bb3!8m2!3d44.8424869!4d11.6354591!16s%2Fg%2F11ggn5k78f!19sChIJN8KqvTtOfkcRs5u1djigkKI?authuser=0&hl=tr&rclk=1",
    "website_url": "https://www.cilaciicai.it/",
    "rating_text": "4,4",
    "stars": null,
    "number_of_reviews": null,
    "price_level": "",
    "open_hours": "",
    "extraction_timestamp": "2025-06-07T17:05:08.501Z",
    "source_name": "google",
    "source_query": "Irrigation Equipment",
    "source_country": "IT",
    "country": "Italy",
    "state": "Emilia-Romagna",
    "city": "Ferrara"
  },
  {
    "source_id": "ChIJ76CRX3FPfkcRYj0qmK22D-0",
    "name": "Idraco s.r.l. vendita ingrosso/dettaglio",
    "category": "Idraco s.r.l. vendita ingrosso/dettaglio",
    "formatted_address": "4,7(18)",
    "phone_number": "+3905321652010",
    "source_url": "https://www.google.com/maps/place/Idraco+s.r.l.+vendita+ingrosso%2Fdettaglio/data=!4m7!3m6!1s0x477e4f715f91a0ef:0xed0fb6ad982a3d62!8m2!3d44.8100471!4d11.5966584!16s%2Fg%2F11hmzx6m8x!19sChIJ76CRX3FPfkcRYj0qmK22D-0?authuser=0&hl=tr&rclk=1",
    "website_url": "http://www.idraco.it/",
    "rating_text": "4,7",
    "stars": null,
    "number_of_reviews": null,
    "price_level": "",
    "open_hours": "",
    "extraction_timestamp": "2025-06-07T17:05:08.502Z",
    "source_name": "google",
    "source_query": "Irrigation Equipment",
    "source_country": "IT",
    "country": "Italy",
    "state": "Emilia-Romagna",
    "city": "Ferrara"
  },
  {
    "source_id": "ChIJRalyyYlOfkcRvnVQrS8sg_Q",
    "name": "PITAGORA s.a.s. di Marchioni Roberto & C.",
    "category": "PITAGORA s.a.s. di Marchioni Roberto & C.",
    "formatted_address": "5,0(8)",
    "phone_number": "+390532681684",
    "source_url": "https://www.google.com/maps/place/PITAGORA+s.a.s.+di+Marchioni+Roberto+%26+C./data=!4m7!3m6!1s0x477e4e89c972a945:0xf4832c2fad5075be!8m2!3d44.8199623!4d11.6079743!16s%2Fg%2F11f0wmfh8s!19sChIJRalyyYlOfkcRvnVQrS8sg_Q?authuser=0&hl=tr&rclk=1",
    "website_url": "http://pitagora162.com/",
    "rating_text": "5,0",
    "stars": null,
    "number_of_reviews": null,
    "price_level": "",
    "open_hours": "",
    "extraction_timestamp": "2025-06-07T17:05:08.504Z",
    "source_name": "google",
    "source_query": "Irrigation Equipment",
    "source_country": "IT",
    "country": "Italy",
    "state": "Emilia-Romagna",
    "city": "Ferrara"
  },
  {
    "source_id": "ChIJh3Nd8G0sfkcR_m7VewEmxXM",
    "name": "Irrigarden",
    "category": "Irrigarden",
    "formatted_address": "4,7(158)",
    "phone_number": "+39051782013",
    "source_url": "https://www.google.com/maps/place/Irrigarden/data=!4m7!3m6!1s0x477e2c6df05d7387:0x73c526017bd56efe!8m2!3d44.5096266!4d11.4390897!16s%2Fg%2F1vgw_l7w!19sChIJh3Nd8G0sfkcR_m7VewEmxXM?authuser=0&hl=tr&rclk=1",
    "website_url": "https://www.irrigarden-bo.it/",
    "rating_text": "4,7",
    "stars": null,
    "number_of_reviews": null,
    "price_level": "",
    "open_hours": "",
    "extraction_timestamp": "2025-06-07T17:05:08.505Z",
    "source_name": "google",
    "source_query": "Irrigation Equipment",
    "source_country": "IT",
    "country": "Italy",
    "state": "Emilia-Romagna",
    "city": "Ferrara"
  },
  {
    "source_id": "ChIJDWv494FOfkcRGKR2bu8iL_0",
    "name": "BIO SERVICE S.r.l.",
    "category": "BIO SERVICE S.r.l.",
    "formatted_address": "4,3(23)",
    "phone_number": "+390532902532",
    "source_url": "https://www.google.com/maps/place/BIO+SERVICE+S.r.l./data=!4m7!3m6!1s0x477e4e81f7f86b0d:0xfd2f22ef6e76a418!8m2!3d44.8169263!4d11.5940362!16s%2Fg%2F11g8nr76nd!19sChIJDWv494FOfkcRGKR2bu8iL_0?authuser=0&hl=tr&rclk=1",
    "website_url": "https://bioserviceacqua.com/",
    "rating_text": "4,3",
    "stars": null,
    "number_of_reviews": null,
    "price_level": "",
    "open_hours": "",
    "extraction_timestamp": "2025-06-07T17:05:08.506Z",
    "source_name": "google",
    "source_query": "Irrigation Equipment",
    "source_country": "IT",
    "country": "Italy",
    "state": "Emilia-Romagna",
    "city": "Ferrara"
  }
]
