[
  {
    "source_id": "ChIJvzwVqcxfgEcRHa4ccl_Htxs",
    "name": "Merli Giuliano E Figli (S.N.C.)",
    "category": "Merli Giuliano E Figli (S.N.C.)",
    "formatted_address": "4,5(49)",
    "phone_number": "+390524524092",
    "source_url": "https://www.google.com/maps/place/Merli+Giuliano+E+Figli+%28S.N.C.%29/data=!4m7!3m6!1s0x47805fcca9153cbf:0x1bb7c75f721cae1d!8m2!3d44.8700805!4d10.0532803!16s%2Fg%2F1tczcrdv!19sChIJvzwVqcxfgEcRHa4ccl_Htxs?authuser=0&hl=tr&rclk=1",
    "website_url": "",
    "rating_text": "4,5",
    "stars": null,
    "number_of_reviews": null,
    "price_level": "",
    "open_hours": "",
    "extraction_timestamp": "2025-06-07T16:09:28.401Z",
    "source_name": "google",
    "source_query": "Irrigation Equipment",
    "source_country": "IT",
    "country": "Italy",
    "state": "Emilia-Romagna",
    "city": "Fidenza"
  },
  {
    "source_id": "ChIJX2P7h3ZggEcRIo3TTP0_tuk",
    "name": "Agrigarden snc di Ambroggi",
    "category": "Agrigarden snc di Ambroggi",
    "formatted_address": "4,6(157)",
    "phone_number": "+390524523020",
    "source_url": "https://www.google.com/maps/place/Agrigarden+snc+di+Ambroggi/data=!4m7!3m6!1s0x4780607687fb635f:0xe9b63ffd4cd38d22!8m2!3d44.846688!4d10.0244782!16s%2Fg%2F1hc452qxl!19sChIJX2P7h3ZggEcRIo3TTP0_tuk?authuser=0&hl=tr&rclk=1",
    "website_url": "",
    "rating_text": "4,6",
    "stars": null,
    "number_of_reviews": null,
    "price_level": "",
    "open_hours": "",
    "extraction_timestamp": "2025-06-07T16:09:28.401Z",
    "source_name": "google",
    "source_query": "Irrigation Equipment",
    "source_country": "IT",
    "country": "Italy",
    "state": "Emilia-Romagna",
    "city": "Fidenza"
  },
  {
    "source_id": "ChIJtVDkNgRFgEcRqc6umwWIJuI",
    "name": "Rm Spa",
    "category": "Rm Spa",
    "formatted_address": "4,6(81)",
    "phone_number": "+390521872321",
    "source_url": "https://www.google.com/maps/place/Rm+Spa/data=!4m7!3m6!1s0x4780450436e450b5:0xe22688059baecea9!8m2!3d44.9105406!4d10.2583785!16s%2Fg%2F12hl93byl!19sChIJtVDkNgRFgEcRqc6umwWIJuI?authuser=0&hl=tr&rclk=1",
    "website_url": "",
    "rating_text": "4,6",
    "stars": null,
    "number_of_reviews": null,
    "price_level": "",
    "open_hours": "",
    "extraction_timestamp": "2025-06-07T16:09:28.401Z",
    "source_name": "google",
    "source_query": "Irrigation Equipment",
    "source_country": "IT",
    "country": "Italy",
    "state": "Emilia-Romagna",
    "city": "Fidenza"
  },
  {
    "source_id": "ChIJ0XH4jgRegEcR2dFbrJAY460",
    "name": "Centro Gamma Termosanitaria S.p.A.",
    "category": "Centro Gamma Termosanitaria S.p.A.",
    "formatted_address": "4,2(103)",
    "phone_number": "+390524530029",
    "source_url": "https://www.google.com/maps/place/Centro+Gamma+Termosanitaria+S.p.A./data=!4m7!3m6!1s0x47805e048ef871d1:0xade31890ac5bd1d9!8m2!3d44.8545523!4d10.0858728!16s%2Fg%2F1vlk0dtg!19sChIJ0XH4jgRegEcR2dFbrJAY460?authuser=0&hl=tr&rclk=1",
    "website_url": "",
    "rating_text": "4,2",
    "stars": null,
    "number_of_reviews": null,
    "price_level": "",
    "open_hours": "",
    "extraction_timestamp": "2025-06-07T16:09:28.402Z",
    "source_name": "google",
    "source_query": "Irrigation Equipment",
    "source_country": "IT",
    "country": "Italy",
    "state": "Emilia-Romagna",
    "city": "Fidenza"
  },
  {
    "source_id": "ChIJv1TQQTBegEcR4IgznjVj1pg",
    "name": "EmiliAmbiente S.p.A.",
    "category": "EmiliAmbiente S.p.A.",
    "formatted_address": "1,6(32)",
    "phone_number": "+39800427999",
    "source_url": "https://www.google.com/maps/place/EmiliAmbiente+S.p.A./data=!4m7!3m6!1s0x47805e3041d054bf:0x98d663359e3388e0!8m2!3d44.8668984!4d10.0632864!16s%2Fg%2F11g_6pfl7!19sChIJv1TQQTBegEcR4IgznjVj1pg?authuser=0&hl=tr&rclk=1",
    "website_url": "",
    "rating_text": "1,6",
    "stars": null,
    "number_of_reviews": null,
    "price_level": "",
    "open_hours": "",
    "extraction_timestamp": "2025-06-07T16:09:28.402Z",
    "source_name": "google",
    "source_query": "Irrigation Equipment",
    "source_country": "IT",
    "country": "Italy",
    "state": "Emilia-Romagna",
    "city": "Fidenza"
  },
  {
    "source_id": "ChIJS-iMJSBegEcRAXPMaCiuDYk",
    "name": "Ferrari Sistemi S.a.s.",
    "category": "Ferrari Sistemi S.a.s.",
    "formatted_address": "4,5(6)",
    "phone_number": "+390524369005",
    "source_url": "https://www.google.com/maps/place/Ferrari+Sistemi+S.a.s./data=!4m7!3m6!1s0x47805e20258ce84b:0x890dae2868cc7301!8m2!3d44.8545493!4d10.071541!16s%2Fg%2F1v76yhmd!19sChIJS-iMJSBegEcRAXPMaCiuDYk?authuser=0&hl=tr&rclk=1",
    "website_url": "",
    "rating_text": "4,5",
    "stars": null,
    "number_of_reviews": null,
    "price_level": "",
    "open_hours": "",
    "extraction_timestamp": "2025-06-07T16:09:28.403Z",
    "source_name": "google",
    "source_query": "Irrigation Equipment",
    "source_country": "IT",
    "country": "Italy",
    "state": "Emilia-Romagna",
    "city": "Fidenza"
  },
  {
    "source_id": "ChIJjdFBESBegEcRq1DkNTZW5oQ",
    "name": "Bertani S.p.a. - Magazzino di Fidenza",
    "category": "Bertani S.p.a. - Magazzino di Fidenza",
    "formatted_address": "Su Tesisatı Malzemeleri Satıcısı ·  · Via Giovan Battista Della Chiesa, 4Kapalı ⋅ Açılış zamanı: Pzt 08:00 · +39 0524 84086",
    "phone_number": "+39052484086",
    "source_url": "https://www.google.com/maps/place/Bertani+S.p.a.+-+Magazzino+di+Fidenza/data=!4m7!3m6!1s0x47805e201141d18d:0x84e6563635e450ab!8m2!3d44.8553747!4d10.0707544!16s%2Fg%2F11ssqc79xq!19sChIJjdFBESBegEcRq1DkNTZW5oQ?authuser=0&hl=tr&rclk=1",
    "website_url": "",
    "rating_text": "",
    "stars": null,
    "number_of_reviews": null,
    "price_level": "",
    "open_hours": "",
    "extraction_timestamp": "2025-06-07T16:09:28.423Z",
    "source_name": "google",
    "source_query": "Irrigation Equipment",
    "source_country": "IT",
    "country": "Italy",
    "state": "Emilia-Romagna",
    "city": "Fidenza"
  },
  {
    "source_id": "ChIJWSHrJAIxoIYRHuVvzWMHM-g",
    "name": "I GIARDINI DELL' EDEN GIARDINIERE FIDENZA, POTATURA, IMPIANTI DI IRRIGAZIONE",
    "category": "I GIARDINI DELL' EDEN GIARDINIERE FIDENZA, POTATURA, IMPIANTI DI IRRIGAZIONE",
    "formatted_address": "I GIARDINI DELL' EDEN GIARDINIERE FIDENZA, POTATURA, IMPIANTI DI IRRIGAZIONE",
    "phone_number": "+393283681512",
    "source_url": "https://www.google.com/maps/place/I+GIARDINI+DELL%27+EDEN+GIARDINIERE+FIDENZA,+POTATURA,+IMPIANTI+DI+IRRIGAZIONE/data=!4m7!3m6!1s0x86a0310224eb2159:0xe8330763cd6fe51e!8m2!3d44.8693199!4d10.0559496!16s%2Fg%2F11s7ptkzjj!19sChIJWSHrJAIxoIYRHuVvzWMHM-g?authuser=0&hl=tr&rclk=1",
    "website_url": "",
    "rating_text": "5,0",
    "stars": null,
    "number_of_reviews": null,
    "price_level": "",
    "open_hours": "",
    "extraction_timestamp": "2025-06-07T16:09:28.424Z",
    "source_name": "google",
    "source_query": "Irrigation Equipment",
    "source_country": "IT",
    "country": "Italy",
    "state": "Emilia-Romagna",
    "city": "Fidenza"
  },
  {
    "source_id": "ChIJhTKDEOxfgEcRXBWEcJawlzY",
    "name": "Salomon Factory Outlet Fidenza",
    "category": "Salomon Factory Outlet Fidenza",
    "formatted_address": "4,3(508)",
    "phone_number": "+390524201101",
    "source_url": "https://www.google.com/maps/place/Salomon+Factory+Outlet+Fidenza/data=!4m7!3m6!1s0x47805fec10833285:0x3697b0967084155c!8m2!3d44.8834878!4d10.09349!16s%2Fg%2F11g10hphlv!19sChIJhTKDEOxfgEcRXBWEcJawlzY?authuser=0&hl=tr&rclk=1",
    "website_url": "",
    "rating_text": "4,3",
    "stars": null,
    "number_of_reviews": null,
    "price_level": "",
    "open_hours": "",
    "extraction_timestamp": "2025-06-07T16:09:28.426Z",
    "source_name": "google",
    "source_query": "Irrigation Equipment",
    "source_country": "IT",
    "country": "Italy",
    "state": "Emilia-Romagna",
    "city": "Fidenza"
  },
  {
    "source_id": "ChIJy8ccdC9egEcRJQueIiex_dg",
    "name": "La Zootecnica Fidenza - Amici Pet & Co. - Jump & Ride STORE by La Zootecnica Group S.p.A.",
    "category": "La Zootecnica Fidenza - Amici Pet & Co. - Jump & Ride STORE by La Zootecnica Group S.p.A.",
    "formatted_address": "4,2(185)",
    "phone_number": "+390524207373",
    "source_url": "https://www.google.com/maps/place/La+Zootecnica+Fidenza+-+Amici+Pet+%26+Co.+-+Jump+%26+Ride+STORE+by+La+Zootecnica+Group+S.p.A./data=!4m7!3m6!1s0x47805e2f741cc7cb:0xd8fdb127229e0b25!8m2!3d44.8528178!4d10.0705276!16s%2Fg%2F1tdyzt6z!19sChIJy8ccdC9egEcRJQueIiex_dg?authuser=0&hl=tr&rclk=1",
    "website_url": "",
    "rating_text": "4,2",
    "stars": null,
    "number_of_reviews": null,
    "price_level": "",
    "open_hours": "",
    "extraction_timestamp": "2025-06-07T16:09:28.427Z",
    "source_name": "google",
    "source_query": "Irrigation Equipment",
    "source_country": "IT",
    "country": "Italy",
    "state": "Emilia-Romagna",
    "city": "Fidenza"
  },
  {
    "source_id": "ChIJkyiCBiBegEcRRuUTkI-jzr4",
    "name": "Bertani S.p.a. - Showroom di Fidenza",
    "category": "Bertani S.p.a. - Showroom di Fidenza",
    "formatted_address": "4,7(48)",
    "phone_number": "+39052484086",
    "source_url": "https://www.google.com/maps/place/Bertani+S.p.a.+-+Showroom+di+Fidenza/data=!4m7!3m6!1s0x47805e2006822893:0xbecea38f9013e546!8m2!3d44.8553759!4d10.0710079!16s%2Fg%2F119vl426x!19sChIJkyiCBiBegEcRRuUTkI-jzr4?authuser=0&hl=tr&rclk=1",
    "website_url": "",
    "rating_text": "4,7",
    "stars": null,
    "number_of_reviews": null,
    "price_level": "",
    "open_hours": "",
    "extraction_timestamp": "2025-06-07T16:09:28.428Z",
    "source_name": "google",
    "source_query": "Irrigation Equipment",
    "source_country": "IT",
    "country": "Italy",
    "state": "Emilia-Romagna",
    "city": "Fidenza"
  },
  {
    "source_id": "ChIJG8KirHpegEcRVwyAGZyQUYk",
    "name": "Decathlon Fidenza",
    "category": "Decathlon Fidenza",
    "formatted_address": "4,2(2.212)",
    "phone_number": "+390524687943",
    "source_url": "https://www.google.com/maps/place/Decathlon+Fidenza/data=!4m7!3m6!1s0x47805e7aaca2c21b:0x8951909c19800c57!8m2!3d44.8810776!4d10.0930941!16s%2Fg%2F1hm4z2nxj!19sChIJG8KirHpegEcRVwyAGZyQUYk?authuser=0&hl=tr&rclk=1",
    "website_url": "",
    "rating_text": "4,2",
    "stars": null,
    "number_of_reviews": null,
    "price_level": "",
    "open_hours": "",
    "extraction_timestamp": "2025-06-07T16:09:28.431Z",
    "source_name": "google",
    "source_query": "Irrigation Equipment",
    "source_country": "IT",
    "country": "Italy",
    "state": "Emilia-Romagna",
    "city": "Fidenza"
  },
  {
    "source_id": "ChIJQakOJDBegEcRtRSnZrR-4MQ",
    "name": "OBI Fidenza",
    "category": "OBI Fidenza",
    "formatted_address": "4,0(1.459)",
    "phone_number": "+390524202911",
    "source_url": "https://www.google.com/maps/place/OBI+Fidenza/data=!4m7!3m6!1s0x47805e30240ea941:0xc4e07eb466a714b5!8m2!3d44.8836628!4d10.0885179!16s%2Fg%2F1tdp3x9x!19sChIJQakOJDBegEcRtRSnZrR-4MQ?authuser=0&hl=tr&rclk=1",
    "website_url": "",
    "rating_text": "4,0",
    "stars": null,
    "number_of_reviews": null,
    "price_level": "",
    "open_hours": "",
    "extraction_timestamp": "2025-06-07T16:09:28.432Z",
    "source_name": "google",
    "source_query": "Irrigation Equipment",
    "source_country": "IT",
    "country": "Italy",
    "state": "Emilia-Romagna",
    "city": "Fidenza"
  },
  {
    "source_id": "ChIJU47UQAJegEcRgte5t43pJv4",
    "name": "P.& P. Di Berzieri",
    "category": "P.& P. Di Berzieri",
    "formatted_address": "4,3(56)",
    "phone_number": "+390524530229",
    "source_url": "https://www.google.com/maps/place/P.%26+P.+Di+Berzieri/data=!4m7!3m6!1s0x47805e0240d48e53:0xfe26e98db7b9d782!8m2!3d44.8539484!4d10.0849249!16s%2Fg%2F1tczcrds!19sChIJU47UQAJegEcRgte5t43pJv4?authuser=0&hl=tr&rclk=1",
    "website_url": "",
    "rating_text": "4,3",
    "stars": null,
    "number_of_reviews": null,
    "price_level": "",
    "open_hours": "",
    "extraction_timestamp": "2025-06-07T16:09:28.433Z",
    "source_name": "google",
    "source_query": "Irrigation Equipment",
    "source_country": "IT",
    "country": "Italy",
    "state": "Emilia-Romagna",
    "city": "Fidenza"
  },
  {
    "source_id": "ChIJ87HqlBJegEcRx2c2whX0ie4",
    "name": "OMNIA srl",
    "category": "OMNIA srl",
    "formatted_address": "5,0(1)",
    "phone_number": "+390524527453",
    "source_url": "https://www.google.com/maps/place/OMNIA+srl/data=!4m7!3m6!1s0x47805e1294eab1f3:0xee89f415c23667c7!8m2!3d44.8712367!4d10.0851241!16s%2Fg%2F1tr9m8bv!19sChIJ87HqlBJegEcRx2c2whX0ie4?authuser=0&hl=tr&rclk=1",
    "website_url": "",
    "rating_text": "5,0",
    "stars": null,
    "number_of_reviews": null,
    "price_level": "",
    "open_hours": "",
    "extraction_timestamp": "2025-06-07T16:09:28.435Z",
    "source_name": "google",
    "source_query": "Irrigation Equipment",
    "source_country": "IT",
    "country": "Italy",
    "state": "Emilia-Romagna",
    "city": "Fidenza"
  },
  {
    "source_id": "ChIJZZEixzpegEcR-FGAOONZohk",
    "name": "Censi Ferramenta (S.N.C.)",
    "category": "Censi Ferramenta (S.N.C.)",
    "formatted_address": "4,3(50)",
    "phone_number": "+390524523448",
    "source_url": "https://www.google.com/maps/place/Censi+Ferramenta+%28S.N.C.%29/data=!4m7!3m6!1s0x47805e3ac7229165:0x19a259e3388051f8!8m2!3d44.8652577!4d10.0652029!16s%2Fg%2F1tdrw51w!19sChIJZZEixzpegEcR-FGAOONZohk?authuser=0&hl=tr&rclk=1",
    "website_url": "",
    "rating_text": "4,3",
    "stars": null,
    "number_of_reviews": null,
    "price_level": "",
    "open_hours": "",
    "extraction_timestamp": "2025-06-07T16:09:28.436Z",
    "source_name": "google",
    "source_query": "Irrigation Equipment",
    "source_country": "IT",
    "country": "Italy",
    "state": "Emilia-Romagna",
    "city": "Fidenza"
  },
  {
    "source_id": "ChIJM_LIi6NfgEcRsYBMmR34OVA",
    "name": "Nike Factory Store Fidenza",
    "category": "Nike Factory Store Fidenza",
    "formatted_address": "4,0(1.433)",
    "phone_number": "+390524201184",
    "source_url": "https://www.google.com/maps/place/Nike+Factory+Store+Fidenza/data=!4m7!3m6!1s0x47805fa38bc8f233:0x5039f81d994c80b1!8m2!3d44.8835502!4d10.0935789!16s%2Fg%2F11f9_1m9md!19sChIJM_LIi6NfgEcRsYBMmR34OVA?authuser=0&hl=tr&rclk=1",
    "website_url": "",
    "rating_text": "4,0",
    "stars": null,
    "number_of_reviews": null,
    "price_level": "",
    "open_hours": "",
    "extraction_timestamp": "2025-06-07T16:09:28.438Z",
    "source_name": "google",
    "source_query": "Irrigation Equipment",
    "source_country": "IT",
    "country": "Italy",
    "state": "Emilia-Romagna",
    "city": "Fidenza"
  },
  {
    "source_id": "ChIJJU_6obhfgEcRIxuYdtQy8ZY",
    "name": "Würth Store & MODYF Fidenza",
    "category": "Würth Store & MODYF Fidenza",
    "formatted_address": "Nalbur ·  · Via Pietro Rigoni, 8Kapalı ⋅ Açılış zamanı: Pzt 08:00 · +39 0471 828125",
    "phone_number": "+390471828125",
    "source_url": "https://www.google.com/maps/place/W%C3%BCrth+Store+%26+MODYF+Fidenza/data=!4m7!3m6!1s0x47805fb8a1fa4f25:0x96f132d476981b23!8m2!3d44.8538322!4d10.0846576!16s%2Fg%2F11sr1p0tt2!19sChIJJU_6obhfgEcRIxuYdtQy8ZY?authuser=0&hl=tr&rclk=1",
    "website_url": "",
    "rating_text": "",
    "stars": null,
    "number_of_reviews": null,
    "price_level": "",
    "open_hours": "",
    "extraction_timestamp": "2025-06-07T16:09:28.439Z",
    "source_name": "google",
    "source_query": "Irrigation Equipment",
    "source_country": "IT",
    "country": "Italy",
    "state": "Emilia-Romagna",
    "city": "Fidenza"
  },
  {
    "source_id": "ChIJYZVBMQVegEcRZ87o1Uy_VMk",
    "name": "Unieuro",
    "category": "Unieuro",
    "formatted_address": "4,2(309)",
    "phone_number": "+390524518611",
    "source_url": "https://www.google.com/maps/place/Unieuro/data=!4m7!3m6!1s0x47805e0531419561:0xc954bf4cd5e8ce67!8m2!3d44.8591308!4d10.0880374!16s%2Fg%2F11b7rn6qvh!19sChIJYZVBMQVegEcRZ87o1Uy_VMk?authuser=0&hl=tr&rclk=1",
    "website_url": "",
    "rating_text": "4,2",
    "stars": null,
    "number_of_reviews": null,
    "price_level": "",
    "open_hours": "",
    "extraction_timestamp": "2025-06-07T16:09:28.440Z",
    "source_name": "google",
    "source_query": "Irrigation Equipment",
    "source_country": "IT",
    "country": "Italy",
    "state": "Emilia-Romagna",
    "city": "Fidenza"
  },
  {
    "source_id": "ChIJYzWBTPlfgEcRpdbGeWU_xAs",
    "name": "Energy Saving S.R.L.",
    "category": "Energy Saving S.R.L.",
    "formatted_address": "5,0(5)",
    "phone_number": "+39052460211",
    "source_url": "https://www.google.com/maps/place/Energy+Saving+S.R.L./data=!4m7!3m6!1s0x47805ff94c813563:0xbc43f6579c6d6a5!8m2!3d44.8623212!4d10.0609306!16s%2Fg%2F1ptyb9n5z!19sChIJYzWBTPlfgEcRpdbGeWU_xAs?authuser=0&hl=tr&rclk=1",
    "website_url": "",
    "rating_text": "5,0",
    "stars": null,
    "number_of_reviews": null,
    "price_level": "",
    "open_hours": "",
    "extraction_timestamp": "2025-06-07T16:09:28.441Z",
    "source_name": "google",
    "source_query": "Irrigation Equipment",
    "source_country": "IT",
    "country": "Italy",
    "state": "Emilia-Romagna",
    "city": "Fidenza"
  },
  {
    "source_id": "ChIJj9OsVXxngEcRQf3AGwjJp7o",
    "name": "Massenza Drilling Rigs - Massenza Fu Giuseppe Impianti di Perforazione",
    "category": "Massenza Drilling Rigs - Massenza Fu Giuseppe Impianti di Perforazione",
    "formatted_address": "4,6(14)",
    "phone_number": "+390521825284",
    "source_url": "https://www.google.com/maps/place/Massenza+Drilling+Rigs+-+Massenza+Fu+Giuseppe+Impianti+di+Perforazione/data=!4m7!3m6!1s0x4780677c55acd38f:0xbaa7c9081bc0fd41!8m2!3d44.8514712!4d10.1184239!16s%2Fg%2F11b6hsyl5q!19sChIJj9OsVXxngEcRQf3AGwjJp7o?authuser=0&hl=tr&rclk=1",
    "website_url": "",
    "rating_text": "4,6",
    "stars": null,
    "number_of_reviews": null,
    "price_level": "",
    "open_hours": "",
    "extraction_timestamp": "2025-06-07T16:09:28.442Z",
    "source_name": "google",
    "source_query": "Irrigation Equipment",
    "source_country": "IT",
    "country": "Italy",
    "state": "Emilia-Romagna",
    "city": "Fidenza"
  },
  {
    "source_id": "ChIJfR4PnF5fgEcR7IP2Ui14SJA",
    "name": "dm Italia",
    "category": "dm Italia",
    "formatted_address": "4,4(233)",
    "phone_number": "+390524376414",
    "source_url": "https://www.google.com/maps/place/dm+Italia/data=!4m7!3m6!1s0x47805f5e9c0f1e7d:0x9048782d52f683ec!8m2!3d44.883697!4d10.086836!16s%2Fg%2F11h4w1kkz4!19sChIJfR4PnF5fgEcR7IP2Ui14SJA?authuser=0&hl=tr&rclk=1",
    "website_url": "",
    "rating_text": "4,4",
    "stars": null,
    "number_of_reviews": null,
    "price_level": "",
    "open_hours": "",
    "extraction_timestamp": "2025-06-07T16:09:28.443Z",
    "source_name": "google",
    "source_query": "Irrigation Equipment",
    "source_country": "IT",
    "country": "Italy",
    "state": "Emilia-Romagna",
    "city": "Fidenza"
  },
  {
    "source_id": "ChIJW6_4YAdrgEcRr9Ewwgwp5wM",
    "name": "Idraulica Emiliana S.p.A.",
    "category": "Idraulica Emiliana S.p.A.",
    "formatted_address": "4,4(15)",
    "phone_number": "+390521953311",
    "source_url": "https://www.google.com/maps/place/Idraulica+Emiliana+S.p.A./data=!4m7!3m6!1s0x47806b0760f8af5b:0x3e7290cc230d1af!8m2!3d44.7899429!4d10.3052022!16s%2Fg%2F11c6v98y5k!19sChIJW6_4YAdrgEcRr9Ewwgwp5wM?authuser=0&hl=tr&rclk=1",
    "website_url": "",
    "rating_text": "4,4",
    "stars": null,
    "number_of_reviews": null,
    "price_level": "",
    "open_hours": "",
    "extraction_timestamp": "2025-06-07T16:09:28.444Z",
    "source_name": "google",
    "source_query": "Irrigation Equipment",
    "source_country": "IT",
    "country": "Italy",
    "state": "Emilia-Romagna",
    "city": "Fidenza"
  },
  {
    "source_id": "ChIJvWESljtqgEcRyACWMGuoih0",
    "name": "Idro Verde",
    "category": "Idro Verde",
    "formatted_address": "Çim Yağmurlama Sistemi Yüklenicisi ·  · Via Emilia Ovest, 129Açık ⋅ Kapanış saati: 21:00 · +39 338 397 2503",
    "phone_number": "+393383972503",
    "source_url": "https://www.google.com/maps/place/Idro+Verde/data=!4m7!3m6!1s0x47806a3b961261bd:0x1d8aa86b309600c8!8m2!3d44.8113047!4d10.2811005!16s%2Fg%2F11c6y_k67v!19sChIJvWESljtqgEcRyACWMGuoih0?authuser=0&hl=tr&rclk=1",
    "website_url": "",
    "rating_text": "",
    "stars": null,
    "number_of_reviews": null,
    "price_level": "",
    "open_hours": "",
    "extraction_timestamp": "2025-06-07T16:09:28.445Z",
    "source_name": "google",
    "source_query": "Irrigation Equipment",
    "source_country": "IT",
    "country": "Italy",
    "state": "Emilia-Romagna",
    "city": "Fidenza"
  },
  {
    "source_id": "ChIJz8NcnDpegEcRL7lKCg-7gKw",
    "name": "Shunfa Market",
    "category": "Shunfa Market",
    "formatted_address": "4,3(3)",
    "phone_number": "+393661218881",
    "source_url": "https://www.google.com/maps/place/Shunfa+Market/data=!4m7!3m6!1s0x47805e3a9c5cc3cf:0xac80bb0f0a4ab92f!8m2!3d44.8661169!4d10.0641932!16s%2Fg%2F11f1rj3l47!19sChIJz8NcnDpegEcRL7lKCg-7gKw?authuser=0&hl=tr&rclk=1",
    "website_url": "",
    "rating_text": "4,3",
    "stars": null,
    "number_of_reviews": null,
    "price_level": "",
    "open_hours": "",
    "extraction_timestamp": "2025-06-07T16:09:28.446Z",
    "source_name": "google",
    "source_query": "Irrigation Equipment",
    "source_country": "IT",
    "country": "Italy",
    "state": "Emilia-Romagna",
    "city": "Fidenza"
  },
  {
    "source_id": "ChIJ1XScPDNegEcRxj98IBcPYUE",
    "name": "Pizzola Autoricambi",
    "category": "Pizzola Autoricambi",
    "formatted_address": "4,5(339)",
    "phone_number": "+390524522355",
    "source_url": "https://www.google.com/maps/place/Pizzola+Autoricambi/data=!4m7!3m6!1s0x47805e333c9c74d5:0x41610f17207c3fc6!8m2!3d44.8716193!4d10.0434133!16s%2Fg%2F11bc7p4fq3!19sChIJ1XScPDNegEcRxj98IBcPYUE?authuser=0&hl=tr&rclk=1",
    "website_url": "",
    "rating_text": "4,5",
    "stars": null,
    "number_of_reviews": null,
    "price_level": "",
    "open_hours": "",
    "extraction_timestamp": "2025-06-07T16:09:28.447Z",
    "source_name": "google",
    "source_query": "Irrigation Equipment",
    "source_country": "IT",
    "country": "Italy",
    "state": "Emilia-Romagna",
    "city": "Fidenza"
  },
  {
    "source_id": "ChIJ5VOwsRNggEcRLD_OmLG_Hrc",
    "name": "Idro Clima",
    "category": "Idro Clima",
    "formatted_address": "5,0(1)",
    "phone_number": "+390524523501",
    "source_url": "https://www.google.com/maps/place/Idro+Clima/data=!4m7!3m6!1s0x47806013b1b053e5:0xb71ebfb198ce3f2c!8m2!3d41.29085!4d12.71216!16s%2Fg%2F1ptvxswk5!19sChIJ5VOwsRNggEcRLD_OmLG_Hrc?authuser=0&hl=tr&rclk=1",
    "website_url": "",
    "rating_text": "5,0",
    "stars": null,
    "number_of_reviews": null,
    "price_level": "",
    "open_hours": "",
    "extraction_timestamp": "2025-06-07T16:09:28.448Z",
    "source_name": "google",
    "source_query": "Irrigation Equipment",
    "source_country": "IT",
    "country": "Italy",
    "state": "Emilia-Romagna",
    "city": "Fidenza"
  }
]
