[
  {
    "source_id": "ChIJI5VCPw-6f0cR6furgLurgBU",
    "name": "CIGAIMPIANTI GROUP Headquarters",
    "category": "CIGAIMPIANTI GROUP Headquarters",
    "formatted_address": "4,3(6)",
    "phone_number": "+39053593212",
    "source_url": "https://www.google.com/maps/place/CIGAIMPIANTI+GROUP+Headquarters/data=!4m7!3m6!1s0x477fba0f3f429523:0x1580abbb80abfbe9!8m2!3d44.82416!4d11.3023582!16s%2Fg%2F1tj5pl5l!19sChIJI5VCPw-6f0cR6furgLurgBU?authuser=0&hl=tr&rclk=1",
    "website_url": "http://www.cigaimpianti.it/",
    "rating_text": "4,3",
    "stars": null,
    "number_of_reviews": null,
    "price_level": "",
    "open_hours": "",
    "extraction_timestamp": "2025-06-07T16:50:18.150Z",
    "source_name": "google",
    "source_query": "Irrigation Equipment",
    "source_country": "IT",
    "country": "Italy",
    "state": "Emilia-Romagna",
    "city": "Finale Emilia"
  },
  {
    "source_id": "ChIJcQG6ul7df0cR3VxKiu5OPBs",
    "name": "Scova Impianti Srl",
    "category": "Scova Impianti Srl",
    "formatted_address": "4,5(64)",
    "phone_number": "+39059923202",
    "source_url": "https://www.google.com/maps/place/Scova+Impianti+Srl/data=!4m7!3m6!1s0x477fdd5ebaba0171:0x1b3c4eee8a4a5cdd!8m2!3d44.6018135!4d11.032294!16s%2Fg%2F1tfzwbfb!19sChIJcQG6ul7df0cR3VxKiu5OPBs?authuser=0&hl=tr&rclk=1",
    "website_url": "https://www.scovaimpianti.com/",
    "rating_text": "4,5",
    "stars": null,
    "number_of_reviews": null,
    "price_level": "",
    "open_hours": "",
    "extraction_timestamp": "2025-06-07T16:50:18.152Z",
    "source_name": "google",
    "source_query": "Irrigation Equipment",
    "source_country": "IT",
    "country": "Italy",
    "state": "Emilia-Romagna",
    "city": "Finale Emilia"
  },
  {
    "source_id": "ChIJa4UFUEG6f0cRZtrbZZSaURY",
    "name": "Cercolor Srl",
    "category": "Cercolor Srl",
    "formatted_address": "4,4(45)",
    "phone_number": "+39053590958",
    "source_url": "https://www.google.com/maps/place/Cercolor+Srl/data=!4m7!3m6!1s0x477fba415005856b:0x16519a9465dbda66!8m2!3d44.8284799!4d11.3023302!16s%2Fg%2F1tgjk407!19sChIJa4UFUEG6f0cRZtrbZZSaURY?authuser=0&hl=tr&rclk=1",
    "website_url": "https://www.cercatrovaonline.it/it/inserzione-ricerca/cercolor-srl",
    "rating_text": "4,4",
    "stars": null,
    "number_of_reviews": null,
    "price_level": "",
    "open_hours": "",
    "extraction_timestamp": "2025-06-07T16:50:18.154Z",
    "source_name": "google",
    "source_query": "Irrigation Equipment",
    "source_country": "IT",
    "country": "Italy",
    "state": "Emilia-Romagna",
    "city": "Finale Emilia"
  },
  {
    "source_id": "ChIJtVDkNgRFgEcRqc6umwWIJuI",
    "name": "Rm Spa",
    "category": "Rm Spa",
    "formatted_address": "4,6(81)",
    "phone_number": "+390521872321",
    "source_url": "https://www.google.com/maps/place/Rm+Spa/data=!4m7!3m6!1s0x4780450436e450b5:0xe22688059baecea9!8m2!3d44.9105406!4d10.2583785!16s%2Fg%2F12hl93byl!19sChIJtVDkNgRFgEcRqc6umwWIJuI?authuser=0&hl=tr&rclk=1",
    "website_url": "http://www.rmirrigation.com/",
    "rating_text": "4,6",
    "stars": null,
    "number_of_reviews": null,
    "price_level": "",
    "open_hours": "",
    "extraction_timestamp": "2025-06-07T16:50:18.156Z",
    "source_name": "google",
    "source_query": "Irrigation Equipment",
    "source_country": "IT",
    "country": "Italy",
    "state": "Emilia-Romagna",
    "city": "Finale Emilia"
  },
  {
    "source_id": "ChIJh3Nd8G0sfkcR_m7VewEmxXM",
    "name": "Irrigarden",
    "category": "Irrigarden",
    "formatted_address": "4,7(158)",
    "phone_number": "+39051782013",
    "source_url": "https://www.google.com/maps/place/Irrigarden/data=!4m7!3m6!1s0x477e2c6df05d7387:0x73c526017bd56efe!8m2!3d44.5096266!4d11.4390897!16s%2Fg%2F1vgw_l7w!19sChIJh3Nd8G0sfkcR_m7VewEmxXM?authuser=0&hl=tr&rclk=1",
    "website_url": "https://www.irrigarden-bo.it/",
    "rating_text": "4,7",
    "stars": null,
    "number_of_reviews": null,
    "price_level": "",
    "open_hours": "",
    "extraction_timestamp": "2025-06-07T16:50:18.157Z",
    "source_name": "google",
    "source_query": "Irrigation Equipment",
    "source_country": "IT",
    "country": "Italy",
    "state": "Emilia-Romagna",
    "city": "Finale Emilia"
  },
  {
    "source_id": "ChIJR0cLXhQkgEcRi9oI9GALzlg",
    "name": "IRRILAND",
    "category": "IRRILAND",
    "formatted_address": "4,0(4)",
    "phone_number": "+390522831544",
    "source_url": "https://www.google.com/maps/place/IRRILAND/data=!4m7!3m6!1s0x478024145e0b4747:0x58ce0b60f408da8b!8m2!3d44.891987!4d10.650983!16s%2Fg%2F1tczjb0h!19sChIJR0cLXhQkgEcRi9oI9GALzlg?authuser=0&hl=tr&rclk=1",
    "website_url": "http://www.irriland.it/",
    "rating_text": "4,0",
    "stars": null,
    "number_of_reviews": null,
    "price_level": "",
    "open_hours": "",
    "extraction_timestamp": "2025-06-07T16:50:18.159Z",
    "source_name": "google",
    "source_query": "Irrigation Equipment",
    "source_country": "IT",
    "country": "Italy",
    "state": "Emilia-Romagna",
    "city": "Finale Emilia"
  },
  {
    "source_id": "ChIJJ6V6lMDgf0cR1SpFsfjDuHg",
    "name": "Ocmis Irrigazione Spa",
    "category": "Ocmis Irrigazione Spa",
    "formatted_address": "3,5(31)",
    "phone_number": "+39059702150",
    "source_url": "https://www.google.com/maps/place/Ocmis+Irrigazione+Spa/data=!4m7!3m6!1s0x477fe0c0947aa527:0x78b8c3f8b1452ad5!8m2!3d44.530494!4d10.9794578!16s%2Fg%2F1vd3tn19!19sChIJJ6V6lMDgf0cR1SpFsfjDuHg?authuser=0&hl=tr&rclk=1",
    "website_url": "http://www.ocmis-irrigazione.it/",
    "rating_text": "3,5",
    "stars": null,
    "number_of_reviews": null,
    "price_level": "",
    "open_hours": "",
    "extraction_timestamp": "2025-06-07T16:50:18.160Z",
    "source_name": "google",
    "source_query": "Irrigation Equipment",
    "source_country": "IT",
    "country": "Italy",
    "state": "Emilia-Romagna",
    "city": "Finale Emilia"
  },
  {
    "source_id": "ChIJQyDw8N_0f0cRhE_m36C06SU",
    "name": "Irrigreen",
    "category": "Irrigreen",
    "formatted_address": "4,3(3)",
    "phone_number": "+390522642318",
    "source_url": "https://www.google.com/maps/place/Irrigreen/data=!4m7!3m6!1s0x477ff4dff0f02043:0x25e9b4a0dfe64f84!8m2!3d45.1836109!4d10.6267461!16s%2Fg%2F1tddwm9t!19sChIJQyDw8N_0f0cRhE_m36C06SU?authuser=0&hl=tr&rclk=1",
    "website_url": "http://www.irrigreen.it/",
    "rating_text": "4,3",
    "stars": null,
    "number_of_reviews": null,
    "price_level": "",
    "open_hours": "",
    "extraction_timestamp": "2025-06-07T16:50:18.162Z",
    "source_name": "google",
    "source_query": "Irrigation Equipment",
    "source_country": "IT",
    "country": "Italy",
    "state": "Emilia-Romagna",
    "city": "Finale Emilia"
  },
  {
    "source_id": "ChIJFyEvQDW7f0cRgZijlKsjjDE",
    "name": "Depuratore di finale",
    "category": "Depuratore di finale",
    "formatted_address": "5,0(1)",
    "phone_number": "",
    "source_url": "https://www.google.com/maps/place/Depuratore+di+finale/data=!4m7!3m6!1s0x477fbb35402f2117:0x318c23ab94a39881!8m2!3d44.8290244!4d11.3000001!16s%2Fg%2F11l3hx300d!19sChIJFyEvQDW7f0cRgZijlKsjjDE?authuser=0&hl=tr&rclk=1",
    "website_url": "",
    "rating_text": "5,0",
    "stars": null,
    "number_of_reviews": null,
    "price_level": "",
    "open_hours": "",
    "extraction_timestamp": "2025-06-07T16:50:18.163Z",
    "source_name": "google",
    "source_query": "Irrigation Equipment",
    "source_country": "IT",
    "country": "Italy",
    "state": "Emilia-Romagna",
    "city": "Finale Emilia"
  },
  {
    "source_id": "ChIJv29yzWq7f0cRA75Vzb19dEc",
    "name": "La Bottega del Fuoco",
    "category": "La Bottega del Fuoco",
    "formatted_address": "4,9(56)",
    "phone_number": "+393279140664",
    "source_url": "https://www.google.com/maps/place/La+Bottega+del+Fuoco/data=!4m7!3m6!1s0x477fbb6acd726fbf:0x47747dbdcd55be03!8m2!3d44.8349394!4d11.2902061!16s%2Fg%2F11r91tlj2p!19sChIJv29yzWq7f0cRA75Vzb19dEc?authuser=0&hl=tr&rclk=1",
    "website_url": "http://www.labottegadelfuoco.com/",
    "rating_text": "4,9",
    "stars": null,
    "number_of_reviews": null,
    "price_level": "",
    "open_hours": "",
    "extraction_timestamp": "2025-06-07T16:50:18.164Z",
    "source_name": "google",
    "source_query": "Irrigation Equipment",
    "source_country": "IT",
    "country": "Italy",
    "state": "Emilia-Romagna",
    "city": "Finale Emilia"
  },
  {
    "source_id": "ChIJ_SYf2IMsfkcRVw9xVhrnjyI",
    "name": "Irrigazione Bragaglia",
    "category": "Irrigazione Bragaglia",
    "formatted_address": "4,7(30)",
    "phone_number": "+39051534865",
    "source_url": "https://www.google.com/maps/place/Irrigazione+Bragaglia/data=!4m7!3m6!1s0x477e2c83d81f26fd:0x228fe71a56710f57!8m2!3d44.5053735!4d11.412403!16s%2Fg%2F1vp6z0gf!19sChIJ_SYf2IMsfkcRVw9xVhrnjyI?authuser=0&hl=tr&rclk=1",
    "website_url": "http://www.irrigazionebragaglia.it/",
    "rating_text": "4,7",
    "stars": null,
    "number_of_reviews": null,
    "price_level": "",
    "open_hours": "",
    "extraction_timestamp": "2025-06-07T16:50:18.165Z",
    "source_name": "google",
    "source_query": "Irrigation Equipment",
    "source_country": "IT",
    "country": "Italy",
    "state": "Emilia-Romagna",
    "city": "Finale Emilia"
  },
  {
    "source_id": "ChIJa9O0IAC7f0cRIvIcxlfFhus",
    "name": "Ferramenta Tassi Hobbistica e Antinfortunistica",
    "category": "Ferramenta Tassi Hobbistica e Antinfortunistica",
    "formatted_address": "5,0(32)",
    "phone_number": "+390535760265",
    "source_url": "https://www.google.com/maps/place/Ferramenta+Tassi+Hobbistica+e+Antinfortunistica/data=!4m7!3m6!1s0x477fbb0020b4d36b:0xeb86c557c61cf222!8m2!3d44.8366374!4d11.2923766!16s%2Fg%2F11x055qyry!19sChIJa9O0IAC7f0cRIvIcxlfFhus?authuser=0&hl=tr&rclk=1",
    "website_url": "",
    "rating_text": "5,0",
    "stars": null,
    "number_of_reviews": null,
    "price_level": "",
    "open_hours": "",
    "extraction_timestamp": "2025-06-07T16:50:18.166Z",
    "source_name": "google",
    "source_query": "Irrigation Equipment",
    "source_country": "IT",
    "country": "Italy",
    "state": "Emilia-Romagna",
    "city": "Finale Emilia"
  },
  {
    "source_id": "ChIJnWYKfg66f0cRKtpTw8hPcOM",
    "name": "A.B.C. Impianti Snc Di Boetti Alberto",
    "category": "A.B.C. Impianti Snc Di Boetti Alberto",
    "formatted_address": "5,0(1)",
    "phone_number": "+39053593008",
    "source_url": "https://www.google.com/maps/place/A.B.C.+Impianti+Snc+Di+Boetti+Alberto/data=!4m7!3m6!1s0x477fba0e7e0a669d:0xe3704fc8c353da2a!8m2!3d44.8324565!4d11.2864311!16s%2Fg%2F1tfxfjgg!19sChIJnWYKfg66f0cRKtpTw8hPcOM?authuser=0&hl=tr&rclk=1",
    "website_url": "",
    "rating_text": "5,0",
    "stars": null,
    "number_of_reviews": null,
    "price_level": "",
    "open_hours": "",
    "extraction_timestamp": "2025-06-07T16:50:18.168Z",
    "source_name": "google",
    "source_query": "Irrigation Equipment",
    "source_country": "IT",
    "country": "Italy",
    "state": "Emilia-Romagna",
    "city": "Finale Emilia"
  },
  {
    "source_id": "ChIJt_uCr5y7f0cRTQWAJnwvwMg",
    "name": "Idraulica assistenza Stufe a Pellet Guidetti Andrea",
    "category": "Idraulica assistenza Stufe a Pellet Guidetti Andrea",
    "formatted_address": "4,9(16)",
    "phone_number": "+39053591716",
    "source_url": "https://www.google.com/maps/place/Idraulica+assistenza+Stufe+a+Pellet+Guidetti+Andrea/data=!4m7!3m6!1s0x477fbb9caf82fbb7:0xc8c02f7c2680054d!8m2!3d44.830941!4d11.2985351!16s%2Fg%2F11jflj6m_8!19sChIJt_uCr5y7f0cRTQWAJnwvwMg?authuser=0&hl=tr&rclk=1",
    "website_url": "",
    "rating_text": "4,9",
    "stars": null,
    "number_of_reviews": null,
    "price_level": "",
    "open_hours": "",
    "extraction_timestamp": "2025-06-07T16:50:18.169Z",
    "source_name": "google",
    "source_query": "Irrigation Equipment",
    "source_country": "IT",
    "country": "Italy",
    "state": "Emilia-Romagna",
    "city": "Finale Emilia"
  },
  {
    "source_id": "ChIJy805WcDcgEcRtmGWlwosXQc",
    "name": "IRRIMEC SRL",
    "category": "IRRIMEC SRL",
    "formatted_address": "4,5(90)",
    "phone_number": "+390523760441",
    "source_url": "https://www.google.com/maps/place/IRRIMEC+SRL/data=!4m7!3m6!1s0x4780dcc05939cdcb:0x75d2c0a979661b6!8m2!3d45.0612353!4d9.630829!16s%2Fg%2F1tdgt7d_!19sChIJy805WcDcgEcRtmGWlwosXQc?authuser=0&hl=tr&rclk=1",
    "website_url": "http://www.irrimec.com/",
    "rating_text": "4,5",
    "stars": null,
    "number_of_reviews": null,
    "price_level": "",
    "open_hours": "",
    "extraction_timestamp": "2025-06-07T16:50:18.170Z",
    "source_name": "google",
    "source_query": "Irrigation Equipment",
    "source_country": "IT",
    "country": "Italy",
    "state": "Emilia-Romagna",
    "city": "Finale Emilia"
  },
  {
    "source_id": "ChIJb7e4bu67f0cRopdJBtj5bJM",
    "name": "Il Ciapinaro di Alberghini Andrea",
    "category": "Il Ciapinaro di Alberghini Andrea",
    "formatted_address": "5,0(1)",
    "phone_number": "+393294426840",
    "source_url": "https://www.google.com/maps/place/Il+Ciapinaro+di+Alberghini+Andrea/data=!4m7!3m6!1s0x477fbbee6eb8b76f:0x936cf9d8064997a2!8m2!3d44.8289061!4d11.2942021!16s%2Fg%2F11gwgc0fnr!19sChIJb7e4bu67f0cRopdJBtj5bJM?authuser=0&hl=tr&rclk=1",
    "website_url": "",
    "rating_text": "5,0",
    "stars": null,
    "number_of_reviews": null,
    "price_level": "",
    "open_hours": "",
    "extraction_timestamp": "2025-06-07T16:50:18.172Z",
    "source_name": "google",
    "source_query": "Irrigation Equipment",
    "source_country": "IT",
    "country": "Italy",
    "state": "Emilia-Romagna",
    "city": "Finale Emilia"
  },
  {
    "source_id": "ChIJn4Hr8RK6f0cRKOylWEl6QqU",
    "name": "Tigotà",
    "category": "Tigotà",
    "formatted_address": "4,3(462)",
    "phone_number": "+39053591185",
    "source_url": "https://www.google.com/maps/place/Tigot%C3%A0/data=!4m7!3m6!1s0x477fba12f1eb819f:0xa5427a4958a5ec28!8m2!3d44.8308828!4d11.2981461!16s%2Fg%2F11g9gjtm38!19sChIJn4Hr8RK6f0cRKOylWEl6QqU?authuser=0&hl=tr&rclk=1",
    "website_url": "https://www.tigota.it/negozi/014968?utm_source=google&utm_medium=GMBSitelink&utm_campaign=GMBSitelink_Finale_Emilia_14968",
    "rating_text": "4,3",
    "stars": null,
    "number_of_reviews": null,
    "price_level": "",
    "open_hours": "",
    "extraction_timestamp": "2025-06-07T16:50:18.173Z",
    "source_name": "google",
    "source_query": "Irrigation Equipment",
    "source_country": "IT",
    "country": "Italy",
    "state": "Emilia-Romagna",
    "city": "Finale Emilia"
  },
  {
    "source_id": "ChIJ4z8mBEa6f0cRZAGiEnkfbE4",
    "name": "Tecnoclima Srl",
    "category": "Tecnoclima Srl",
    "formatted_address": "3,3(19)",
    "phone_number": "+39053591218",
    "source_url": "https://www.google.com/maps/place/Tecnoclima+Srl/data=!4m7!3m6!1s0x477fba4604263fe3:0x4e6c1f7912a20164!8m2!3d44.839105!4d11.2781619!16s%2Fg%2F12hm0s5kd!19sChIJ4z8mBEa6f0cRZAGiEnkfbE4?authuser=0&hl=tr&rclk=1",
    "website_url": "",
    "rating_text": "3,3",
    "stars": null,
    "number_of_reviews": null,
    "price_level": "",
    "open_hours": "",
    "extraction_timestamp": "2025-06-07T16:50:18.174Z",
    "source_name": "google",
    "source_query": "Irrigation Equipment",
    "source_country": "IT",
    "country": "Italy",
    "state": "Emilia-Romagna",
    "city": "Finale Emilia"
  },
  {
    "source_id": "ChIJ-arxwdPWgUcRmXWoftdyjYg",
    "name": "Pioggia Carnevali",
    "category": "Pioggia Carnevali",
    "formatted_address": "4,8(22)",
    "phone_number": "+390376398151",
    "source_url": "https://www.google.com/maps/place/Pioggia+Carnevali/data=!4m7!3m6!1s0x4781d6d3c1f1aaf9:0x888d72d77ea87599!8m2!3d45.1985116!4d10.7916482!16s%2Fg%2F1hc1z5fv1!19sChIJ-arxwdPWgUcRmXWoftdyjYg?authuser=0&hl=tr&rclk=1",
    "website_url": "http://www.pioggiacarnevali.com/",
    "rating_text": "4,8",
    "stars": null,
    "number_of_reviews": null,
    "price_level": "",
    "open_hours": "",
    "extraction_timestamp": "2025-06-07T16:50:18.175Z",
    "source_name": "google",
    "source_query": "Irrigation Equipment",
    "source_country": "IT",
    "country": "Italy",
    "state": "Emilia-Romagna",
    "city": "Finale Emilia"
  },
  {
    "source_id": "ChIJ-Z_RHvbnf0cRry0jCm7Q5GQ",
    "name": "Scova Impianti",
    "category": "Scova Impianti",
    "formatted_address": "4,0(4)",
    "phone_number": "+39059925910",
    "source_url": "https://www.google.com/maps/place/Scova+Impianti/data=!4m7!3m6!1s0x477fe7f61ed19ff9:0x64e4d06e0a232daf!8m2!3d44.6018937!4d11.0315223!16s%2Fg%2F1td6wznv!19sChIJ-Z_RHvbnf0cRry0jCm7Q5GQ?authuser=0&hl=tr&rclk=1",
    "website_url": "https://scovaimpianti.com/",
    "rating_text": "4,0",
    "stars": null,
    "number_of_reviews": null,
    "price_level": "",
    "open_hours": "",
    "extraction_timestamp": "2025-06-07T16:50:18.176Z",
    "source_name": "google",
    "source_query": "Irrigation Equipment",
    "source_country": "IT",
    "country": "Italy",
    "state": "Emilia-Romagna",
    "city": "Finale Emilia"
  },
  {
    "source_id": "ChIJtbN9A-8rgEcRVZtaRSESNOU",
    "name": "Perazzi Irrigatori",
    "category": "Perazzi Irrigatori",
    "formatted_address": "5,0(1)",
    "phone_number": "+390376535952",
    "source_url": "https://www.google.com/maps/place/Perazzi+Irrigatori/data=!4m7!3m6!1s0x47802bef037db3b5:0xe5341221455a9b55!8m2!3d44.9841775!4d10.7699573!16s%2Fg%2F1vd74s01!19sChIJtbN9A-8rgEcRVZtaRSESNOU?authuser=0&hl=tr&rclk=1",
    "website_url": "http://www.gedanken-italia.com/",
    "rating_text": "5,0",
    "stars": null,
    "number_of_reviews": null,
    "price_level": "",
    "open_hours": "",
    "extraction_timestamp": "2025-06-07T16:50:18.177Z",
    "source_name": "google",
    "source_query": "Irrigation Equipment",
    "source_country": "IT",
    "country": "Italy",
    "state": "Emilia-Romagna",
    "city": "Finale Emilia"
  },
  {
    "source_id": "ChIJi4SteyvBgUcRWJDLSb2DZBM",
    "name": "Aqua Verde Srl",
    "category": "Aqua Verde Srl",
    "formatted_address": "5,0(11)",
    "phone_number": "+390376804122",
    "source_url": "https://www.google.com/maps/place/Aqua+Verde+Srl/data=!4m7!3m6!1s0x4781c12b7bad848b:0x136483bd49cb9058!8m2!3d45.3361772!4d10.6060539!16s%2Fg%2F1tdhcwh_!19sChIJi4SteyvBgUcRWJDLSb2DZBM?authuser=0&hl=tr&rclk=1",
    "website_url": "http://www.aquaverde.it/",
    "rating_text": "5,0",
    "stars": null,
    "number_of_reviews": null,
    "price_level": "",
    "open_hours": "",
    "extraction_timestamp": "2025-06-07T16:50:18.178Z",
    "source_name": "google",
    "source_query": "Irrigation Equipment",
    "source_country": "IT",
    "country": "Italy",
    "state": "Emilia-Romagna",
    "city": "Finale Emilia"
  },
  {
    "source_id": "ChIJJ6V6lMDgf0cRkL2jf5B3MwQ",
    "name": "Scova Engineering Spa",
    "category": "Scova Engineering Spa",
    "formatted_address": "5,0(2)",
    "phone_number": "+39059702012",
    "source_url": "https://www.google.com/maps/place/Scova+Engineering+Spa/data=!4m7!3m6!1s0x477fe0c0947aa527:0x43377907fa3bd90!8m2!3d44.5304758!4d10.9796265!16s%2Fg%2F1tql3mky!19sChIJJ6V6lMDgf0cRkL2jf5B3MwQ?authuser=0&hl=tr&rclk=1",
    "website_url": "https://www.scova-engineering.it/",
    "rating_text": "5,0",
    "stars": null,
    "number_of_reviews": null,
    "price_level": "",
    "open_hours": "",
    "extraction_timestamp": "2025-06-07T16:50:18.180Z",
    "source_name": "google",
    "source_query": "Irrigation Equipment",
    "source_country": "IT",
    "country": "Italy",
    "state": "Emilia-Romagna",
    "city": "Finale Emilia"
  },
  {
    "source_id": "ChIJAVr-Xvhgf0cR7OUJWuxhk10",
    "name": "Bonatti Irrigazioni",
    "category": "Bonatti Irrigazioni",
    "formatted_address": "4,9(56)",
    "phone_number": "+390456661486",
    "source_url": "https://www.google.com/maps/place/Bonatti+Irrigazioni/data=!4m7!3m6!1s0x477f60f85efe5a01:0x5d9361ec5a09e5ec!8m2!3d45.333756!4d10.988534!16s%2Fg%2F1v2yxqld!19sChIJAVr-Xvhgf0cR7OUJWuxhk10?authuser=0&hl=tr&rclk=1",
    "website_url": "https://www.bonattiirrigazioni.it/",
    "rating_text": "4,9",
    "stars": null,
    "number_of_reviews": null,
    "price_level": "",
    "open_hours": "",
    "extraction_timestamp": "2025-06-07T16:50:18.181Z",
    "source_name": "google",
    "source_query": "Irrigation Equipment",
    "source_country": "IT",
    "country": "Italy",
    "state": "Emilia-Romagna",
    "city": "Finale Emilia"
  },
  {
    "source_id": "ChIJCdemP1a3f0cRPMl4lGeSCLI",
    "name": "Pianeta Acqua",
    "category": "Pianeta Acqua",
    "formatted_address": "5,0(1)",
    "phone_number": "+390510549799",
    "source_url": "https://www.google.com/maps/place/Pianeta+Acqua/data=!4m7!3m6!1s0x477fb7563fa6d709:0xb20892679478c93c!8m2!3d44.7409448!4d11.2994357!16s%2Fg%2F11h3l0gzc4!19sChIJCdemP1a3f0cRPMl4lGeSCLI?authuser=0&hl=tr&rclk=1",
    "website_url": "http://www.pianetaacquasrl.it/",
    "rating_text": "5,0",
    "stars": null,
    "number_of_reviews": null,
    "price_level": "",
    "open_hours": "",
    "extraction_timestamp": "2025-06-07T16:50:18.182Z",
    "source_name": "google",
    "source_query": "Irrigation Equipment",
    "source_country": "IT",
    "country": "Italy",
    "state": "Emilia-Romagna",
    "city": "Finale Emilia"
  },
  {
    "source_id": "ChIJUd7ZFUuzgUcR_p2zcgFHjpQ",
    "name": "Valentini Petstore",
    "category": "Valentini Petstore",
    "formatted_address": "4,7(90)",
    "phone_number": "+393397993909",
    "source_url": "https://www.google.com/maps/place/Valentini+Petstore/data=!4m7!3m6!1s0x4781b34b15d9de51:0x948e470172b39dfe!8m2!3d45.1313093!4d10.3630961!16s%2Fg%2F1tdvt55j!19sChIJUd7ZFUuzgUcR_p2zcgFHjpQ?authuser=0&hl=tr&rclk=1",
    "website_url": "http://www.valentinipetstore.com/",
    "rating_text": "4,7",
    "stars": null,
    "number_of_reviews": null,
    "price_level": "",
    "open_hours": "",
    "extraction_timestamp": "2025-06-07T16:50:18.184Z",
    "source_name": "google",
    "source_query": "Irrigation Equipment",
    "source_country": "IT",
    "country": "Italy",
    "state": "Emilia-Romagna",
    "city": "Finale Emilia"
  },
  {
    "source_id": "ChIJhQBF-GhIfkcRFZ34l9qDsN0",
    "name": "Baraldi Leonardo",
    "category": "Baraldi Leonardo",
    "formatted_address": "5,0(1)",
    "phone_number": "+390532722654",
    "source_url": "https://www.google.com/maps/place/Baraldi+Leonardo/data=!4m7!3m6!1s0x477e4868f8450085:0xddb083da97f89d15!8m2!3d44.73549!4d11.64391!16s%2Fg%2F1hc1pgtmd!19sChIJhQBF-GhIfkcRFZ34l9qDsN0?authuser=0&hl=tr&rclk=1",
    "website_url": "",
    "rating_text": "5,0",
    "stars": null,
    "number_of_reviews": null,
    "price_level": "",
    "open_hours": "",
    "extraction_timestamp": "2025-06-07T16:50:18.184Z",
    "source_name": "google",
    "source_query": "Irrigation Equipment",
    "source_country": "IT",
    "country": "Italy",
    "state": "Emilia-Romagna",
    "city": "Finale Emilia"
  },
  {
    "source_id": "ChIJP9oEjXK6f0cRYpxyXcf4NUY",
    "name": "Automatic System di Dallolio Fabrizio & C. s.a.s.",
    "category": "Automatic System di Dallolio Fabrizio & C. s.a.s.",
    "formatted_address": "4,8(18)",
    "phone_number": "+390535780090",
    "source_url": "https://www.google.com/maps/place/Automatic+System+di+Dallolio+Fabrizio+%26+C.+s.a.s./data=!4m7!3m6!1s0x477fba728d04da3f:0x4635f8c75d729c62!8m2!3d44.8340962!4d11.3027242!16s%2Fg%2F1tffn5rz!19sChIJP9oEjXK6f0cRYpxyXcf4NUY?authuser=0&hl=tr&rclk=1",
    "website_url": "",
    "rating_text": "4,8",
    "stars": null,
    "number_of_reviews": null,
    "price_level": "",
    "open_hours": "",
    "extraction_timestamp": "2025-06-07T16:50:18.186Z",
    "source_name": "google",
    "source_query": "Irrigation Equipment",
    "source_country": "IT",
    "country": "Italy",
    "state": "Emilia-Romagna",
    "city": "Finale Emilia"
  },
  {
    "source_id": "ChIJ0VNlJROXf0cRawSw3h0WMtU",
    "name": "Idromarket Srl",
    "category": "Idromarket Srl",
    "formatted_address": "4,5(132)",
    "phone_number": "+390535610490",
    "source_url": "https://www.google.com/maps/place/Idromarket+Srl/data=!4m7!3m6!1s0x477f9713256553d1:0xd532161ddeb0046b!8m2!3d44.8739092!4d11.0680834!16s%2Fg%2F1tql3mhn!19sChIJ0VNlJROXf0cRawSw3h0WMtU?authuser=0&hl=tr&rclk=1",
    "website_url": "https://idromarket.com/",
    "rating_text": "4,5",
    "stars": null,
    "number_of_reviews": null,
    "price_level": "",
    "open_hours": "",
    "extraction_timestamp": "2025-06-07T16:50:18.187Z",
    "source_name": "google",
    "source_query": "Irrigation Equipment",
    "source_country": "IT",
    "country": "Italy",
    "state": "Emilia-Romagna",
    "city": "Finale Emilia"
  },
  {
    "source_id": "ChIJP-CISQ3-gEcRXwl1yi9NW2Q",
    "name": "SIIP - Società Impianti di irrigazione a pioggia",
    "category": "SIIP - Società Impianti di irrigazione a pioggia",
    "formatted_address": "5,0(2)",
    "phone_number": "+393356863605",
    "source_url": "https://www.google.com/maps/place/SIIP+-+Societ%C3%A0+Impianti+di+irrigazione+a+pioggia/data=!4m7!3m6!1s0x4780fe0d4988e03f:0x645b4d2fca75095f!8m2!3d45.1417827!4d10.0200624!16s%2Fg%2F1vqtfn9y!19sChIJP-CISQ3-gEcRXwl1yi9NW2Q?authuser=0&hl=tr&rclk=1",
    "website_url": "https://www.impiantiirrigazionicremona.com/",
    "rating_text": "5,0",
    "stars": null,
    "number_of_reviews": null,
    "price_level": "",
    "open_hours": "",
    "extraction_timestamp": "2025-06-07T16:50:18.188Z",
    "source_name": "google",
    "source_query": "Irrigation Equipment",
    "source_country": "IT",
    "country": "Italy",
    "state": "Emilia-Romagna",
    "city": "Finale Emilia"
  }
]
