[
  {
    "source_id": "ChIJHalA8sf8f0cRSJdBt5XR5ns",
    "name": "Lazzaretti Giovanni Snc di Scorzoni Giuliano & Pini Francesca",
    "category": "Lazzaretti Giovanni Snc di Scorzoni Giuliano & Pini Francesca",
    "formatted_address": "4,6(54)",
    "phone_number": "+390536830118",
    "source_url": "https://www.google.com/maps/place/Lazzaretti+Giovanni+Snc+di+Scorzoni+Giuliano+%26+Pini+Francesca/data=!4m7!3m6!1s0x477ffcc7f240a91d:0x7be6d195b7419748!8m2!3d44.5522158!4d10.8064512!16s%2Fg%2F1thnmmq2!19sChIJHalA8sf8f0cRSJdBt5XR5ns?authuser=0&hl=tr&rclk=1",
    "website_url": "",
    "rating_text": "4,6",
    "stars": null,
    "number_of_reviews": null,
    "price_level": "",
    "open_hours": "",
    "extraction_timestamp": "2025-06-07T16:33:41.252Z",
    "source_name": "google",
    "source_query": "Irrigation Equipment",
    "source_country": "IT",
    "country": "Italy",
    "state": "Emilia-Romagna",
    "city": "Fiorano"
  },
  {
    "source_id": "ChIJu07AB0rif0cRnS0vXUM4l0M",
    "name": "IDROPLAST",
    "category": "IDROPLAST",
    "formatted_address": "4,1(66)",
    "phone_number": "+390536946864",
    "source_url": "https://www.google.com/maps/place/IDROPLAST/data=!4m7!3m6!1s0x477fe24a07c04ebb:0x439738435d2f2d9d!8m2!3d44.5278928!4d10.8902028!16s%2Fg%2F11b6jh694_!19sChIJu07AB0rif0cRnS0vXUM4l0M?authuser=0&hl=tr&rclk=1",
    "website_url": "",
    "rating_text": "4,1",
    "stars": null,
    "number_of_reviews": null,
    "price_level": "",
    "open_hours": "",
    "extraction_timestamp": "2025-06-07T16:33:41.254Z",
    "source_name": "google",
    "source_query": "Irrigation Equipment",
    "source_country": "IT",
    "country": "Italy",
    "state": "Emilia-Romagna",
    "city": "Fiorano"
  },
  {
    "source_id": "ChIJdcngsYX8f0cRkHWyPwrTFZ0",
    "name": "Roli D. Srl macchine ed attrezzature per giardinaggio",
    "category": "Roli D. Srl macchine ed attrezzature per giardinaggio",
    "formatted_address": "4,7(86)",
    "phone_number": "+390536905649",
    "source_url": "https://www.google.com/maps/place/Roli+D.+Srl+macchine+ed+attrezzature+per+giardinaggio/data=!4m7!3m6!1s0x477ffc85b1e0c975:0x9d15d30a3fb27590!8m2!3d44.5520248!4d10.8138408!16s%2Fg%2F11b6hx_rq7!19sChIJdcngsYX8f0cRkHWyPwrTFZ0?authuser=0&hl=tr&rclk=1",
    "website_url": "",
    "rating_text": "4,7",
    "stars": null,
    "number_of_reviews": null,
    "price_level": "",
    "open_hours": "",
    "extraction_timestamp": "2025-06-07T16:33:41.255Z",
    "source_name": "google",
    "source_query": "Irrigation Equipment",
    "source_country": "IT",
    "country": "Italy",
    "state": "Emilia-Romagna",
    "city": "Fiorano"
  },
  {
    "source_id": "ChIJs29sE3Pjf0cRQykUVUXAUC4",
    "name": "Adesital S.P.A.",
    "category": "Adesital S.P.A.",
    "formatted_address": "4,7(10)",
    "phone_number": "+390536927511",
    "source_url": "https://www.google.com/maps/place/Adesital+S.P.A./data=!4m7!3m6!1s0x477fe373136c6fb3:0x2e50c04555142943!8m2!3d44.5397414!4d10.8591898!16s%2Fg%2F1tj499w9!19sChIJs29sE3Pjf0cRQykUVUXAUC4?authuser=0&hl=tr&rclk=1",
    "website_url": "",
    "rating_text": "4,7",
    "stars": null,
    "number_of_reviews": null,
    "price_level": "",
    "open_hours": "",
    "extraction_timestamp": "2025-06-07T16:33:41.256Z",
    "source_name": "google",
    "source_query": "Irrigation Equipment",
    "source_country": "IT",
    "country": "Italy",
    "state": "Emilia-Romagna",
    "city": "Fiorano"
  },
  {
    "source_id": "ChIJqww04MP8f0cRBPrbKR4_9cw",
    "name": "Tecnoagricola Fiorano",
    "category": "Tecnoagricola Fiorano",
    "formatted_address": "4,5(285)",
    "phone_number": "+390536805806",
    "source_url": "https://www.google.com/maps/place/Tecnoagricola+Fiorano/data=!4m7!3m6!1s0x477ffcc3e0340cab:0xccf53f1e29dbfa04!8m2!3d44.5390441!4d10.8009076!16s%2Fg%2F11d_7st142!19sChIJqww04MP8f0cRBPrbKR4_9cw?authuser=0&hl=tr&rclk=1",
    "website_url": "",
    "rating_text": "4,5",
    "stars": null,
    "number_of_reviews": null,
    "price_level": "",
    "open_hours": "",
    "extraction_timestamp": "2025-06-07T16:33:41.257Z",
    "source_name": "google",
    "source_query": "Irrigation Equipment",
    "source_country": "IT",
    "country": "Italy",
    "state": "Emilia-Romagna",
    "city": "Fiorano"
  },
  {
    "source_id": "ChIJcQG6ul7df0cR3VxKiu5OPBs",
    "name": "Scova Impianti Srl",
    "category": "Scova Impianti Srl",
    "formatted_address": "4,5(64)",
    "phone_number": "+39059923202",
    "source_url": "https://www.google.com/maps/place/Scova+Impianti+Srl/data=!4m7!3m6!1s0x477fdd5ebaba0171:0x1b3c4eee8a4a5cdd!8m2!3d44.6018135!4d11.032294!16s%2Fg%2F1tfzwbfb!19sChIJcQG6ul7df0cR3VxKiu5OPBs?authuser=0&hl=tr&rclk=1",
    "website_url": "",
    "rating_text": "4,5",
    "stars": null,
    "number_of_reviews": null,
    "price_level": "",
    "open_hours": "",
    "extraction_timestamp": "2025-06-07T16:33:41.258Z",
    "source_name": "google",
    "source_query": "Irrigation Equipment",
    "source_country": "IT",
    "country": "Italy",
    "state": "Emilia-Romagna",
    "city": "Fiorano"
  },
  {
    "source_id": "ChIJARJJkDnjf0cR3lDNIOKDwXU",
    "name": "Bertani S.p.a. - Magazzino di Fiorano",
    "category": "Bertani S.p.a. - Magazzino di Fiorano",
    "formatted_address": "4,4(52)",
    "phone_number": "+390536843046",
    "source_url": "https://www.google.com/maps/place/Bertani+S.p.a.+-+Magazzino+di+Fiorano/data=!4m7!3m6!1s0x477fe33990491201:0x75c183e220cd50de!8m2!3d44.5370991!4d10.8325496!16s%2Fg%2F119x5wft8!19sChIJARJJkDnjf0cR3lDNIOKDwXU?authuser=0&hl=tr&rclk=1",
    "website_url": "",
    "rating_text": "4,4",
    "stars": null,
    "number_of_reviews": null,
    "price_level": "",
    "open_hours": "",
    "extraction_timestamp": "2025-06-07T16:33:41.259Z",
    "source_name": "google",
    "source_query": "Irrigation Equipment",
    "source_country": "IT",
    "country": "Italy",
    "state": "Emilia-Romagna",
    "city": "Fiorano"
  },
  {
    "source_id": "ChIJ4ewXvzDjf0cRN84RxavW_xI",
    "name": "OBI Fiorano Modenese",
    "category": "OBI Fiorano Modenese",
    "formatted_address": "3,9(2.803)",
    "phone_number": "+390536838511",
    "source_url": "https://www.google.com/maps/place/OBI+Fiorano+Modenese/data=!4m7!3m6!1s0x477fe330bf17ece1:0x12ffd6abc511ce37!8m2!3d44.5360372!4d10.8302184!16s%2Fg%2F1hc45lxkz!19sChIJ4ewXvzDjf0cRN84RxavW_xI?authuser=0&hl=tr&rclk=1",
    "website_url": "",
    "rating_text": "3,9",
    "stars": null,
    "number_of_reviews": null,
    "price_level": "",
    "open_hours": "",
    "extraction_timestamp": "2025-06-07T16:33:41.262Z",
    "source_name": "google",
    "source_query": "Irrigation Equipment",
    "source_country": "IT",
    "country": "Italy",
    "state": "Emilia-Romagna",
    "city": "Fiorano"
  },
  {
    "source_id": "ChIJ06sC13Hjf0cRzzTY46RLk8Q",
    "name": "SICO srl - cilindri oleodinamici",
    "category": "SICO srl - cilindri oleodinamici",
    "formatted_address": "5,0(4)",
    "phone_number": "+390536843614",
    "source_url": "https://www.google.com/maps/place/SICO+srl+-+cilindri+oleodinamici/data=!4m7!3m6!1s0x477fe371d702abd3:0xc4934ba4e3d834cf!8m2!3d44.5407987!4d10.8571764!16s%2Fg%2F11b6byr0gj!19sChIJ06sC13Hjf0cRzzTY46RLk8Q?authuser=0&hl=tr&rclk=1",
    "website_url": "",
    "rating_text": "5,0",
    "stars": null,
    "number_of_reviews": null,
    "price_level": "",
    "open_hours": "",
    "extraction_timestamp": "2025-06-07T16:33:41.263Z",
    "source_name": "google",
    "source_query": "Irrigation Equipment",
    "source_country": "IT",
    "country": "Italy",
    "state": "Emilia-Romagna",
    "city": "Fiorano"
  },
  {
    "source_id": "ChIJJ6V6lMDgf0cR1SpFsfjDuHg",
    "name": "Ocmis Irrigazione Spa",
    "category": "Ocmis Irrigazione Spa",
    "formatted_address": "3,5(31)",
    "phone_number": "+39059702150",
    "source_url": "https://www.google.com/maps/place/Ocmis+Irrigazione+Spa/data=!4m7!3m6!1s0x477fe0c0947aa527:0x78b8c3f8b1452ad5!8m2!3d44.530494!4d10.9794578!16s%2Fg%2F1vd3tn19!19sChIJJ6V6lMDgf0cR1SpFsfjDuHg?authuser=0&hl=tr&rclk=1",
    "website_url": "",
    "rating_text": "3,5",
    "stars": null,
    "number_of_reviews": null,
    "price_level": "",
    "open_hours": "",
    "extraction_timestamp": "2025-06-07T16:33:41.264Z",
    "source_name": "google",
    "source_query": "Irrigation Equipment",
    "source_country": "IT",
    "country": "Italy",
    "state": "Emilia-Romagna",
    "city": "Fiorano"
  },
  {
    "source_id": "ChIJKXm9k7_8f0cRp7XntRaamh8",
    "name": "Monte Ave Società Cooperativa Agricola",
    "category": "Monte Ave Società Cooperativa Agricola",
    "formatted_address": "4,5(30)",
    "phone_number": "+390536804115",
    "source_url": "https://www.google.com/maps/place/Monte+Ave+Societ%C3%A0+Cooperativa+Agricola/data=!4m7!3m6!1s0x477ffcbf93bd7929:0x1f9a9a16b5e7b5a7!8m2!3d44.5446307!4d10.8001567!16s%2Fg%2F1tfnxfjc!19sChIJKXm9k7_8f0cRp7XntRaamh8?authuser=0&hl=tr&rclk=1",
    "website_url": "",
    "rating_text": "4,5",
    "stars": null,
    "number_of_reviews": null,
    "price_level": "",
    "open_hours": "",
    "extraction_timestamp": "2025-06-07T16:33:41.265Z",
    "source_name": "google",
    "source_query": "Irrigation Equipment",
    "source_country": "IT",
    "country": "Italy",
    "state": "Emilia-Romagna",
    "city": "Fiorano"
  },
  {
    "source_id": "ChIJmbatPHPjf0cRUHMf4FQkrxg",
    "name": "IPERCERAMICA Modena - Fiorano Modenese",
    "category": "IPERCERAMICA Modena - Fiorano Modenese",
    "formatted_address": "3,6(366)",
    "phone_number": "+393452393110",
    "source_url": "https://www.google.com/maps/place/IPERCERAMICA+Modena+-+Fiorano+Modenese/data=!4m7!3m6!1s0x477fe3733cadb699:0x18af2454e01f7350!8m2!3d44.5542232!4d10.8103993!16s%2Fg%2F1vq73pz5!19sChIJmbatPHPjf0cRUHMf4FQkrxg?authuser=0&hl=tr&rclk=1",
    "website_url": "",
    "rating_text": "3,6",
    "stars": null,
    "number_of_reviews": null,
    "price_level": "",
    "open_hours": "",
    "extraction_timestamp": "2025-06-07T16:33:41.266Z",
    "source_name": "google",
    "source_query": "Irrigation Equipment",
    "source_country": "IT",
    "country": "Italy",
    "state": "Emilia-Romagna",
    "city": "Fiorano"
  },
  {
    "source_id": "ChIJrf42UDLjf0cRvyEujSz8G1I",
    "name": "House Technology SRL | Edison Business Partner",
    "category": "House Technology SRL | Edison Business Partner",
    "formatted_address": "5,0(11)",
    "phone_number": "+3905361713876",
    "source_url": "https://www.google.com/maps/place/House+Technology+SRL+%7C+Edison+Business+Partner/data=!4m7!3m6!1s0x477fe3325036fead:0x521bfc2c8d2e21bf!8m2!3d44.5348444!4d10.8344366!16s%2Fg%2F11y3tcgz2x!19sChIJrf42UDLjf0cRvyEujSz8G1I?authuser=0&hl=tr&rclk=1",
    "website_url": "",
    "rating_text": "5,0",
    "stars": null,
    "number_of_reviews": null,
    "price_level": "",
    "open_hours": "",
    "extraction_timestamp": "2025-06-07T16:33:41.267Z",
    "source_name": "google",
    "source_query": "Irrigation Equipment",
    "source_country": "IT",
    "country": "Italy",
    "state": "Emilia-Romagna",
    "city": "Fiorano"
  },
  {
    "source_id": "ChIJp-f04z3jf0cRBcv5mQekUeg",
    "name": "Miselli Ceramiche s.r.l.",
    "category": "Miselli Ceramiche s.r.l.",
    "formatted_address": "4,8(45)",
    "phone_number": "+390536843295",
    "source_url": "https://www.google.com/maps/place/Miselli+Ceramiche+s.r.l./data=!4m7!3m6!1s0x477fe33de3f4e7a7:0xe851a40799f9cb05!8m2!3d44.5306892!4d10.854334!16s%2Fg%2F1tcv9r94!19sChIJp-f04z3jf0cRBcv5mQekUeg?authuser=0&hl=tr&rclk=1",
    "website_url": "",
    "rating_text": "4,8",
    "stars": null,
    "number_of_reviews": null,
    "price_level": "",
    "open_hours": "",
    "extraction_timestamp": "2025-06-07T16:33:41.268Z",
    "source_name": "google",
    "source_query": "Irrigation Equipment",
    "source_country": "IT",
    "country": "Italy",
    "state": "Emilia-Romagna",
    "city": "Fiorano"
  },
  {
    "source_id": "ChIJKRCTTTrjf0cRShqdSNpJ6Zw",
    "name": "Hardware Pellati Ezio Snc Pellati Christian & C.",
    "category": "Hardware Pellati Ezio Snc Pellati Christian & C.",
    "formatted_address": "4,6(134)",
    "phone_number": "+390536404034",
    "source_url": "https://www.google.com/maps/place/Hardware+Pellati+Ezio+Snc+Pellati+Christian+%26+C./data=!4m7!3m6!1s0x477fe33a4d931029:0x9ce949da489d1a4a!8m2!3d44.5403013!4d10.8431707!16s%2Fg%2F1td3qb8_!19sChIJKRCTTTrjf0cRShqdSNpJ6Zw?authuser=0&hl=tr&rclk=1",
    "website_url": "",
    "rating_text": "4,6",
    "stars": null,
    "number_of_reviews": null,
    "price_level": "",
    "open_hours": "",
    "extraction_timestamp": "2025-06-07T16:33:41.269Z",
    "source_name": "google",
    "source_query": "Irrigation Equipment",
    "source_country": "IT",
    "country": "Italy",
    "state": "Emilia-Romagna",
    "city": "Fiorano"
  },
  {
    "source_id": "ChIJV7Ak4mH7f0cRV8pRqBQxlSQ",
    "name": "TEM SRL",
    "category": "TEM SRL",
    "formatted_address": "5,0(1)",
    "phone_number": "+390536808252",
    "source_url": "https://www.google.com/maps/place/TEM+SRL/data=!4m7!3m6!1s0x477ffb61e224b057:0x24953114a851ca57!8m2!3d44.5636163!4d10.8007917!16s%2Fg%2F1tfr90ws!19sChIJV7Ak4mH7f0cRV8pRqBQxlSQ?authuser=0&hl=tr&rclk=1",
    "website_url": "",
    "rating_text": "5,0",
    "stars": null,
    "number_of_reviews": null,
    "price_level": "",
    "open_hours": "",
    "extraction_timestamp": "2025-06-07T16:33:41.271Z",
    "source_name": "google",
    "source_query": "Irrigation Equipment",
    "source_country": "IT",
    "country": "Italy",
    "state": "Emilia-Romagna",
    "city": "Fiorano"
  },
  {
    "source_id": "ChIJhT-kpAXff0cRKJQqKYwIulA",
    "name": "Irrigo",
    "category": "Irrigo",
    "formatted_address": "4,7(36)",
    "phone_number": "+393473096499",
    "source_url": "https://www.google.com/maps/place/Irrigo/data=!4m7!3m6!1s0x477fdf05a4a43f85:0x50ba088c292a9428!8m2!3d44.5018172!4d11.005272!16s%2Fg%2F11hdjcp5pk!19sChIJhT-kpAXff0cRKJQqKYwIulA?authuser=0&hl=tr&rclk=1",
    "website_url": "",
    "rating_text": "4,7",
    "stars": null,
    "number_of_reviews": null,
    "price_level": "",
    "open_hours": "",
    "extraction_timestamp": "2025-06-07T16:33:41.272Z",
    "source_name": "google",
    "source_query": "Irrigation Equipment",
    "source_country": "IT",
    "country": "Italy",
    "state": "Emilia-Romagna",
    "city": "Fiorano"
  },
  {
    "source_id": "ChIJE_3jOnMtfkcRkxtTFj3Ym9E",
    "name": "Irrigation Scarabelli Srl",
    "category": "Irrigation Scarabelli Srl",
    "formatted_address": "4,5(23)",
    "phone_number": "+39051763363",
    "source_url": "https://www.google.com/maps/place/Irrigation+Scarabelli+Srl/data=!4m7!3m6!1s0x477e2d733ae3fd13:0xd19bd83d16531b93!8m2!3d44.5426053!4d11.4189136!16s%2Fg%2F11gzdz6vf!19sChIJE_3jOnMtfkcRkxtTFj3Ym9E?authuser=0&hl=tr&rclk=1",
    "website_url": "",
    "rating_text": "4,5",
    "stars": null,
    "number_of_reviews": null,
    "price_level": "",
    "open_hours": "",
    "extraction_timestamp": "2025-06-07T16:33:41.273Z",
    "source_name": "google",
    "source_query": "Irrigation Equipment",
    "source_country": "IT",
    "country": "Italy",
    "state": "Emilia-Romagna",
    "city": "Fiorano"
  },
  {
    "source_id": "ChIJDfL8gcz8f0cR9TCJDVuqTwY",
    "name": "Gianni Sport.",
    "category": "Gianni Sport.",
    "formatted_address": "4,5(275)",
    "phone_number": "+390536831247",
    "source_url": "https://www.google.com/maps/place/Gianni+Sport./data=!4m7!3m6!1s0x477ffccc81fcf20d:0x64faa5b0d8930f5!8m2!3d44.5431752!4d10.811236!16s%2Fg%2F1tgplwkv!19sChIJDfL8gcz8f0cR9TCJDVuqTwY?authuser=0&hl=tr&rclk=1",
    "website_url": "",
    "rating_text": "4,5",
    "stars": null,
    "number_of_reviews": null,
    "price_level": "",
    "open_hours": "",
    "extraction_timestamp": "2025-06-07T16:33:41.274Z",
    "source_name": "google",
    "source_query": "Irrigation Equipment",
    "source_country": "IT",
    "country": "Italy",
    "state": "Emilia-Romagna",
    "city": "Fiorano"
  },
  {
    "source_id": "ChIJHQGz6dXof0cRPD2igQWHtxo",
    "name": "Hidrostar",
    "category": "Hidrostar",
    "formatted_address": "4,8(33)",
    "phone_number": "+39059251056",
    "source_url": "https://www.google.com/maps/place/Hidrostar/data=!4m7!3m6!1s0x477fe8d5e9b3011d:0x1ab7870581a23d3c!8m2!3d44.6584919!4d10.9641811!16s%2Fg%2F1tf9rp0c!19sChIJHQGz6dXof0cRPD2igQWHtxo?authuser=0&hl=tr&rclk=1",
    "website_url": "",
    "rating_text": "4,8",
    "stars": null,
    "number_of_reviews": null,
    "price_level": "",
    "open_hours": "",
    "extraction_timestamp": "2025-06-07T16:33:41.275Z",
    "source_name": "google",
    "source_query": "Irrigation Equipment",
    "source_country": "IT",
    "country": "Italy",
    "state": "Emilia-Romagna",
    "city": "Fiorano"
  },
  {
    "source_id": "ChIJgVjbdx7df0cRsMjOLRKEzBA",
    "name": "Geocentro",
    "category": "Geocentro",
    "formatted_address": "4,4(87)",
    "phone_number": "+39059926168",
    "source_url": "https://www.google.com/maps/place/Geocentro/data=!4m7!3m6!1s0x477fdd1e77db5881:0x10cc84122dcec8b0!8m2!3d44.5868616!4d11.070717!16s%2Fg%2F11cn3ph0_q!19sChIJgVjbdx7df0cRsMjOLRKEzBA?authuser=0&hl=tr&rclk=1",
    "website_url": "",
    "rating_text": "4,4",
    "stars": null,
    "number_of_reviews": null,
    "price_level": "",
    "open_hours": "",
    "extraction_timestamp": "2025-06-07T16:33:41.276Z",
    "source_name": "google",
    "source_query": "Irrigation Equipment",
    "source_country": "IT",
    "country": "Italy",
    "state": "Emilia-Romagna",
    "city": "Fiorano"
  },
  {
    "source_id": "ChIJ-Z_RHvbnf0cRry0jCm7Q5GQ",
    "name": "Scova Impianti",
    "category": "Scova Impianti",
    "formatted_address": "4,0(4)",
    "phone_number": "+39059925910",
    "source_url": "https://www.google.com/maps/place/Scova+Impianti/data=!4m7!3m6!1s0x477fe7f61ed19ff9:0x64e4d06e0a232daf!8m2!3d44.6018937!4d11.0315223!16s%2Fg%2F1td6wznv!19sChIJ-Z_RHvbnf0cRry0jCm7Q5GQ?authuser=0&hl=tr&rclk=1",
    "website_url": "",
    "rating_text": "4,0",
    "stars": null,
    "number_of_reviews": null,
    "price_level": "",
    "open_hours": "",
    "extraction_timestamp": "2025-06-07T16:33:41.277Z",
    "source_name": "google",
    "source_query": "Irrigation Equipment",
    "source_country": "IT",
    "country": "Italy",
    "state": "Emilia-Romagna",
    "city": "Fiorano"
  },
  {
    "source_id": "ChIJ0Y1V4YD8f0cRo92ae16reKU",
    "name": "Vivai Pellacani",
    "category": "Vivai Pellacani",
    "formatted_address": "4,4(167)",
    "phone_number": "+390536800857",
    "source_url": "https://www.google.com/maps/place/Vivai+Pellacani/data=!4m7!3m6!1s0x477ffc80e1558dd1:0xa578ab5e7b9adda3!8m2!3d44.563282!4d10.7845134!16s%2Fg%2F1tj29w1t!19sChIJ0Y1V4YD8f0cRo92ae16reKU?authuser=0&hl=tr&rclk=1",
    "website_url": "",
    "rating_text": "4,4",
    "stars": null,
    "number_of_reviews": null,
    "price_level": "",
    "open_hours": "",
    "extraction_timestamp": "2025-06-07T16:33:41.278Z",
    "source_name": "google",
    "source_query": "Irrigation Equipment",
    "source_country": "IT",
    "country": "Italy",
    "state": "Emilia-Romagna",
    "city": "Fiorano"
  },
  {
    "source_id": "ChIJ75Mc2kHjf0cRjIY1kHXIfO4",
    "name": "FIMO",
    "category": "FIMO",
    "formatted_address": "4,5(30)",
    "phone_number": "+390536845164",
    "source_url": "https://www.google.com/maps/place/FIMO/data=!4m7!3m6!1s0x477fe341da1c93ef:0xee7cc8759035868c!8m2!3d44.549276!4d10.819615!16s%2Fg%2F1vg6sl8_!19sChIJ75Mc2kHjf0cRjIY1kHXIfO4?authuser=0&hl=tr&rclk=1",
    "website_url": "",
    "rating_text": "4,5",
    "stars": null,
    "number_of_reviews": null,
    "price_level": "",
    "open_hours": "",
    "extraction_timestamp": "2025-06-07T16:33:41.279Z",
    "source_name": "google",
    "source_query": "Irrigation Equipment",
    "source_country": "IT",
    "country": "Italy",
    "state": "Emilia-Romagna",
    "city": "Fiorano"
  },
  {
    "source_id": "ChIJGQEYVMbkf0cRnIoRAOGah2c",
    "name": "Bricofer Formigine",
    "category": "Bricofer Formigine",
    "formatted_address": "3,8(1.037)",
    "phone_number": "+39059711881",
    "source_url": "https://www.google.com/maps/place/Bricofer+Formigine/data=!4m7!3m6!1s0x477fe4c654180119:0x67879ae100118a9c!8m2!3d44.579729!4d10.8488692!16s%2Fg%2F11f2wl_c_q!19sChIJGQEYVMbkf0cRnIoRAOGah2c?authuser=0&hl=tr&rclk=1",
    "website_url": "",
    "rating_text": "3,8",
    "stars": null,
    "number_of_reviews": null,
    "price_level": "",
    "open_hours": "",
    "extraction_timestamp": "2025-06-07T16:33:41.281Z",
    "source_name": "google",
    "source_query": "Irrigation Equipment",
    "source_country": "IT",
    "country": "Italy",
    "state": "Emilia-Romagna",
    "city": "Fiorano"
  },
  {
    "source_id": "ChIJ89AzKi_vf0cRFDKkSHc6uig",
    "name": "La Casa dell'Acqua depuratori d'acqua",
    "category": "La Casa dell'Acqua depuratori d'acqua",
    "formatted_address": "5,0(119)",
    "phone_number": "+393922816505",
    "source_url": "https://www.google.com/maps/place/La+Casa+dell%27Acqua+depuratori+d%27acqua/data=!4m7!3m6!1s0x477fef2f2a33d0f3:0x28ba3a7748a43214!8m2!3d44.592419!4d11.060338!16s%2Fg%2F1q665m4gv!19sChIJ89AzKi_vf0cRFDKkSHc6uig?authuser=0&hl=tr&rclk=1",
    "website_url": "",
    "rating_text": "5,0",
    "stars": null,
    "number_of_reviews": null,
    "price_level": "",
    "open_hours": "",
    "extraction_timestamp": "2025-06-07T16:33:41.282Z",
    "source_name": "google",
    "source_query": "Irrigation Equipment",
    "source_country": "IT",
    "country": "Italy",
    "state": "Emilia-Romagna",
    "city": "Fiorano"
  }
]
