[
  {
    "source_id": "ChIJy805WcDcgEcRtmGWlwosXQc",
    "name": "IRRIMEC SRL",
    "category": "IRRIMEC SRL",
    "formatted_address": "4,5(90)",
    "phone_number": "+390523760441",
    "source_url": "https://www.google.com/maps/place/IRRIMEC+SRL/data=!4m7!3m6!1s0x4780dcc05939cdcb:0x75d2c0a979661b6!8m2!3d45.0612353!4d9.630829!16s%2Fg%2F1tdgt7d_!19sChIJy805WcDcgEcRtmGWlwosXQc?authuser=0&hl=tr&rclk=1",
    "website_url": "http://www.irrimec.com/",
    "rating_text": "4,5",
    "stars": null,
    "number_of_reviews": null,
    "price_level": "",
    "open_hours": "",
    "extraction_timestamp": "2025-06-07T16:22:55.696Z",
    "source_name": "google",
    "source_query": "Irrigation Equipment",
    "source_country": "IT",
    "country": "Italy",
    "state": "Emilia-Romagna",
    "city": "Fiorenzuola d'Arda"
  },
  {
    "source_id": "ChIJQShIlY7zgEcRRmxc1LnUeW8",
    "name": "Hydro Pneumatic Srl",
    "category": "Hydro Pneumatic Srl",
    "formatted_address": "5,0(3)",
    "phone_number": "+390523982731",
    "source_url": "https://www.google.com/maps/place/Hydro+Pneumatic+Srl/data=!4m7!3m6!1s0x4780f38e95482841:0x6f79d4b9d45c6c46!8m2!3d44.9197095!4d9.9192837!16s%2Fg%2F1tmbtznx!19sChIJQShIlY7zgEcRRmxc1LnUeW8?authuser=0&hl=tr&rclk=1",
    "website_url": "https://www.hydropneumatic.it/",
    "rating_text": "5,0",
    "stars": null,
    "number_of_reviews": null,
    "price_level": "",
    "open_hours": "",
    "extraction_timestamp": "2025-06-07T16:22:55.697Z",
    "source_name": "google",
    "source_query": "Irrigation Equipment",
    "source_country": "IT",
    "country": "Italy",
    "state": "Emilia-Romagna",
    "city": "Fiorenzuola d'Arda"
  },
  {
    "source_id": "ChIJk42YuI7zgEcRJ4eNXaOiKzU",
    "name": "L'Idrosanitaria S.R.L.",
    "category": "L'Idrosanitaria S.R.L.",
    "formatted_address": "5,0(8)",
    "phone_number": "+390523949105",
    "source_url": "https://www.google.com/maps/place/L%27Idrosanitaria+S.R.L./data=!4m7!3m6!1s0x4780f38eb8988d93:0x352ba2a35d8d8727!8m2!3d44.9186125!4d9.9259967!16s%2Fg%2F12hqwxm9f!19sChIJk42YuI7zgEcRJ4eNXaOiKzU?authuser=0&hl=tr&rclk=1",
    "website_url": "https://www.lidrosanitariacarloni.it/",
    "rating_text": "5,0",
    "stars": null,
    "number_of_reviews": null,
    "price_level": "",
    "open_hours": "",
    "extraction_timestamp": "2025-06-07T16:22:55.698Z",
    "source_name": "google",
    "source_query": "Irrigation Equipment",
    "source_country": "IT",
    "country": "Italy",
    "state": "Emilia-Romagna",
    "city": "Fiorenzuola d'Arda"
  },
  {
    "source_id": "ChIJ49DUcJHzgEcRYovAVNWiZuk",
    "name": "Idrogeo S.r.l.",
    "category": "Idrogeo S.r.l.",
    "formatted_address": "4,7(9)",
    "phone_number": "+390523943242",
    "source_url": "https://www.google.com/maps/place/Idrogeo+S.r.l./data=!4m7!3m6!1s0x4780f39170d4d0e3:0xe966a2d554c08b62!8m2!3d44.9186515!4d9.9165414!16s%2Fg%2F12hldz0cy!19sChIJ49DUcJHzgEcRYovAVNWiZuk?authuser=0&hl=tr&rclk=1",
    "website_url": "http://www.idrogeo.net/",
    "rating_text": "4,7",
    "stars": null,
    "number_of_reviews": null,
    "price_level": "",
    "open_hours": "",
    "extraction_timestamp": "2025-06-07T16:22:55.699Z",
    "source_name": "google",
    "source_query": "Irrigation Equipment",
    "source_country": "IT",
    "country": "Italy",
    "state": "Emilia-Romagna",
    "city": "Fiorenzuola d'Arda"
  },
  {
    "source_id": "ChIJtVDkNgRFgEcRqc6umwWIJuI",
    "name": "Rm Spa",
    "category": "Rm Spa",
    "formatted_address": "4,6(81)",
    "phone_number": "+390521872321",
    "source_url": "https://www.google.com/maps/place/Rm+Spa/data=!4m7!3m6!1s0x4780450436e450b5:0xe22688059baecea9!8m2!3d44.9105406!4d10.2583785!16s%2Fg%2F12hl93byl!19sChIJtVDkNgRFgEcRqc6umwWIJuI?authuser=0&hl=tr&rclk=1",
    "website_url": "http://www.rmirrigation.com/",
    "rating_text": "4,6",
    "stars": null,
    "number_of_reviews": null,
    "price_level": "",
    "open_hours": "",
    "extraction_timestamp": "2025-06-07T16:22:55.700Z",
    "source_name": "google",
    "source_query": "Irrigation Equipment",
    "source_country": "IT",
    "country": "Italy",
    "state": "Emilia-Romagna",
    "city": "Fiorenzuola d'Arda"
  },
  {
    "source_id": "ChIJ4WnZNofogEcRcCSJgGupNXk",
    "name": "Irrigarden",
    "category": "Irrigarden",
    "formatted_address": "3,7(6)",
    "phone_number": "+390523592012",
    "source_url": "https://www.google.com/maps/place/Irrigarden/data=!4m7!3m6!1s0x4780e88736d969e1:0x7935a96b80892470!8m2!3d45.0288739!4d9.7384753!16s%2Fg%2F11g4d1r753!19sChIJ4WnZNofogEcRcCSJgGupNXk?authuser=0&hl=tr&rclk=1",
    "website_url": "https://www.irrigarden.com/",
    "rating_text": "3,7",
    "stars": null,
    "number_of_reviews": null,
    "price_level": "",
    "open_hours": "",
    "extraction_timestamp": "2025-06-07T16:22:55.702Z",
    "source_name": "google",
    "source_query": "Irrigation Equipment",
    "source_country": "IT",
    "country": "Italy",
    "state": "Emilia-Romagna",
    "city": "Fiorenzuola d'Arda"
  },
  {
    "source_id": "ChIJX2P7h3ZggEcRIo3TTP0_tuk",
    "name": "Agrigarden snc di Ambroggi",
    "category": "Agrigarden snc di Ambroggi",
    "formatted_address": "4,6(157)",
    "phone_number": "+390524523020",
    "source_url": "https://www.google.com/maps/place/Agrigarden+snc+di+Ambroggi/data=!4m7!3m6!1s0x4780607687fb635f:0xe9b63ffd4cd38d22!8m2!3d44.846688!4d10.0244782!16s%2Fg%2F1hc452qxl!19sChIJX2P7h3ZggEcRIo3TTP0_tuk?authuser=0&hl=tr&rclk=1",
    "website_url": "http://www.agrigardenparma.it/",
    "rating_text": "4,6",
    "stars": null,
    "number_of_reviews": null,
    "price_level": "",
    "open_hours": "",
    "extraction_timestamp": "2025-06-07T16:22:55.723Z",
    "source_name": "google",
    "source_query": "Irrigation Equipment",
    "source_country": "IT",
    "country": "Italy",
    "state": "Emilia-Romagna",
    "city": "Fiorenzuola d'Arda"
  },
  {
    "source_id": "ChIJtQC48ZLzgEcRmT6l9ZZfmXE",
    "name": "La Verde Ricarica",
    "category": "La Verde Ricarica",
    "formatted_address": "3,4(12)",
    "phone_number": "+390523248614",
    "source_url": "https://www.google.com/maps/place/La+Verde+Ricarica/data=!4m7!3m6!1s0x4780f392f1b800b5:0x71995f96f5a53e99!8m2!3d44.9231348!4d9.915327!16s%2Fg%2F12hmy4pr7!19sChIJtQC48ZLzgEcRmT6l9ZZfmXE?authuser=0&hl=tr&rclk=1",
    "website_url": "http://www.laverdericarica.it/",
    "rating_text": "3,4",
    "stars": null,
    "number_of_reviews": null,
    "price_level": "",
    "open_hours": "",
    "extraction_timestamp": "2025-06-07T16:22:55.725Z",
    "source_name": "google",
    "source_query": "Irrigation Equipment",
    "source_country": "IT",
    "country": "Italy",
    "state": "Emilia-Romagna",
    "city": "Fiorenzuola d'Arda"
  },
  {
    "source_id": "ChIJycCx5_ZaY08RU2s5y1I82zI",
    "name": "IDROGEO SRL",
    "category": "IDROGEO SRL",
    "formatted_address": "",
    "phone_number": "+390523943242",
    "source_url": "https://www.google.com/maps/place/IDROGEO+SRL/data=!4m7!3m6!1s0x4f635af6e7b1c0c9:0x32db3c52cb396b53!8m2!3d41.29085!4d12.71216!16s%2Fg%2F11y3vdzcf6!19sChIJycCx5_ZaY08RU2s5y1I82zI?authuser=0&hl=tr&rclk=1",
    "website_url": "",
    "rating_text": "",
    "stars": null,
    "number_of_reviews": null,
    "price_level": "",
    "open_hours": "",
    "extraction_timestamp": "2025-06-07T16:22:55.726Z",
    "source_name": "google",
    "source_query": "Irrigation Equipment",
    "source_country": "IT",
    "country": "Italy",
    "state": "Emilia-Romagna",
    "city": "Fiorenzuola d'Arda"
  },
  {
    "source_id": "ChIJ85nF-MTzgEcRvUQa1pskLqY",
    "name": "Ampollini Paolo",
    "category": "Ampollini Paolo",
    "formatted_address": "4,5(100)",
    "phone_number": "+390523984934",
    "source_url": "https://www.google.com/maps/place/Ampollini+Paolo/data=!4m7!3m6!1s0x4780f3c4f8c599f3:0xa62e249bd61a44bd!8m2!3d44.9320823!4d9.9050999!16s%2Fg%2F1vq9l3_m!19sChIJ85nF-MTzgEcRvUQa1pskLqY?authuser=0&hl=tr&rclk=1",
    "website_url": "",
    "rating_text": "4,5",
    "stars": null,
    "number_of_reviews": null,
    "price_level": "",
    "open_hours": "",
    "extraction_timestamp": "2025-06-07T16:22:55.727Z",
    "source_name": "google",
    "source_query": "Irrigation Equipment",
    "source_country": "IT",
    "country": "Italy",
    "state": "Emilia-Romagna",
    "city": "Fiorenzuola d'Arda"
  },
  {
    "source_id": "ChIJyT4A2YxrbQsRggFS-XyH6Ag",
    "name": "ML Acqua",
    "category": "ML Acqua",
    "formatted_address": "2,3(3)",
    "phone_number": "+3905231791045",
    "source_url": "https://www.google.com/maps/place/ML+Acqua/data=!4m7!3m6!1s0xb6d6b8cd9003ec9:0x8e8877cf9520182!8m2!3d44.9288771!4d9.9111214!16s%2Fg%2F11srl20rlm!19sChIJyT4A2YxrbQsRggFS-XyH6Ag?authuser=0&hl=tr&rclk=1",
    "website_url": "https://www.mlacquaitalia.it/azienda/",
    "rating_text": "2,3",
    "stars": null,
    "number_of_reviews": null,
    "price_level": "",
    "open_hours": "",
    "extraction_timestamp": "2025-06-07T16:22:55.728Z",
    "source_name": "google",
    "source_query": "Irrigation Equipment",
    "source_country": "IT",
    "country": "Italy",
    "state": "Emilia-Romagna",
    "city": "Fiorenzuola d'Arda"
  },
  {
    "source_id": "ChIJO_tPZOvzgEcRKF-F7IID4pU",
    "name": "Ferramenta Casella",
    "category": "Ferramenta Casella",
    "formatted_address": "4,6(69)",
    "phone_number": "+390523983866",
    "source_url": "https://www.google.com/maps/place/Ferramenta+Casella/data=!4m7!3m6!1s0x4780f3eb644ffb3b:0x95e20382ec855f28!8m2!3d44.9233627!4d9.9216585!16s%2Fg%2F1tcyw8gx!19sChIJO_tPZOvzgEcRKF-F7IID4pU?authuser=0&hl=tr&rclk=1",
    "website_url": "https://www.ferramentacasella.com/",
    "rating_text": "4,6",
    "stars": null,
    "number_of_reviews": null,
    "price_level": "",
    "open_hours": "",
    "extraction_timestamp": "2025-06-07T16:22:55.730Z",
    "source_name": "google",
    "source_query": "Irrigation Equipment",
    "source_country": "IT",
    "country": "Italy",
    "state": "Emilia-Romagna",
    "city": "Fiorenzuola d'Arda"
  },
  {
    "source_id": "ChIJs3ASRerzgEcRijQ4QlnZicI",
    "name": "tuttoGIARDINO Fiorenzuola d'Arda",
    "category": "tuttoGIARDINO Fiorenzuola d'Arda",
    "formatted_address": "4,7(3)",
    "phone_number": "+390523984439",
    "source_url": "https://www.google.com/maps/place/tuttoGIARDINO+Fiorenzuola+d%27Arda/data=!4m7!3m6!1s0x4780f3ea451270b3:0xc289d9594238348a!8m2!3d44.9527675!4d9.9061342!16s%2Fg%2F11bzwpr5kp!19sChIJs3ASRerzgEcRijQ4QlnZicI?authuser=0&hl=tr&rclk=1",
    "website_url": "http://www.tuttogiardino.it/",
    "rating_text": "4,7",
    "stars": null,
    "number_of_reviews": null,
    "price_level": "",
    "open_hours": "",
    "extraction_timestamp": "2025-06-07T16:22:55.731Z",
    "source_name": "google",
    "source_query": "Irrigation Equipment",
    "source_country": "IT",
    "country": "Italy",
    "state": "Emilia-Romagna",
    "city": "Fiorenzuola d'Arda"
  },
  {
    "source_id": "ChIJ7fBYuPfzgEcRGIKqtdMPDF8",
    "name": "Mezzadri Alberto Termosanitaria",
    "category": "Mezzadri Alberto Termosanitaria",
    "formatted_address": "3,7(3)",
    "phone_number": "+393290508720",
    "source_url": "https://www.google.com/maps/place/Mezzadri+Alberto+Termosanitaria/data=!4m7!3m6!1s0x4780f3f7b858f0ed:0x5f0c0fd3b5aa8218!8m2!3d44.9368143!4d9.8974623!16s%2Fg%2F11mw4wzqss!19sChIJ7fBYuPfzgEcRGIKqtdMPDF8?authuser=0&hl=tr&rclk=1",
    "website_url": "",
    "rating_text": "3,7",
    "stars": null,
    "number_of_reviews": null,
    "price_level": "",
    "open_hours": "",
    "extraction_timestamp": "2025-06-07T16:22:55.732Z",
    "source_name": "google",
    "source_query": "Irrigation Equipment",
    "source_country": "IT",
    "country": "Italy",
    "state": "Emilia-Romagna",
    "city": "Fiorenzuola d'Arda"
  },
  {
    "source_id": "ChIJ-wPcHKnpgEcRYErDfUksad8",
    "name": "IRRIGARDEN PISCINE S.r.l.s.",
    "category": "IRRIGARDEN PISCINE S.r.l.s.",
    "formatted_address": "Yüzme Havuzu İşleri Yüklenicisi · Via Emilia Parmense, 148/HKapalı ⋅ Açılış zamanı: Pzt 08:30 · +39 335 716 6435",
    "phone_number": "+393357166435",
    "source_url": "https://www.google.com/maps/place/IRRIGARDEN+PISCINE+S.r.l.s./data=!4m7!3m6!1s0x4780e9a91cdc03fb:0xdf692c497dc34a60!8m2!3d45.0288519!4d9.7385134!16s%2Fg%2F11r9fb1llm!19sChIJ-wPcHKnpgEcRYErDfUksad8?authuser=0&hl=tr&rclk=1",
    "website_url": "https://www.irrigardenpiscine.it/",
    "rating_text": "",
    "stars": null,
    "number_of_reviews": null,
    "price_level": "",
    "open_hours": "",
    "extraction_timestamp": "2025-06-07T16:22:55.733Z",
    "source_name": "google",
    "source_query": "Irrigation Equipment",
    "source_country": "IT",
    "country": "Italy",
    "state": "Emilia-Romagna",
    "city": "Fiorenzuola d'Arda"
  },
  {
    "source_id": "ChIJcQG6ul7df0cR3VxKiu5OPBs",
    "name": "Scova Impianti Srl",
    "category": "Scova Impianti Srl",
    "formatted_address": "4,5(64)",
    "phone_number": "+39059923202",
    "source_url": "https://www.google.com/maps/place/Scova+Impianti+Srl/data=!4m7!3m6!1s0x477fdd5ebaba0171:0x1b3c4eee8a4a5cdd!8m2!3d44.6018135!4d11.032294!16s%2Fg%2F1tfzwbfb!19sChIJcQG6ul7df0cR3VxKiu5OPBs?authuser=0&hl=tr&rclk=1",
    "website_url": "https://www.scovaimpianti.com/",
    "rating_text": "4,5",
    "stars": null,
    "number_of_reviews": null,
    "price_level": "",
    "open_hours": "",
    "extraction_timestamp": "2025-06-07T16:22:55.734Z",
    "source_name": "google",
    "source_query": "Irrigation Equipment",
    "source_country": "IT",
    "country": "Italy",
    "state": "Emilia-Romagna",
    "city": "Fiorenzuola d'Arda"
  },
  {
    "source_id": "ChIJC0LYzsXngEcR8g_5HSSzAko",
    "name": "Pulitecno",
    "category": "Pulitecno",
    "formatted_address": "5,0(5)",
    "phone_number": "+390523577811",
    "source_url": "https://www.google.com/maps/place/Pulitecno/data=!4m7!3m6!1s0x4780e7c5ced8420b:0x4a02b3241df90ff2!8m2!3d45.0483093!4d9.7294483!16s%2Fg%2F11fxwb60cv!19sChIJC0LYzsXngEcR8g_5HSSzAko?authuser=0&hl=tr&rclk=1",
    "website_url": "http://www.pulitecnosrl.it/",
    "rating_text": "5,0",
    "stars": null,
    "number_of_reviews": null,
    "price_level": "",
    "open_hours": "",
    "extraction_timestamp": "2025-06-07T16:22:55.735Z",
    "source_name": "google",
    "source_query": "Irrigation Equipment",
    "source_country": "IT",
    "country": "Italy",
    "state": "Emilia-Romagna",
    "city": "Fiorenzuola d'Arda"
  },
  {
    "source_id": "ChIJKXn2Z8TzgEcRhyAWGcBZC4o",
    "name": "Centro Ricambi Ferramenta F.lli Gatti",
    "category": "Centro Ricambi Ferramenta F.lli Gatti",
    "formatted_address": "4,5(31)",
    "phone_number": "+390523983938",
    "source_url": "https://www.google.com/maps/place/Centro+Ricambi+Ferramenta+F.lli+Gatti/data=!4m7!3m6!1s0x4780f3c467f67929:0x8a0b59c019162087!8m2!3d44.9320362!4d9.9052461!16s%2Fg%2F1tfrqs4k!19sChIJKXn2Z8TzgEcRhyAWGcBZC4o?authuser=0&hl=tr&rclk=1",
    "website_url": "http://www.ferramentagatti.it/",
    "rating_text": "4,5",
    "stars": null,
    "number_of_reviews": null,
    "price_level": "",
    "open_hours": "",
    "extraction_timestamp": "2025-06-07T16:22:55.736Z",
    "source_name": "google",
    "source_query": "Irrigation Equipment",
    "source_country": "IT",
    "country": "Italy",
    "state": "Emilia-Romagna",
    "city": "Fiorenzuola d'Arda"
  },
  {
    "source_id": "ChIJpd1-herzgEcRn47utgPEjzc",
    "name": "Rossetti Carlo",
    "category": "Rossetti Carlo",
    "formatted_address": "4,7(79)",
    "phone_number": "+390523647175",
    "source_url": "https://www.google.com/maps/place/Rossetti+Carlo/data=!4m7!3m6!1s0x4780f3ea857edda5:0x378fc403b6ee8e9f!8m2!3d44.92685!4d9.9114388!16s%2Fg%2F1tfb5f72!19sChIJpd1-herzgEcRn47utgPEjzc?authuser=0&hl=tr&rclk=1",
    "website_url": "",
    "rating_text": "4,7",
    "stars": null,
    "number_of_reviews": null,
    "price_level": "",
    "open_hours": "",
    "extraction_timestamp": "2025-06-07T16:22:55.737Z",
    "source_name": "google",
    "source_query": "Irrigation Equipment",
    "source_country": "IT",
    "country": "Italy",
    "state": "Emilia-Romagna",
    "city": "Fiorenzuola d'Arda"
  },
  {
    "source_id": "ChIJXbW2DAD1gEcRTIXjPE1iWUw",
    "name": "V.Mac Italia srl",
    "category": "V.Mac Italia srl",
    "formatted_address": "Makine Atölyesi ·  · Via L. Miglioli, 5",
    "phone_number": "",
    "source_url": "https://www.google.com/maps/place/V.Mac+Italia+srl/data=!4m7!3m6!1s0x4780f5000cb6b55d:0x4c59624d3ce3854c!8m2!3d44.9179326!4d9.9333939!16s%2Fg%2F11x63cl5sd!19sChIJXbW2DAD1gEcRTIXjPE1iWUw?authuser=0&hl=tr&rclk=1",
    "website_url": "",
    "rating_text": "",
    "stars": null,
    "number_of_reviews": null,
    "price_level": "",
    "open_hours": "",
    "extraction_timestamp": "2025-06-07T16:22:55.738Z",
    "source_name": "google",
    "source_query": "Irrigation Equipment",
    "source_country": "IT",
    "country": "Italy",
    "state": "Emilia-Romagna",
    "city": "Fiorenzuola d'Arda"
  },
  {
    "source_id": "ChIJy3C5wcXngEcRQ2h427KDOfA",
    "name": "SPAZIO - ingrosso | Condizionatori Caldaie Arredo bagno Sanitari Pavimenti |",
    "category": "SPAZIO - ingrosso | Condizionatori Caldaie Arredo bagno Sanitari Pavimenti |",
    "formatted_address": "4,4(73)",
    "phone_number": "+390523576311",
    "source_url": "https://www.google.com/maps/place/SPAZIO+-+ingrosso+%7C+Condizionatori+Caldaie+Arredo+bagno+Sanitari+Pavimenti+%7C/data=!4m7!3m6!1s0x4780e7c5c1b970cb:0xf03983b2db786843!8m2!3d45.0478441!4d9.7314002!16s%2Fg%2F1tp06z2w!19sChIJy3C5wcXngEcRQ2h427KDOfA?authuser=0&hl=tr&rclk=1",
    "website_url": "http://www.spaziospa.com/",
    "rating_text": "4,4",
    "stars": null,
    "number_of_reviews": null,
    "price_level": "",
    "open_hours": "",
    "extraction_timestamp": "2025-06-07T16:22:55.739Z",
    "source_name": "google",
    "source_query": "Irrigation Equipment",
    "source_country": "IT",
    "country": "Italy",
    "state": "Emilia-Romagna",
    "city": "Fiorenzuola d'Arda"
  },
  {
    "source_id": "ChIJtbN9A-8rgEcRVZtaRSESNOU",
    "name": "Perazzi Irrigatori",
    "category": "Perazzi Irrigatori",
    "formatted_address": "5,0(1)",
    "phone_number": "+390376535952",
    "source_url": "https://www.google.com/maps/place/Perazzi+Irrigatori/data=!4m7!3m6!1s0x47802bef037db3b5:0xe5341221455a9b55!8m2!3d44.9841775!4d10.7699573!16s%2Fg%2F1vd74s01!19sChIJtbN9A-8rgEcRVZtaRSESNOU?authuser=0&hl=tr&rclk=1",
    "website_url": "http://www.gedanken-italia.com/",
    "rating_text": "5,0",
    "stars": null,
    "number_of_reviews": null,
    "price_level": "",
    "open_hours": "",
    "extraction_timestamp": "2025-06-07T16:22:55.740Z",
    "source_name": "google",
    "source_query": "Irrigation Equipment",
    "source_country": "IT",
    "country": "Italy",
    "state": "Emilia-Romagna",
    "city": "Fiorenzuola d'Arda"
  },
  {
    "source_id": "ChIJMTEpniTdgEcRsgkWJI_R0qI",
    "name": "Hydraulic Emiliana S.p.A.",
    "category": "Hydraulic Emiliana S.p.A.",
    "formatted_address": "4,6(28)",
    "phone_number": "+390523592969",
    "source_url": "https://www.google.com/maps/place/Hydraulic+Emiliana+S.p.A./data=!4m7!3m6!1s0x4780dd249e293131:0xa2d2d18f241609b2!8m2!3d45.0549866!4d9.6596178!16s%2Fg%2F11b6gnklmr!19sChIJMTEpniTdgEcRsgkWJI_R0qI?authuser=0&hl=tr&rclk=1",
    "website_url": "http://www.idraulicaemiliana.com/",
    "rating_text": "4,6",
    "stars": null,
    "number_of_reviews": null,
    "price_level": "",
    "open_hours": "",
    "extraction_timestamp": "2025-06-07T16:22:55.741Z",
    "source_name": "google",
    "source_query": "Irrigation Equipment",
    "source_country": "IT",
    "country": "Italy",
    "state": "Emilia-Romagna",
    "city": "Fiorenzuola d'Arda"
  },
  {
    "source_id": "ChIJd9DYVlDtgEcRr1d7CrVIliM",
    "name": "RIVENDITA AGRARIA CRISTALLI di B.G.",
    "category": "RIVENDITA AGRARIA CRISTALLI di B.G.",
    "formatted_address": "4,9(27)",
    "phone_number": "+390523859163",
    "source_url": "https://www.google.com/maps/place/RIVENDITA+AGRARIA+CRISTALLI+di+B.G./data=!4m7!3m6!1s0x4780ed5056d8d077:0x239648b50a7b57af!8m2!3d44.9137014!4d9.7877159!16s%2Fg%2F11p61lb0nt!19sChIJd9DYVlDtgEcRr1d7CrVIliM?authuser=0&hl=tr&rclk=1",
    "website_url": "https://www.facebook.com/agrariacristalli",
    "rating_text": "4,9",
    "stars": null,
    "number_of_reviews": null,
    "price_level": "",
    "open_hours": "",
    "extraction_timestamp": "2025-06-07T16:22:55.742Z",
    "source_name": "google",
    "source_query": "Irrigation Equipment",
    "source_country": "IT",
    "country": "Italy",
    "state": "Emilia-Romagna",
    "city": "Fiorenzuola d'Arda"
  },
  {
    "source_id": "ChIJS8bjUiHvhkcRRzXu_BIPR9g",
    "name": "Milano Irrigazione Srl",
    "category": "Milano Irrigazione Srl",
    "formatted_address": "5,0(3)",
    "phone_number": "+393517141100",
    "source_url": "https://www.google.com/maps/place/Milano+Irrigazione+Srl/data=!4m7!3m6!1s0x4786ef2152e3c64b:0xd8470f12fcee3547!8m2!3d45.474894!4d8.9287797!16s%2Fg%2F11t7m_cx63!19sChIJS8bjUiHvhkcRRzXu_BIPR9g?authuser=0&hl=tr&rclk=1",
    "website_url": "",
    "rating_text": "5,0",
    "stars": null,
    "number_of_reviews": null,
    "price_level": "",
    "open_hours": "",
    "extraction_timestamp": "2025-06-07T16:22:55.743Z",
    "source_name": "google",
    "source_query": "Irrigation Equipment",
    "source_country": "IT",
    "country": "Italy",
    "state": "Emilia-Romagna",
    "city": "Fiorenzuola d'Arda"
  },
  {
    "source_id": "ChIJ6Su--XKZgUcR6gfs_3GoVeI",
    "name": "Grond Plast F1 - Tubi Pe Pvc Irrigazione Idraulica Raccorderia Pompe Cisterne Stufe",
    "category": "Grond Plast F1 - Tubi Pe Pvc Irrigazione Idraulica Raccorderia Pompe Cisterne Stufe",
    "formatted_address": "Grond Plast F1 - Tubi Pe Pvc Irrigazione Idraulica Raccorderia Pompe Cisterne Stufe",
    "phone_number": "+390302620310",
    "source_url": "https://www.google.com/maps/place/Grond+Plast+F1+-+Tubi+Pe+Pvc+Irrigazione+Idraulica+Raccorderia+Pompe+Cisterne+Stufe/data=!4m7!3m6!1s0x47819972f9be2be9:0xe255a871ffec07ea!8m2!3d45.4928601!4d10.3622469!16s%2Fg%2F1thq44gd!19sChIJ6Su--XKZgUcR6gfs_3GoVeI?authuser=0&hl=tr&rclk=1",
    "website_url": "https://www.grondplast.com/",
    "rating_text": "4,6",
    "stars": null,
    "number_of_reviews": null,
    "price_level": "",
    "open_hours": "",
    "extraction_timestamp": "2025-06-07T16:22:55.744Z",
    "source_name": "google",
    "source_query": "Irrigation Equipment",
    "source_country": "IT",
    "country": "Italy",
    "state": "Emilia-Romagna",
    "city": "Fiorenzuola d'Arda"
  },
  {
    "source_id": "ChIJGWoSvc9fgEcRIrimfsBGb0s",
    "name": "Gardenmax Giardini Srl",
    "category": "Gardenmax Giardini Srl",
    "formatted_address": "4,9(56)",
    "phone_number": "+393923449261",
    "source_url": "https://www.google.com/maps/place/Gardenmax+Giardini+Srl/data=!4m7!3m6!1s0x47805fcfbd126a19:0x4b6f46c07ea6b822!8m2!3d44.9040554!4d9.9561126!16s%2Fg%2F1v1knqfy!19sChIJGWoSvc9fgEcRIrimfsBGb0s?authuser=0&hl=tr&rclk=1",
    "website_url": "http://www.gardenmaxgiardini.it/",
    "rating_text": "4,9",
    "stars": null,
    "number_of_reviews": null,
    "price_level": "",
    "open_hours": "",
    "extraction_timestamp": "2025-06-07T16:22:55.745Z",
    "source_name": "google",
    "source_query": "Irrigation Equipment",
    "source_country": "IT",
    "country": "Italy",
    "state": "Emilia-Romagna",
    "city": "Fiorenzuola d'Arda"
  },
  {
    "source_id": "ChIJj8nUhj4kgEcRy8HJk69hn04",
    "name": "Euroclamp S.R.L.",
    "category": "Euroclamp S.R.L.",
    "formatted_address": "4,2(39)",
    "phone_number": "+390522832081",
    "source_url": "https://www.google.com/maps/place/Euroclamp+S.R.L./data=!4m7!3m6!1s0x4780243e86d4c98f:0x4e9f61af93c9c1cb!8m2!3d44.8993434!4d10.654448!16s%2Fg%2F1tdrd6nd!19sChIJj8nUhj4kgEcRy8HJk69hn04?authuser=0&hl=tr&rclk=1",
    "website_url": "http://euroclampsrl.com/",
    "rating_text": "4,2",
    "stars": null,
    "number_of_reviews": null,
    "price_level": "",
    "open_hours": "",
    "extraction_timestamp": "2025-06-07T16:22:55.746Z",
    "source_name": "google",
    "source_query": "Irrigation Equipment",
    "source_country": "IT",
    "country": "Italy",
    "state": "Emilia-Romagna",
    "city": "Fiorenzuola d'Arda"
  },
  {
    "source_id": "ChIJP-CISQ3-gEcRXwl1yi9NW2Q",
    "name": "SIIP - Società Impianti di irrigazione a pioggia",
    "category": "SIIP - Società Impianti di irrigazione a pioggia",
    "formatted_address": "5,0(2)",
    "phone_number": "+393356863605",
    "source_url": "https://www.google.com/maps/place/SIIP+-+Societ%C3%A0+Impianti+di+irrigazione+a+pioggia/data=!4m7!3m6!1s0x4780fe0d4988e03f:0x645b4d2fca75095f!8m2!3d45.1417827!4d10.0200624!16s%2Fg%2F1vqtfn9y!19sChIJP-CISQ3-gEcRXwl1yi9NW2Q?authuser=0&hl=tr&rclk=1",
    "website_url": "https://www.impiantiirrigazionicremona.com/",
    "rating_text": "5,0",
    "stars": null,
    "number_of_reviews": null,
    "price_level": "",
    "open_hours": "",
    "extraction_timestamp": "2025-06-07T16:22:55.747Z",
    "source_name": "google",
    "source_query": "Irrigation Equipment",
    "source_country": "IT",
    "country": "Italy",
    "state": "Emilia-Romagna",
    "city": "Fiorenzuola d'Arda"
  },
  {
    "source_id": "ChIJzcFQMxQkgEcRn-wZrxhX9_E",
    "name": "Omv Officine Meccaniche",
    "category": "Omv Officine Meccaniche",
    "formatted_address": "4,3(26)",
    "phone_number": "+390522831361",
    "source_url": "https://www.google.com/maps/place/Omv+Officine+Meccaniche/data=!4m7!3m6!1s0x478024143350c1cd:0xf1f75718af19ec9f!8m2!3d44.8935027!4d10.6517664!16s%2Fg%2F1td5q3gq!19sChIJzcFQMxQkgEcRn-wZrxhX9_E?authuser=0&hl=tr&rclk=1",
    "website_url": "http://www.omve.it/",
    "rating_text": "4,3",
    "stars": null,
    "number_of_reviews": null,
    "price_level": "",
    "open_hours": "",
    "extraction_timestamp": "2025-06-07T16:22:55.748Z",
    "source_name": "google",
    "source_query": "Irrigation Equipment",
    "source_country": "IT",
    "country": "Italy",
    "state": "Emilia-Romagna",
    "city": "Fiorenzuola d'Arda"
  }
]
