[
  {
    "source_id": "ChIJo0J9nUVZKxMR3ibePr57m6s",
    "name": "Cappelletti Vanni Ferramenta s.r.l.",
    "category": "Cappelletti Vanni Ferramenta s.r.l.",
    "formatted_address": "4,5(31)",
    "phone_number": "+390543940755",
    "source_url": "https://www.google.com/maps/place/Cappelletti+Vanni+Ferramenta+s.r.l./data=!4m7!3m6!1s0x132b59459d7d42a3:0xab9b7bbe3ede26de!8m2!3d44.1547191!4d11.99488!16s%2Fg%2F1hc3wbznb!19sChIJo0J9nUVZKxMR3ibePr57m6s?authuser=0&hl=tr&rclk=1",
    "website_url": "",
    "rating_text": "4,5",
    "stars": null,
    "number_of_reviews": null,
    "price_level": "",
    "open_hours": "",
    "extraction_timestamp": "2025-06-07T15:50:18.128Z",
    "source_name": "google",
    "source_query": "Irrigation Equipment",
    "source_country": "IT",
    "country": "Italy",
    "state": "Emilia-Romagna",
    "city": "Fiumana"
  },
  {
    "source_id": "ChIJKXlL1y_1LBMRWKZy2Kocweo",
    "name": "Idrofoglia s.r.l.",
    "category": "Idrofoglia s.r.l.",
    "formatted_address": "4,7(81)",
    "phone_number": "+390722700311",
    "source_url": "https://www.google.com/maps/place/Idrofoglia+s.r.l./data=!4m7!3m6!1s0x132cf52fd74b7929:0xeac11caad872a658!8m2!3d43.735361!4d12.4430347!16s%2Fg%2F1w0dk464!19sChIJKXlL1y_1LBMRWKZy2Kocweo?authuser=0&hl=tr&rclk=1",
    "website_url": "http://www.idrofoglia.it/",
    "rating_text": "4,7",
    "stars": null,
    "number_of_reviews": null,
    "price_level": "",
    "open_hours": "",
    "extraction_timestamp": "2025-06-07T15:50:18.129Z",
    "source_name": "google",
    "source_query": "Irrigation Equipment",
    "source_country": "IT",
    "country": "Italy",
    "state": "Emilia-Romagna",
    "city": "Fiumana"
  },
  {
    "source_id": "ChIJy4AVn9C-LBMRn6nsnuZl82A",
    "name": "Ramilli Irrigazioni S.R.L.",
    "category": "Ramilli Irrigazioni S.R.L.",
    "formatted_address": "4,3(52)",
    "phone_number": "+390541945335",
    "source_url": "https://www.google.com/maps/place/Ramilli+Irrigazioni+S.R.L./data=!4m7!3m6!1s0x132cbed09f1580cb:0x60f365e69eeca99f!8m2!3d44.0923156!4d12.3843691!16s%2Fg%2F1ts2ls1r!19sChIJy4AVn9C-LBMRn6nsnuZl82A?authuser=0&hl=tr&rclk=1",
    "website_url": "https://www.ramilli.it/",
    "rating_text": "4,3",
    "stars": null,
    "number_of_reviews": null,
    "price_level": "",
    "open_hours": "",
    "extraction_timestamp": "2025-06-07T15:50:18.129Z",
    "source_name": "google",
    "source_query": "Irrigation Equipment",
    "source_country": "IT",
    "country": "Italy",
    "state": "Emilia-Romagna",
    "city": "Fiumana"
  },
  {
    "source_id": "ChIJcQG6ul7df0cR3VxKiu5OPBs",
    "name": "Scova Impianti Srl",
    "category": "Scova Impianti Srl",
    "formatted_address": "4,5(64)",
    "phone_number": "+39059923202",
    "source_url": "https://www.google.com/maps/place/Scova+Impianti+Srl/data=!4m7!3m6!1s0x477fdd5ebaba0171:0x1b3c4eee8a4a5cdd!8m2!3d44.6018135!4d11.032294!16s%2Fg%2F1tfzwbfb!19sChIJcQG6ul7df0cR3VxKiu5OPBs?authuser=0&hl=tr&rclk=1",
    "website_url": "https://www.scovaimpianti.com/",
    "rating_text": "4,5",
    "stars": null,
    "number_of_reviews": null,
    "price_level": "",
    "open_hours": "",
    "extraction_timestamp": "2025-06-07T15:50:18.130Z",
    "source_name": "google",
    "source_query": "Irrigation Equipment",
    "source_country": "IT",
    "country": "Italy",
    "state": "Emilia-Romagna",
    "city": "Fiumana"
  },
  {
    "source_id": "ChIJfSkupGpZKxMR5SatBSaqWVw",
    "name": "Stemar Srl",
    "category": "Stemar Srl",
    "formatted_address": "4,3(4)",
    "phone_number": "+390543488793",
    "source_url": "https://www.google.com/maps/place/Stemar+Srl/data=!4m7!3m6!1s0x132b596aa42e297d:0x5c59aa2605ad26e5!8m2!3d44.1535981!4d11.9941078!16s%2Fg%2F1tj5svzj!19sChIJfSkupGpZKxMR5SatBSaqWVw?authuser=0&hl=tr&rclk=1",
    "website_url": "",
    "rating_text": "4,3",
    "stars": null,
    "number_of_reviews": null,
    "price_level": "",
    "open_hours": "",
    "extraction_timestamp": "2025-06-07T15:50:18.130Z",
    "source_name": "google",
    "source_query": "Irrigation Equipment",
    "source_country": "IT",
    "country": "Italy",
    "state": "Emilia-Romagna",
    "city": "Fiumana"
  },
  {
    "source_id": "ChIJFW3XPJejLBMRDpQWGwmYqU4",
    "name": "Raggini Irrigazioni e Robot Tosaerba",
    "category": "Raggini Irrigazioni e Robot Tosaerba",
    "formatted_address": "5,0(1)",
    "phone_number": "+393926808947",
    "source_url": "https://www.google.com/maps/place/Raggini+Irrigazioni+e+Robot+Tosaerba/data=!4m7!3m6!1s0x132ca3973cd76d15:0x4ea998091b16940e!8m2!3d44.36369!4d11.8460774!16s%2Fg%2F11dz0bbs9t!19sChIJFW3XPJejLBMRDpQWGwmYqU4?authuser=0&hl=tr&rclk=1",
    "website_url": "",
    "rating_text": "5,0",
    "stars": null,
    "number_of_reviews": null,
    "price_level": "",
    "open_hours": "",
    "extraction_timestamp": "2025-06-07T15:50:18.131Z",
    "source_name": "google",
    "source_query": "Irrigation Equipment",
    "source_country": "IT",
    "country": "Italy",
    "state": "Emilia-Romagna",
    "city": "Fiumana"
  }
]
