[
  {
    "source_id": "ChIJkc613i2mLBMRwosfqr0C34Y",
    "name": "Vallicelli Germano",
    "category": "Vallicelli Germano",
    "formatted_address": "3,8(5)",
    "phone_number": "+390543741286",
    "source_url": "https://www.google.com/maps/place/Vallicelli+Germano/data=!4m7!3m6!1s0x132ca62ddeb5ce91:0x86df02bdaa1f8bc2!8m2!3d44.2009196!4d12.1227395!16s%2Fg%2F1xgt_9xl!19sChIJkc613i2mLBMRwosfqr0C34Y?authuser=0&hl=tr&rclk=1",
    "website_url": "",
    "rating_text": "3,8",
    "stars": null,
    "number_of_reviews": null,
    "price_level": "",
    "open_hours": "",
    "extraction_timestamp": "2025-06-07T16:21:04.859Z",
    "source_name": "google",
    "source_query": "Irrigation Equipment",
    "source_country": "IT",
    "country": "Italy",
    "state": "Emilia-Romagna",
    "city": "Forlimpopoli"
  },
  {
    "source_id": "ChIJFW3XPJejLBMRDpQWGwmYqU4",
    "name": "Raggini Irrigazioni e Robot Tosaerba",
    "category": "Raggini Irrigazioni e Robot Tosaerba",
    "formatted_address": "5,0(1)",
    "phone_number": "+393926808947",
    "source_url": "https://www.google.com/maps/place/Raggini+Irrigazioni+e+Robot+Tosaerba/data=!4m7!3m6!1s0x132ca3973cd76d15:0x4ea998091b16940e!8m2!3d44.36369!4d11.8460774!16s%2Fg%2F11dz0bbs9t!19sChIJFW3XPJejLBMRDpQWGwmYqU4?authuser=0&hl=tr&rclk=1",
    "website_url": "",
    "rating_text": "5,0",
    "stars": null,
    "number_of_reviews": null,
    "price_level": "",
    "open_hours": "",
    "extraction_timestamp": "2025-06-07T16:21:04.861Z",
    "source_name": "google",
    "source_query": "Irrigation Equipment",
    "source_country": "IT",
    "country": "Italy",
    "state": "Emilia-Romagna",
    "city": "Forlimpopoli"
  },
  {
    "source_id": "ChIJryludc-nLBMREvi4CKaHSZk",
    "name": "Sport Service Srl",
    "category": "Sport Service Srl",
    "formatted_address": "4,4(375)",
    "phone_number": "+390543744535",
    "source_url": "https://www.google.com/maps/place/Sport+Service+Srl/data=!4m7!3m6!1s0x132ca7cf756e29af:0x994987a608b8f812!8m2!3d44.1941731!4d12.1072893!16s%2Fg%2F1td8f9x5!19sChIJryludc-nLBMREvi4CKaHSZk?authuser=0&hl=tr&rclk=1",
    "website_url": "",
    "rating_text": "4,4",
    "stars": null,
    "number_of_reviews": null,
    "price_level": "",
    "open_hours": "",
    "extraction_timestamp": "2025-06-07T16:21:04.862Z",
    "source_name": "google",
    "source_query": "Irrigation Equipment",
    "source_country": "IT",
    "country": "Italy",
    "state": "Emilia-Romagna",
    "city": "Forlimpopoli"
  },
  {
    "source_id": "ChIJxwyfbMW-LBMR82ivWDKLyak",
    "name": "Campedelli srl",
    "category": "Campedelli srl",
    "formatted_address": "4,3(20)",
    "phone_number": "+390541945180",
    "source_url": "https://www.google.com/maps/place/Campedelli+srl/data=!4m7!3m6!1s0x132cbec56c9f0cc7:0xa9c98b3258af68f3!8m2!3d44.0913771!4d12.3790216!16s%2Fg%2F1td55wfn!19sChIJxwyfbMW-LBMR82ivWDKLyak?authuser=0&hl=tr&rclk=1",
    "website_url": "",
    "rating_text": "4,3",
    "stars": null,
    "number_of_reviews": null,
    "price_level": "",
    "open_hours": "",
    "extraction_timestamp": "2025-06-07T16:21:04.863Z",
    "source_name": "google",
    "source_query": "Irrigation Equipment",
    "source_country": "IT",
    "country": "Italy",
    "state": "Emilia-Romagna",
    "city": "Forlimpopoli"
  },
  {
    "source_id": "ChIJV8Tw2BWoLBMRUiDGfGmgW6Q",
    "name": "Celli SpA",
    "category": "Celli SpA",
    "formatted_address": "4,4(53)",
    "phone_number": "+390543794711",
    "source_url": "https://www.google.com/maps/place/Celli+SpA/data=!4m7!3m6!1s0x132ca815d8f0c457:0xa45ba0697cc62052!8m2!3d44.2283973!4d12.0864124!16s%2Fg%2F12hm98f70!19sChIJV8Tw2BWoLBMRUiDGfGmgW6Q?authuser=0&hl=tr&rclk=1",
    "website_url": "",
    "rating_text": "4,4",
    "stars": null,
    "number_of_reviews": null,
    "price_level": "",
    "open_hours": "",
    "extraction_timestamp": "2025-06-07T16:21:04.865Z",
    "source_name": "google",
    "source_query": "Irrigation Equipment",
    "source_country": "IT",
    "country": "Italy",
    "state": "Emilia-Romagna",
    "city": "Forlimpopoli"
  },
  {
    "source_id": "ChIJy4AVn9C-LBMRn6nsnuZl82A",
    "name": "Ramilli Irrigazioni S.R.L.",
    "category": "Ramilli Irrigazioni S.R.L.",
    "formatted_address": "4,3(52)",
    "phone_number": "+390541945335",
    "source_url": "https://www.google.com/maps/place/Ramilli+Irrigazioni+S.R.L./data=!4m7!3m6!1s0x132cbed09f1580cb:0x60f365e69eeca99f!8m2!3d44.0923156!4d12.3843691!16s%2Fg%2F1ts2ls1r!19sChIJy4AVn9C-LBMRn6nsnuZl82A?authuser=0&hl=tr&rclk=1",
    "website_url": "",
    "rating_text": "4,3",
    "stars": null,
    "number_of_reviews": null,
    "price_level": "",
    "open_hours": "",
    "extraction_timestamp": "2025-06-07T16:21:04.866Z",
    "source_name": "google",
    "source_query": "Irrigation Equipment",
    "source_country": "IT",
    "country": "Italy",
    "state": "Emilia-Romagna",
    "city": "Forlimpopoli"
  },
  {
    "source_id": "ChIJ6Zp-lkumLBMR1FT6PtUGAM0",
    "name": "Rossi Sauro | Negozio di Mangimi, Sementi, Cereali",
    "category": "Rossi Sauro | Negozio di Mangimi, Sementi, Cereali",
    "formatted_address": "Rossi Sauro | Negozio di Mangimi, Sementi, Cereali",
    "phone_number": "+390543742135",
    "source_url": "https://www.google.com/maps/place/Rossi+Sauro+%7C+Negozio+di+Mangimi,+Sementi,+Cereali/data=!4m7!3m6!1s0x132ca64b967e9ae9:0xcd0006d53efa54d4!8m2!3d44.1858711!4d12.1248549!16s%2Fg%2F1tfwgmjj!19sChIJ6Zp-lkumLBMR1FT6PtUGAM0?authuser=0&hl=tr&rclk=1",
    "website_url": "",
    "rating_text": "4,8",
    "stars": null,
    "number_of_reviews": null,
    "price_level": "",
    "open_hours": "",
    "extraction_timestamp": "2025-06-07T16:21:04.867Z",
    "source_name": "google",
    "source_query": "Irrigation Equipment",
    "source_country": "IT",
    "country": "Italy",
    "state": "Emilia-Romagna",
    "city": "Forlimpopoli"
  },
  {
    "source_id": "ChIJhRaJyjJXKxMR6i4Y72gCAKs",
    "name": "Bagioni Archimede - Husqvarna Professional",
    "category": "Bagioni Archimede - Husqvarna Professional",
    "formatted_address": "4,4(131)",
    "phone_number": "+390543756178",
    "source_url": "https://www.google.com/maps/place/Bagioni+Archimede+-+Husqvarna+Professional/data=!4m7!3m6!1s0x132b5732ca891685:0xab000268ef182eea!8m2!3d44.246768!4d11.980808!16s%2Fg%2F1tk5ql95!19sChIJhRaJyjJXKxMR6i4Y72gCAKs?authuser=0&hl=tr&rclk=1",
    "website_url": "",
    "rating_text": "4,4",
    "stars": null,
    "number_of_reviews": null,
    "price_level": "",
    "open_hours": "",
    "extraction_timestamp": "2025-06-07T16:21:04.868Z",
    "source_name": "google",
    "source_query": "Irrigation Equipment",
    "source_country": "IT",
    "country": "Italy",
    "state": "Emilia-Romagna",
    "city": "Forlimpopoli"
  },
  {
    "source_id": "ChIJh3Nd8G0sfkcR_m7VewEmxXM",
    "name": "Irrigarden",
    "category": "Irrigarden",
    "formatted_address": "4,7(158)",
    "phone_number": "+39051782013",
    "source_url": "https://www.google.com/maps/place/Irrigarden/data=!4m7!3m6!1s0x477e2c6df05d7387:0x73c526017bd56efe!8m2!3d44.5096266!4d11.4390897!16s%2Fg%2F1vgw_l7w!19sChIJh3Nd8G0sfkcR_m7VewEmxXM?authuser=0&hl=tr&rclk=1",
    "website_url": "",
    "rating_text": "4,7",
    "stars": null,
    "number_of_reviews": null,
    "price_level": "",
    "open_hours": "",
    "extraction_timestamp": "2025-06-07T16:21:04.869Z",
    "source_name": "google",
    "source_query": "Irrigation Equipment",
    "source_country": "IT",
    "country": "Italy",
    "state": "Emilia-Romagna",
    "city": "Forlimpopoli"
  },
  {
    "source_id": "ChIJ2ZCgtnNXKxMRvE4eP6gKPu8",
    "name": "Bagioni Alfiero Snc Di Bagioni Aurenzo E Antonella",
    "category": "Bagioni Alfiero Snc Di Bagioni Aurenzo E Antonella",
    "formatted_address": "4,6(78)",
    "phone_number": "+390543703993",
    "source_url": "https://www.google.com/maps/place/Bagioni+Alfiero+Snc+Di+Bagioni+Aurenzo+E+Antonella/data=!4m7!3m6!1s0x132b5773b6a090d9:0xef3e0aa83f1e4ebc!8m2!3d44.2312246!4d12.0185019!16s%2Fg%2F11bc7t932x!19sChIJ2ZCgtnNXKxMRvE4eP6gKPu8?authuser=0&hl=tr&rclk=1",
    "website_url": "",
    "rating_text": "4,6",
    "stars": null,
    "number_of_reviews": null,
    "price_level": "",
    "open_hours": "",
    "extraction_timestamp": "2025-06-07T16:21:04.870Z",
    "source_name": "google",
    "source_query": "Irrigation Equipment",
    "source_country": "IT",
    "country": "Italy",
    "state": "Emilia-Romagna",
    "city": "Forlimpopoli"
  },
  {
    "source_id": "ChIJQ8fJol1SKxMRShirn3slxH4",
    "name": "Tecnir",
    "category": "Tecnir",
    "formatted_address": "4,4(17)",
    "phone_number": "+390546641026",
    "source_url": "https://www.google.com/maps/place/Tecnir/data=!4m7!3m6!1s0x132b525da2c9c743:0x7ec4257b9fab184a!8m2!3d44.363732!4d11.935557!16s%2Fg%2F1vfps_3m!19sChIJQ8fJol1SKxMRShirn3slxH4?authuser=0&hl=tr&rclk=1",
    "website_url": "",
    "rating_text": "4,4",
    "stars": null,
    "number_of_reviews": null,
    "price_level": "",
    "open_hours": "",
    "extraction_timestamp": "2025-06-07T16:21:04.871Z",
    "source_name": "google",
    "source_query": "Irrigation Equipment",
    "source_country": "IT",
    "country": "Italy",
    "state": "Emilia-Romagna",
    "city": "Forlimpopoli"
  },
  {
    "source_id": "ChIJY1R1ZVanLBMRrido_lFvHGA",
    "name": "UP.Bo srls",
    "category": "UP.Bo srls",
    "formatted_address": "Yüzme Havuzu Onarım Servisi · Via Duca d'Aosta, 7+39 348 336 1398",
    "phone_number": "+393483361398",
    "source_url": "https://www.google.com/maps/place/UP.Bo+srls/data=!4m7!3m6!1s0x132ca75665755463:0x601c6f51fe6827ae!8m2!3d44.1870385!4d12.1280743!16s%2Fg%2F11x18b9l_l!19sChIJY1R1ZVanLBMRrido_lFvHGA?authuser=0&hl=tr&rclk=1",
    "website_url": "",
    "rating_text": "",
    "stars": null,
    "number_of_reviews": null,
    "price_level": "",
    "open_hours": "",
    "extraction_timestamp": "2025-06-07T16:21:04.872Z",
    "source_name": "google",
    "source_query": "Irrigation Equipment",
    "source_country": "IT",
    "country": "Italy",
    "state": "Emilia-Romagna",
    "city": "Forlimpopoli"
  },
  {
    "source_id": "ChIJbe6-WOFXKxMRK2ggb9TRbow",
    "name": "Idro Zeta - Magazzino - Forlì",
    "category": "Idro Zeta - Magazzino - Forlì",
    "formatted_address": "4,2(42)",
    "phone_number": "+390543802711",
    "source_url": "https://www.google.com/maps/place/Idro+Zeta+-+Magazzino+-+Forl%C3%AC/data=!4m7!3m6!1s0x132b57e158beee6d:0x8c6ed1d46f20682b!8m2!3d44.2230296!4d12.0695581!16s%2Fg%2F1hhwshbhd!19sChIJbe6-WOFXKxMRK2ggb9TRbow?authuser=0&hl=tr&rclk=1",
    "website_url": "",
    "rating_text": "4,2",
    "stars": null,
    "number_of_reviews": null,
    "price_level": "",
    "open_hours": "",
    "extraction_timestamp": "2025-06-07T16:21:04.873Z",
    "source_name": "google",
    "source_query": "Irrigation Equipment",
    "source_country": "IT",
    "country": "Italy",
    "state": "Emilia-Romagna",
    "city": "Forlimpopoli"
  },
  {
    "source_id": "ChIJt54IWhSrLBMR9tBQnwC-ksQ",
    "name": "Il Giardino di Antonio",
    "category": "Il Giardino di Antonio",
    "formatted_address": "4,9(9)",
    "phone_number": "+393297207863",
    "source_url": "https://www.google.com/maps/place/Il+Giardino+di+Antonio/data=!4m7!3m6!1s0x132cab145a089eb7:0xc492be009f50d0f6!8m2!3d44.2864799!4d12.0822383!16s%2Fg%2F11lkc3936j!19sChIJt54IWhSrLBMR9tBQnwC-ksQ?authuser=0&hl=tr&rclk=1",
    "website_url": "",
    "rating_text": "4,9",
    "stars": null,
    "number_of_reviews": null,
    "price_level": "",
    "open_hours": "",
    "extraction_timestamp": "2025-06-07T16:21:04.875Z",
    "source_name": "google",
    "source_query": "Irrigation Equipment",
    "source_country": "IT",
    "country": "Italy",
    "state": "Emilia-Romagna",
    "city": "Forlimpopoli"
  },
  {
    "source_id": "ChIJ_c9PJTSmLBMR0YOBxi6bFbU",
    "name": "Idroclima Di Flamigni Rudi",
    "category": "Idroclima Di Flamigni Rudi",
    "formatted_address": "5,0(6)",
    "phone_number": "+393472423587",
    "source_url": "https://www.google.com/maps/place/Idroclima+Di+Flamigni+Rudi/data=!4m7!3m6!1s0x132ca634254fcffd:0xb5159b2ec68183d1!8m2!3d44.178213!4d12.1188937!16s%2Fg%2F1td8n0qt!19sChIJ_c9PJTSmLBMR0YOBxi6bFbU?authuser=0&hl=tr&rclk=1",
    "website_url": "",
    "rating_text": "5,0",
    "stars": null,
    "number_of_reviews": null,
    "price_level": "",
    "open_hours": "",
    "extraction_timestamp": "2025-06-07T16:21:04.876Z",
    "source_name": "google",
    "source_query": "Irrigation Equipment",
    "source_country": "IT",
    "country": "Italy",
    "state": "Emilia-Romagna",
    "city": "Forlimpopoli"
  },
  {
    "source_id": "ChIJIZ--0Hu7LBMRsAwRWW9yZP8",
    "name": "Irritalia Di Vecchi Andrea & C. S.N.C.",
    "category": "Irritalia Di Vecchi Andrea & C. S.N.C.",
    "formatted_address": "Üretici ·  · Via Archimede, 200Kapalı ⋅ Açılış zamanı: Pzt 08:00 · +39 0547 301569",
    "phone_number": "+390547301569",
    "source_url": "https://www.google.com/maps/place/Irritalia+Di+Vecchi+Andrea+%26+C.+S.N.C./data=!4m7!3m6!1s0x132cbb7bd0be9f21:0xff64726f59110cb0!8m2!3d44.1175203!4d12.2941807!16s%2Fg%2F1th2n8t5!19sChIJIZ--0Hu7LBMRsAwRWW9yZP8?authuser=0&hl=tr&rclk=1",
    "website_url": "",
    "rating_text": "",
    "stars": null,
    "number_of_reviews": null,
    "price_level": "",
    "open_hours": "",
    "extraction_timestamp": "2025-06-07T16:21:04.877Z",
    "source_name": "google",
    "source_query": "Irrigation Equipment",
    "source_country": "IT",
    "country": "Italy",
    "state": "Emilia-Romagna",
    "city": "Forlimpopoli"
  },
  {
    "source_id": "ChIJvzWrxzWmLBMR19jgAWjZhf8",
    "name": "Despar - Matteini",
    "category": "Despar - Matteini",
    "formatted_address": "4,5(470) · ₺₺",
    "phone_number": "+390543742458",
    "source_url": "https://www.google.com/maps/place/Despar+-+Matteini/data=!4m7!3m6!1s0x132ca635c7ab35bf:0xff85d96801e0d8d7!8m2!3d44.1875264!4d12.1219101!16s%2Fg%2F1hc84h_wk!19sChIJvzWrxzWmLBMR19jgAWjZhf8?authuser=0&hl=tr&rclk=1",
    "website_url": "",
    "rating_text": "4,5",
    "stars": null,
    "number_of_reviews": null,
    "price_level": "",
    "open_hours": "",
    "extraction_timestamp": "2025-06-07T16:21:04.878Z",
    "source_name": "google",
    "source_query": "Irrigation Equipment",
    "source_country": "IT",
    "country": "Italy",
    "state": "Emilia-Romagna",
    "city": "Forlimpopoli"
  },
  {
    "source_id": "ChIJZ4wzKEqmLBMRl5LZDsj_oxg",
    "name": "Morgagni Casalinghi - Cucina e Fantasia",
    "category": "Morgagni Casalinghi - Cucina e Fantasia",
    "formatted_address": "4,7(130)",
    "phone_number": "+390543741451",
    "source_url": "https://www.google.com/maps/place/Morgagni+Casalinghi+-+Cucina+e+Fantasia/data=!4m7!3m6!1s0x132ca64a28338c67:0x18a3ffc80ed99297!8m2!3d44.1839263!4d12.1231961!16s%2Fg%2F11c554qfc2!19sChIJZ4wzKEqmLBMRl5LZDsj_oxg?authuser=0&hl=tr&rclk=1",
    "website_url": "",
    "rating_text": "4,7",
    "stars": null,
    "number_of_reviews": null,
    "price_level": "",
    "open_hours": "",
    "extraction_timestamp": "2025-06-07T16:21:04.879Z",
    "source_name": "google",
    "source_query": "Irrigation Equipment",
    "source_country": "IT",
    "country": "Italy",
    "state": "Emilia-Romagna",
    "city": "Forlimpopoli"
  },
  {
    "source_id": "ChIJlfD2RTamLBMRJcAO5u28ZY4",
    "name": "Erboristeria La Mandragola Forlimpopoli",
    "category": "Erboristeria La Mandragola Forlimpopoli",
    "formatted_address": "4,8(55)",
    "phone_number": "+390543745217",
    "source_url": "https://www.google.com/maps/place/Erboristeria+La+Mandragola+Forlimpopoli/data=!4m7!3m6!1s0x132ca63645f6f095:0x8e65bcede60ec025!8m2!3d44.1873874!4d12.1255824!16s%2Fg%2F1th46b7h!19sChIJlfD2RTamLBMRJcAO5u28ZY4?authuser=0&hl=tr&rclk=1",
    "website_url": "",
    "rating_text": "4,8",
    "stars": null,
    "number_of_reviews": null,
    "price_level": "",
    "open_hours": "",
    "extraction_timestamp": "2025-06-07T16:21:04.880Z",
    "source_name": "google",
    "source_query": "Irrigation Equipment",
    "source_country": "IT",
    "country": "Italy",
    "state": "Emilia-Romagna",
    "city": "Forlimpopoli"
  },
  {
    "source_id": "ChIJJQp9FTamLBMRwpYYiW8LM44",
    "name": "Robinson Pet Shop - Forlimpopoli",
    "category": "Robinson Pet Shop - Forlimpopoli",
    "formatted_address": "4,5(189)",
    "phone_number": "+390543742663",
    "source_url": "https://www.google.com/maps/place/Robinson+Pet+Shop+-+Forlimpopoli/data=!4m7!3m6!1s0x132ca636157d0a25:0x8e330b6f891896c2!8m2!3d44.1865054!4d12.1246212!16s%2Fg%2F1vff2n_p!19sChIJJQp9FTamLBMRwpYYiW8LM44?authuser=0&hl=tr&rclk=1",
    "website_url": "",
    "rating_text": "4,5",
    "stars": null,
    "number_of_reviews": null,
    "price_level": "",
    "open_hours": "",
    "extraction_timestamp": "2025-06-07T16:21:04.882Z",
    "source_name": "google",
    "source_query": "Irrigation Equipment",
    "source_country": "IT",
    "country": "Italy",
    "state": "Emilia-Romagna",
    "city": "Forlimpopoli"
  },
  {
    "source_id": "ChIJyXgg68QrfkcRAaJCOMJ3PxY",
    "name": "hidrisistem",
    "category": "hidrisistem",
    "formatted_address": "5,0(1)",
    "phone_number": "+39366448310824",
    "source_url": "https://www.google.com/maps/place/hidrisistem/data=!4m7!3m6!1s0x477e2bc4eb2078c9:0x163f77c23842a201!8m2!3d44.496029!4d11.402638!16s%2Fg%2F11w_zjhjy3!19sChIJyXgg68QrfkcRAaJCOMJ3PxY?authuser=0&hl=tr&rclk=1",
    "website_url": "",
    "rating_text": "5,0",
    "stars": null,
    "number_of_reviews": null,
    "price_level": "",
    "open_hours": "",
    "extraction_timestamp": "2025-06-07T16:21:04.883Z",
    "source_name": "google",
    "source_query": "Irrigation Equipment",
    "source_country": "IT",
    "country": "Italy",
    "state": "Emilia-Romagna",
    "city": "Forlimpopoli"
  },
  {
    "source_id": "ChIJ9_8WpdukLBMRe5VYewingpI",
    "name": "Wonderfil Srl",
    "category": "Wonderfil Srl",
    "formatted_address": "5,0(6)",
    "phone_number": "+3905471825765",
    "source_url": "https://www.google.com/maps/place/Wonderfil+Srl/data=!4m7!3m6!1s0x132ca4dba516fff7:0x9282a7087b58957b!8m2!3d44.1300657!4d12.2759086!16s%2Fg%2F11h35pg5s7!19sChIJ9_8WpdukLBMRe5VYewingpI?authuser=0&hl=tr&rclk=1",
    "website_url": "",
    "rating_text": "5,0",
    "stars": null,
    "number_of_reviews": null,
    "price_level": "",
    "open_hours": "",
    "extraction_timestamp": "2025-06-07T16:21:04.884Z",
    "source_name": "google",
    "source_query": "Irrigation Equipment",
    "source_country": "IT",
    "country": "Italy",
    "state": "Emilia-Romagna",
    "city": "Forlimpopoli"
  },
  {
    "source_id": "ChIJAe7_5SKoLBMRrrEmsAWatbY",
    "name": "Romagna Fissaggi",
    "category": "Romagna Fissaggi",
    "formatted_address": "4,8(15)",
    "phone_number": "+390543091323",
    "source_url": "https://www.google.com/maps/place/Romagna+Fissaggi/data=!4m7!3m6!1s0x132ca822e5ffee01:0xb6b59a05b026b1ae!8m2!3d44.2304278!4d12.0823148!16s%2Fg%2F11c6yzgdh_!19sChIJAe7_5SKoLBMRrrEmsAWatbY?authuser=0&hl=tr&rclk=1",
    "website_url": "",
    "rating_text": "4,8",
    "stars": null,
    "number_of_reviews": null,
    "price_level": "",
    "open_hours": "",
    "extraction_timestamp": "2025-06-07T16:21:04.885Z",
    "source_name": "google",
    "source_query": "Irrigation Equipment",
    "source_country": "IT",
    "country": "Italy",
    "state": "Emilia-Romagna",
    "city": "Forlimpopoli"
  },
  {
    "source_id": "ChIJfVN3C2tXKxMRMz0h-hzaNhA",
    "name": "Non Solo Acqua",
    "category": "Non Solo Acqua",
    "formatted_address": "3,3(9)",
    "phone_number": "+390547632868",
    "source_url": "https://www.google.com/maps/place/Non+Solo+Acqua/data=!4m7!3m6!1s0x132b576b0b77537d:0x1036da1cfa213d33!8m2!3d44.153782!4d12.249529!16s%2Fg%2F11h8mr0byg!19sChIJfVN3C2tXKxMRMz0h-hzaNhA?authuser=0&hl=tr&rclk=1",
    "website_url": "",
    "rating_text": "3,3",
    "stars": null,
    "number_of_reviews": null,
    "price_level": "",
    "open_hours": "",
    "extraction_timestamp": "2025-06-07T16:21:04.887Z",
    "source_name": "google",
    "source_query": "Irrigation Equipment",
    "source_country": "IT",
    "country": "Italy",
    "state": "Emilia-Romagna",
    "city": "Forlimpopoli"
  },
  {
    "source_id": "ChIJ6V_bZG65LBMR6_qD8NNIQ0A",
    "name": "Mazzoni Massimo Srl",
    "category": "Mazzoni Massimo Srl",
    "formatted_address": "4,6(92)",
    "phone_number": "+39054788260",
    "source_url": "https://www.google.com/maps/place/Mazzoni+Massimo+Srl/data=!4m7!3m6!1s0x132cb96e64db5fe9:0x404348d3f083faeb!8m2!3d44.1299616!4d12.3628702!16s%2Fg%2F11c5xv4rdg!19sChIJ6V_bZG65LBMR6_qD8NNIQ0A?authuser=0&hl=tr&rclk=1",
    "website_url": "",
    "rating_text": "4,6",
    "stars": null,
    "number_of_reviews": null,
    "price_level": "",
    "open_hours": "",
    "extraction_timestamp": "2025-06-07T16:21:04.888Z",
    "source_name": "google",
    "source_query": "Irrigation Equipment",
    "source_country": "IT",
    "country": "Italy",
    "state": "Emilia-Romagna",
    "city": "Forlimpopoli"
  },
  {
    "source_id": "ChIJh9TYeHNSKxMRxooX4S6Ni2U",
    "name": "LEPRI POMPE S.R.L.",
    "category": "LEPRI POMPE S.R.L.",
    "formatted_address": "4,8(19)",
    "phone_number": "+39054646257",
    "source_url": "https://www.google.com/maps/place/LEPRI+POMPE+S.R.L./data=!4m7!3m6!1s0x132b527378d8d487:0x658b8d2ee1178ac6!8m2!3d44.3239334!4d11.8952572!16s%2Fg%2F1tcyn4xv!19sChIJh9TYeHNSKxMRxooX4S6Ni2U?authuser=0&hl=tr&rclk=1",
    "website_url": "",
    "rating_text": "4,8",
    "stars": null,
    "number_of_reviews": null,
    "price_level": "",
    "open_hours": "",
    "extraction_timestamp": "2025-06-07T16:21:04.889Z",
    "source_name": "google",
    "source_query": "Irrigation Equipment",
    "source_country": "IT",
    "country": "Italy",
    "state": "Emilia-Romagna",
    "city": "Forlimpopoli"
  },
  {
    "source_id": "ChIJIUt-IhqoLBMRtz1N8N5iFhI",
    "name": "Visani Idrosanitari - Magazzino",
    "category": "Visani Idrosanitari - Magazzino",
    "formatted_address": "4,5(95)",
    "phone_number": "+390543796651",
    "source_url": "https://www.google.com/maps/place/Visani+Idrosanitari+-+Magazzino/data=!4m7!3m6!1s0x132ca81a227e4b21:0x121662def04d3db7!8m2!3d44.2228204!4d12.0813478!16s%2Fg%2F11bc7r6d16!19sChIJIUt-IhqoLBMRtz1N8N5iFhI?authuser=0&hl=tr&rclk=1",
    "website_url": "",
    "rating_text": "4,5",
    "stars": null,
    "number_of_reviews": null,
    "price_level": "",
    "open_hours": "",
    "extraction_timestamp": "2025-06-07T16:21:04.890Z",
    "source_name": "google",
    "source_query": "Irrigation Equipment",
    "source_country": "IT",
    "country": "Italy",
    "state": "Emilia-Romagna",
    "city": "Forlimpopoli"
  },
  {
    "source_id": "ChIJqQWR_wCqLBMRlbjqBJ6JaiQ",
    "name": "Ricci & Guardigli srl",
    "category": "Ricci & Guardigli srl",
    "formatted_address": "4,6(108)",
    "phone_number": "+390543477005",
    "source_url": "https://www.google.com/maps/place/Ricci+%26+Guardigli+srl/data=!4m7!3m6!1s0x132caa00ff9105a9:0x246a899e04eab895!8m2!3d44.2870063!4d12.0744724!16s%2Fg%2F1tfz73kd!19sChIJqQWR_wCqLBMRlbjqBJ6JaiQ?authuser=0&hl=tr&rclk=1",
    "website_url": "",
    "rating_text": "4,6",
    "stars": null,
    "number_of_reviews": null,
    "price_level": "",
    "open_hours": "",
    "extraction_timestamp": "2025-06-07T16:21:04.890Z",
    "source_name": "google",
    "source_query": "Irrigation Equipment",
    "source_country": "IT",
    "country": "Italy",
    "state": "Emilia-Romagna",
    "city": "Forlimpopoli"
  },
  {
    "source_id": "ChIJJ4mVkBioLBMRd70sIf-0ybw",
    "name": "Tecnicaf Srl",
    "category": "Tecnicaf Srl",
    "formatted_address": "4,2(10)",
    "phone_number": "+390543724433",
    "source_url": "https://www.google.com/maps/place/Tecnicaf+Srl/data=!4m7!3m6!1s0x132ca81890958927:0xbcc9b4ff212cbd77!8m2!3d44.2274641!4d12.0791925!16s%2Fg%2F11cn3plwwm!19sChIJJ4mVkBioLBMRd70sIf-0ybw?authuser=0&hl=tr&rclk=1",
    "website_url": "",
    "rating_text": "4,2",
    "stars": null,
    "number_of_reviews": null,
    "price_level": "",
    "open_hours": "",
    "extraction_timestamp": "2025-06-07T16:21:04.892Z",
    "source_name": "google",
    "source_query": "Irrigation Equipment",
    "source_country": "IT",
    "country": "Italy",
    "state": "Emilia-Romagna",
    "city": "Forlimpopoli"
  },
  {
    "source_id": "ChIJMaG-OgWlLBMR9aqq4v8hhz4",
    "name": "Idraulica Placucci Srl Cesena forniture termoidrauliche",
    "category": "Idraulica Placucci Srl Cesena forniture termoidrauliche",
    "formatted_address": "4,6(63)",
    "phone_number": "+390547312089",
    "source_url": "https://www.google.com/maps/place/Idraulica+Placucci+Srl+Cesena+forniture+termoidrauliche/data=!4m7!3m6!1s0x132ca5053abea131:0x3e8721ffe2aaaaf5!8m2!3d44.1652927!4d12.2199399!16s%2Fg%2F1tf91ylz!19sChIJMaG-OgWlLBMR9aqq4v8hhz4?authuser=0&hl=tr&rclk=1",
    "website_url": "",
    "rating_text": "4,6",
    "stars": null,
    "number_of_reviews": null,
    "price_level": "",
    "open_hours": "",
    "extraction_timestamp": "2025-06-07T16:21:04.892Z",
    "source_name": "google",
    "source_query": "Irrigation Equipment",
    "source_country": "IT",
    "country": "Italy",
    "state": "Emilia-Romagna",
    "city": "Forlimpopoli"
  }
]
