[
  {
    "source_id": "ChIJIUt-IhqoLBMRtz1N8N5iFhI",
    "name": "Visani Idrosanitari - Magazzino",
    "category": "Visani Idrosanitari - Magazzino",
    "formatted_address": "4,5(95)",
    "phone_number": "+390543796651",
    "source_url": "https://www.google.com/maps/place/Visani+Idrosanitari+-+Magazzino/data=!4m7!3m6!1s0x132ca81a227e4b21:0x121662def04d3db7!8m2!3d44.2228204!4d12.0813478!16s%2Fg%2F11bc7r6d16!19sChIJIUt-IhqoLBMRtz1N8N5iFhI?authuser=0&hl=tr&rclk=1",
    "website_url": "",
    "rating_text": "4,5",
    "stars": null,
    "number_of_reviews": null,
    "price_level": "",
    "open_hours": "",
    "extraction_timestamp": "2025-06-07T16:47:42.624Z",
    "source_name": "google",
    "source_query": "Irrigation Equipment",
    "source_country": "IT",
    "country": "Italy",
    "state": "Emilia-Romagna",
    "city": "Forlì"
  },
  {
    "source_id": "ChIJhRaJyjJXKxMR6i4Y72gCAKs",
    "name": "Bagioni Archimede - Husqvarna Professional",
    "category": "Bagioni Archimede - Husqvarna Professional",
    "formatted_address": "4,4(131)",
    "phone_number": "+390543756178",
    "source_url": "https://www.google.com/maps/place/Bagioni+Archimede+-+Husqvarna+Professional/data=!4m7!3m6!1s0x132b5732ca891685:0xab000268ef182eea!8m2!3d44.246768!4d11.980808!16s%2Fg%2F1tk5ql95!19sChIJhRaJyjJXKxMR6i4Y72gCAKs?authuser=0&hl=tr&rclk=1",
    "website_url": "",
    "rating_text": "4,4",
    "stars": null,
    "number_of_reviews": null,
    "price_level": "",
    "open_hours": "",
    "extraction_timestamp": "2025-06-07T16:47:42.626Z",
    "source_name": "google",
    "source_query": "Irrigation Equipment",
    "source_country": "IT",
    "country": "Italy",
    "state": "Emilia-Romagna",
    "city": "Forlì"
  },
  {
    "source_id": "ChIJ6ydr7jVYKxMRHY-zdPoGudQ",
    "name": "Molino Zampighi",
    "category": "Molino Zampighi",
    "formatted_address": "4,4(32)",
    "phone_number": "+39054386048",
    "source_url": "https://www.google.com/maps/place/Molino+Zampighi/data=!4m7!3m6!1s0x132b5835ee6b27eb:0xd4b906fa74b38f1d!8m2!3d44.1913816!4d12.0319455!16s%2Fg%2F12hlt4ckh!19sChIJ6ydr7jVYKxMRHY-zdPoGudQ?authuser=0&hl=tr&rclk=1",
    "website_url": "",
    "rating_text": "4,4",
    "stars": null,
    "number_of_reviews": null,
    "price_level": "",
    "open_hours": "",
    "extraction_timestamp": "2025-06-07T16:47:42.628Z",
    "source_name": "google",
    "source_query": "Irrigation Equipment",
    "source_country": "IT",
    "country": "Italy",
    "state": "Emilia-Romagna",
    "city": "Forlì"
  },
  {
    "source_id": "ChIJyVqlN_1XKxMR5QgiPCWjMZA",
    "name": "Fiorini Industries S.r.l.",
    "category": "Fiorini Industries S.r.l.",
    "formatted_address": "4,2(54)",
    "phone_number": "+390543723197",
    "source_url": "https://www.google.com/maps/place/Fiorini+Industries+S.r.l./data=!4m7!3m6!1s0x132b57fd37a55ac9:0x9031a3253c2208e5!8m2!3d44.2598723!4d12.0792818!16s%2Fg%2F1tcvl662!19sChIJyVqlN_1XKxMR5QgiPCWjMZA?authuser=0&hl=tr&rclk=1",
    "website_url": "",
    "rating_text": "4,2",
    "stars": null,
    "number_of_reviews": null,
    "price_level": "",
    "open_hours": "",
    "extraction_timestamp": "2025-06-07T16:47:42.629Z",
    "source_name": "google",
    "source_query": "Irrigation Equipment",
    "source_country": "IT",
    "country": "Italy",
    "state": "Emilia-Romagna",
    "city": "Forlì"
  },
  {
    "source_id": "ChIJAe7_5SKoLBMRrrEmsAWatbY",
    "name": "Romagna Fissaggi",
    "category": "Romagna Fissaggi",
    "formatted_address": "4,8(15)",
    "phone_number": "+390543091323",
    "source_url": "https://www.google.com/maps/place/Romagna+Fissaggi/data=!4m7!3m6!1s0x132ca822e5ffee01:0xb6b59a05b026b1ae!8m2!3d44.2304278!4d12.0823148!16s%2Fg%2F11c6yzgdh_!19sChIJAe7_5SKoLBMRrrEmsAWatbY?authuser=0&hl=tr&rclk=1",
    "website_url": "",
    "rating_text": "4,8",
    "stars": null,
    "number_of_reviews": null,
    "price_level": "",
    "open_hours": "",
    "extraction_timestamp": "2025-06-07T16:47:42.631Z",
    "source_name": "google",
    "source_query": "Irrigation Equipment",
    "source_country": "IT",
    "country": "Italy",
    "state": "Emilia-Romagna",
    "city": "Forlì"
  },
  {
    "source_id": "ChIJbe6-WOFXKxMRK2ggb9TRbow",
    "name": "Idro Zeta - Magazzino - Forlì",
    "category": "Idro Zeta - Magazzino - Forlì",
    "formatted_address": "4,2(42)",
    "phone_number": "+390543802711",
    "source_url": "https://www.google.com/maps/place/Idro+Zeta+-+Magazzino+-+Forl%C3%AC/data=!4m7!3m6!1s0x132b57e158beee6d:0x8c6ed1d46f20682b!8m2!3d44.2230296!4d12.0695581!16s%2Fg%2F1hhwshbhd!19sChIJbe6-WOFXKxMRK2ggb9TRbow?authuser=0&hl=tr&rclk=1",
    "website_url": "",
    "rating_text": "4,2",
    "stars": null,
    "number_of_reviews": null,
    "price_level": "",
    "open_hours": "",
    "extraction_timestamp": "2025-06-07T16:47:42.633Z",
    "source_name": "google",
    "source_query": "Irrigation Equipment",
    "source_country": "IT",
    "country": "Italy",
    "state": "Emilia-Romagna",
    "city": "Forlì"
  },
  {
    "source_id": "ChIJ2ZCgtnNXKxMRvE4eP6gKPu8",
    "name": "Bagioni Alfiero Snc Di Bagioni Aurenzo E Antonella",
    "category": "Bagioni Alfiero Snc Di Bagioni Aurenzo E Antonella",
    "formatted_address": "4,6(78)",
    "phone_number": "+390543703993",
    "source_url": "https://www.google.com/maps/place/Bagioni+Alfiero+Snc+Di+Bagioni+Aurenzo+E+Antonella/data=!4m7!3m6!1s0x132b5773b6a090d9:0xef3e0aa83f1e4ebc!8m2!3d44.2312246!4d12.0185019!16s%2Fg%2F11bc7t932x!19sChIJ2ZCgtnNXKxMRvE4eP6gKPu8?authuser=0&hl=tr&rclk=1",
    "website_url": "",
    "rating_text": "4,6",
    "stars": null,
    "number_of_reviews": null,
    "price_level": "",
    "open_hours": "",
    "extraction_timestamp": "2025-06-07T16:47:42.634Z",
    "source_name": "google",
    "source_query": "Irrigation Equipment",
    "source_country": "IT",
    "country": "Italy",
    "state": "Emilia-Romagna",
    "city": "Forlì"
  },
  {
    "source_id": "ChIJfd2CLP1XKxMRJveOYJUuxA4",
    "name": "Venturi s.r.l.",
    "category": "Venturi s.r.l.",
    "formatted_address": "4,4(299)",
    "phone_number": "+390543795174",
    "source_url": "https://www.google.com/maps/place/Venturi+s.r.l./data=!4m7!3m6!1s0x132b57fd2c82dd7d:0xec42e95608ef726!8m2!3d44.2199868!4d12.0691948!16s%2Fg%2F1hc53sm4l!19sChIJfd2CLP1XKxMRJveOYJUuxA4?authuser=0&hl=tr&rclk=1",
    "website_url": "",
    "rating_text": "4,4",
    "stars": null,
    "number_of_reviews": null,
    "price_level": "",
    "open_hours": "",
    "extraction_timestamp": "2025-06-07T16:47:42.635Z",
    "source_name": "google",
    "source_query": "Irrigation Equipment",
    "source_country": "IT",
    "country": "Italy",
    "state": "Emilia-Romagna",
    "city": "Forlì"
  },
  {
    "source_id": "ChIJU8gwm9OpLBMRVaOVP2SvbvI",
    "name": "Cortini & Farneti Energy Service Srl",
    "category": "Cortini & Farneti Energy Service Srl",
    "formatted_address": "5,0(13)",
    "phone_number": "+390543721518",
    "source_url": "https://www.google.com/maps/place/Cortini+%26+Farneti+Energy+Service+Srl/data=!4m7!3m6!1s0x132ca9d39b30c853:0xf26eaf643f95a355!8m2!3d44.2494435!4d12.0782943!16s%2Fg%2F11cn3jy96r!19sChIJU8gwm9OpLBMRVaOVP2SvbvI?authuser=0&hl=tr&rclk=1",
    "website_url": "",
    "rating_text": "5,0",
    "stars": null,
    "number_of_reviews": null,
    "price_level": "",
    "open_hours": "",
    "extraction_timestamp": "2025-06-07T16:47:42.635Z",
    "source_name": "google",
    "source_query": "Irrigation Equipment",
    "source_country": "IT",
    "country": "Italy",
    "state": "Emilia-Romagna",
    "city": "Forlì"
  },
  {
    "source_id": "ChIJQ7EoY9W6LBMRai27wofVZXI",
    "name": "Cambielli S.p.A.",
    "category": "Cambielli S.p.A.",
    "formatted_address": "4,8(15)",
    "phone_number": "+390543774169",
    "source_url": "https://www.google.com/maps/place/Cambielli+S.p.A./data=!4m7!3m6!1s0x132cbad56328b143:0x7265d587c2bb2d6a!8m2!3d44.2353134!4d12.0828269!16s%2Fg%2F1x5bbjg2!19sChIJQ7EoY9W6LBMRai27wofVZXI?authuser=0&hl=tr&rclk=1",
    "website_url": "",
    "rating_text": "4,8",
    "stars": null,
    "number_of_reviews": null,
    "price_level": "",
    "open_hours": "",
    "extraction_timestamp": "2025-06-07T16:47:42.636Z",
    "source_name": "google",
    "source_query": "Irrigation Equipment",
    "source_country": "IT",
    "country": "Italy",
    "state": "Emilia-Romagna",
    "city": "Forlì"
  },
  {
    "source_id": "ChIJT8SQaDRYKxMRaNq5FjHvy_Q",
    "name": "Rosetti Srl",
    "category": "Rosetti Srl",
    "formatted_address": "4,5(1.069)",
    "phone_number": "+39054363596",
    "source_url": "https://www.google.com/maps/place/Rosetti+Srl/data=!4m7!3m6!1s0x132b58346890c44f:0xf4cbef3116b9da68!8m2!3d44.2069475!4d12.029931!16s%2Fg%2F11b6hrtptb!19sChIJT8SQaDRYKxMRaNq5FjHvy_Q?authuser=0&hl=tr&rclk=1",
    "website_url": "",
    "rating_text": "4,5",
    "stars": null,
    "number_of_reviews": null,
    "price_level": "",
    "open_hours": "",
    "extraction_timestamp": "2025-06-07T16:47:42.637Z",
    "source_name": "google",
    "source_query": "Irrigation Equipment",
    "source_country": "IT",
    "country": "Italy",
    "state": "Emilia-Romagna",
    "city": "Forlì"
  },
  {
    "source_id": "ChIJf561IBmoLBMRt0Qvy2FdlOo",
    "name": "New Salfep Srl",
    "category": "New Salfep Srl",
    "formatted_address": "4,5(57)",
    "phone_number": "+390543798480",
    "source_url": "https://www.google.com/maps/place/New+Salfep+Srl/data=!4m7!3m6!1s0x132ca81920b59e7f:0xea945d61cb2f44b7!8m2!3d44.2248119!4d12.0781791!16s%2Fg%2F1tlz8l7b!19sChIJf561IBmoLBMRt0Qvy2FdlOo?authuser=0&hl=tr&rclk=1",
    "website_url": "",
    "rating_text": "4,5",
    "stars": null,
    "number_of_reviews": null,
    "price_level": "",
    "open_hours": "",
    "extraction_timestamp": "2025-06-07T16:47:42.637Z",
    "source_name": "google",
    "source_query": "Irrigation Equipment",
    "source_country": "IT",
    "country": "Italy",
    "state": "Emilia-Romagna",
    "city": "Forlì"
  },
  {
    "source_id": "ChIJv1ImN8NXKxMR0cMo53EaKiM",
    "name": "Garden Gavelli",
    "category": "Garden Gavelli",
    "formatted_address": "4,4(151)",
    "phone_number": "+390543721132",
    "source_url": "https://www.google.com/maps/place/Garden+Gavelli/data=!4m7!3m6!1s0x132b57c3372652bf:0x232a1a71e728c3d1!8m2!3d44.2351946!4d12.0607986!16s%2Fg%2F11b6jh27l6!19sChIJv1ImN8NXKxMR0cMo53EaKiM?authuser=0&hl=tr&rclk=1",
    "website_url": "",
    "rating_text": "4,4",
    "stars": null,
    "number_of_reviews": null,
    "price_level": "",
    "open_hours": "",
    "extraction_timestamp": "2025-06-07T16:47:42.638Z",
    "source_name": "google",
    "source_query": "Irrigation Equipment",
    "source_country": "IT",
    "country": "Italy",
    "state": "Emilia-Romagna",
    "city": "Forlì"
  },
  {
    "source_id": "ChIJJ-odTL1XKxMRc0Cxuuj5ADI",
    "name": "Termo Igienica",
    "category": "Termo Igienica",
    "formatted_address": "3,7(3)",
    "phone_number": "+39054327091",
    "source_url": "https://www.google.com/maps/place/Termo+Igienica/data=!4m7!3m6!1s0x132b57bd4c1dea27:0x3200f9e8bab14073!8m2!3d44.2331187!4d12.0381212!16s%2Fg%2F11hbpnrtxs!19sChIJJ-odTL1XKxMRc0Cxuuj5ADI?authuser=0&hl=tr&rclk=1",
    "website_url": "",
    "rating_text": "3,7",
    "stars": null,
    "number_of_reviews": null,
    "price_level": "",
    "open_hours": "",
    "extraction_timestamp": "2025-06-07T16:47:42.638Z",
    "source_name": "google",
    "source_query": "Irrigation Equipment",
    "source_country": "IT",
    "country": "Italy",
    "state": "Emilia-Romagna",
    "city": "Forlì"
  },
  {
    "source_id": "ChIJ02us2BeoLBMRu6lm--0V0wA",
    "name": "Emilghisa S.R.L.",
    "category": "Emilghisa S.R.L.",
    "formatted_address": "5,0(1)",
    "phone_number": "+390543722153",
    "source_url": "https://www.google.com/maps/place/Emilghisa+S.R.L./data=!4m7!3m6!1s0x132ca817d8ac6bd3:0xd315edfb66a9bb!8m2!3d44.2269319!4d12.0850735!16s%2Fg%2F1td3_31r!19sChIJ02us2BeoLBMRu6lm--0V0wA?authuser=0&hl=tr&rclk=1",
    "website_url": "",
    "rating_text": "5,0",
    "stars": null,
    "number_of_reviews": null,
    "price_level": "",
    "open_hours": "",
    "extraction_timestamp": "2025-06-07T16:47:42.639Z",
    "source_name": "google",
    "source_query": "Irrigation Equipment",
    "source_country": "IT",
    "country": "Italy",
    "state": "Emilia-Romagna",
    "city": "Forlì"
  },
  {
    "source_id": "ChIJTdkc6yNYKxMRjKwIxN_ZpEs",
    "name": "Ferramenta Mambelli - Materiale elettrico, riparazioni domestiche, vernici",
    "category": "Ferramenta Mambelli - Materiale elettrico, riparazioni domestiche, vernici",
    "formatted_address": "Ferramenta Mambelli - Materiale elettrico, riparazioni domestiche, vernici",
    "phone_number": "+39054364388",
    "source_url": "https://www.google.com/maps/place/Ferramenta+Mambelli+-+Materiale+elettrico,+riparazioni+domestiche,+vernici/data=!4m7!3m6!1s0x132b5823eb1cd94d:0x4ba4d9dfc408ac8c!8m2!3d44.2072088!4d12.0445481!16s%2Fg%2F11b6j4mrjc!19sChIJTdkc6yNYKxMRjKwIxN_ZpEs?authuser=0&hl=tr&rclk=1",
    "website_url": "",
    "rating_text": "3,7",
    "stars": null,
    "number_of_reviews": null,
    "price_level": "",
    "open_hours": "",
    "extraction_timestamp": "2025-06-07T16:47:42.639Z",
    "source_name": "google",
    "source_query": "Irrigation Equipment",
    "source_country": "IT",
    "country": "Italy",
    "state": "Emilia-Romagna",
    "city": "Forlì"
  },
  {
    "source_id": "ChIJk_S1crJYKxMRPG2hhr5uAeU",
    "name": "Cosmogas",
    "category": "Cosmogas",
    "formatted_address": "4,0(96)",
    "phone_number": "+390543498383",
    "source_url": "https://www.google.com/maps/place/Cosmogas/data=!4m7!3m6!1s0x132b58b272b5f493:0xe5016ebe86a16d3c!8m2!3d44.140003!4d12.0604026!16s%2Fg%2F1tr46sf_!19sChIJk_S1crJYKxMRPG2hhr5uAeU?authuser=0&hl=tr&rclk=1",
    "website_url": "",
    "rating_text": "4,0",
    "stars": null,
    "number_of_reviews": null,
    "price_level": "",
    "open_hours": "",
    "extraction_timestamp": "2025-06-07T16:47:42.640Z",
    "source_name": "google",
    "source_query": "Irrigation Equipment",
    "source_country": "IT",
    "country": "Italy",
    "state": "Emilia-Romagna",
    "city": "Forlì"
  },
  {
    "source_id": "ChIJX1zdHJRXKxMR0XnhBCN-BVM",
    "name": "Bricocenter Forli",
    "category": "Bricocenter Forli",
    "formatted_address": "4,4(1.361)",
    "phone_number": "+3905431931318",
    "source_url": "https://www.google.com/maps/place/Bricocenter+Forli/data=!4m7!3m6!1s0x132b57941cdd5c5f:0x53057e2304e179d1!8m2!3d44.2463813!4d12.0900311!16s%2Fg%2F11f_lt8qch!19sChIJX1zdHJRXKxMR0XnhBCN-BVM?authuser=0&hl=tr&rclk=1",
    "website_url": "",
    "rating_text": "4,4",
    "stars": null,
    "number_of_reviews": null,
    "price_level": "",
    "open_hours": "",
    "extraction_timestamp": "2025-06-07T16:47:42.640Z",
    "source_name": "google",
    "source_query": "Irrigation Equipment",
    "source_country": "IT",
    "country": "Italy",
    "state": "Emilia-Romagna",
    "city": "Forlì"
  },
  {
    "source_id": "ChIJJ4mVkBioLBMRd70sIf-0ybw",
    "name": "Tecnicaf Srl",
    "category": "Tecnicaf Srl",
    "formatted_address": "4,2(10)",
    "phone_number": "+390543724433",
    "source_url": "https://www.google.com/maps/place/Tecnicaf+Srl/data=!4m7!3m6!1s0x132ca81890958927:0xbcc9b4ff212cbd77!8m2!3d44.2274641!4d12.0791925!16s%2Fg%2F11cn3plwwm!19sChIJJ4mVkBioLBMRd70sIf-0ybw?authuser=0&hl=tr&rclk=1",
    "website_url": "",
    "rating_text": "4,2",
    "stars": null,
    "number_of_reviews": null,
    "price_level": "",
    "open_hours": "",
    "extraction_timestamp": "2025-06-07T16:47:42.641Z",
    "source_name": "google",
    "source_query": "Irrigation Equipment",
    "source_country": "IT",
    "country": "Italy",
    "state": "Emilia-Romagna",
    "city": "Forlì"
  },
  {
    "source_id": "ChIJy4AVn9C-LBMRn6nsnuZl82A",
    "name": "Ramilli Irrigazioni S.R.L.",
    "category": "Ramilli Irrigazioni S.R.L.",
    "formatted_address": "4,3(52)",
    "phone_number": "+390541945335",
    "source_url": "https://www.google.com/maps/place/Ramilli+Irrigazioni+S.R.L./data=!4m7!3m6!1s0x132cbed09f1580cb:0x60f365e69eeca99f!8m2!3d44.0923156!4d12.3843691!16s%2Fg%2F1ts2ls1r!19sChIJy4AVn9C-LBMRn6nsnuZl82A?authuser=0&hl=tr&rclk=1",
    "website_url": "",
    "rating_text": "4,3",
    "stars": null,
    "number_of_reviews": null,
    "price_level": "",
    "open_hours": "",
    "extraction_timestamp": "2025-06-07T16:47:42.641Z",
    "source_name": "google",
    "source_query": "Irrigation Equipment",
    "source_country": "IT",
    "country": "Italy",
    "state": "Emilia-Romagna",
    "city": "Forlì"
  },
  {
    "source_id": "ChIJq7T1K5JXKxMRXymqBva2KDw",
    "name": "Capo Nord | Mountain Shop a Forlì e Online",
    "category": "Capo Nord | Mountain Shop a Forlì e Online",
    "formatted_address": "4,8(267)",
    "phone_number": "+390543370805",
    "source_url": "https://www.google.com/maps/place/Capo+Nord+%7C+Mountain+Shop+a+Forl%C3%AC+e+Online/data=!4m7!3m6!1s0x132b57922bf5b4ab:0x3c28b6f606aa295f!8m2!3d44.2393656!4d12.0743691!16s%2Fg%2F1thzr0bl!19sChIJq7T1K5JXKxMRXymqBva2KDw?authuser=0&hl=tr&rclk=1",
    "website_url": "",
    "rating_text": "4,8",
    "stars": null,
    "number_of_reviews": null,
    "price_level": "",
    "open_hours": "",
    "extraction_timestamp": "2025-06-07T16:47:42.642Z",
    "source_name": "google",
    "source_query": "Irrigation Equipment",
    "source_country": "IT",
    "country": "Italy",
    "state": "Emilia-Romagna",
    "city": "Forlì"
  },
  {
    "source_id": "ChIJQ8fJol1SKxMRShirn3slxH4",
    "name": "Tecnir",
    "category": "Tecnir",
    "formatted_address": "4,4(17)",
    "phone_number": "+390546641026",
    "source_url": "https://www.google.com/maps/place/Tecnir/data=!4m7!3m6!1s0x132b525da2c9c743:0x7ec4257b9fab184a!8m2!3d44.363732!4d11.935557!16s%2Fg%2F1vfps_3m!19sChIJQ8fJol1SKxMRShirn3slxH4?authuser=0&hl=tr&rclk=1",
    "website_url": "",
    "rating_text": "4,4",
    "stars": null,
    "number_of_reviews": null,
    "price_level": "",
    "open_hours": "",
    "extraction_timestamp": "2025-06-07T16:47:42.642Z",
    "source_name": "google",
    "source_query": "Irrigation Equipment",
    "source_country": "IT",
    "country": "Italy",
    "state": "Emilia-Romagna",
    "city": "Forlì"
  },
  {
    "source_id": "ChIJryludc-nLBMREvi4CKaHSZk",
    "name": "Sport Service Srl",
    "category": "Sport Service Srl",
    "formatted_address": "4,4(375)",
    "phone_number": "+390543744535",
    "source_url": "https://www.google.com/maps/place/Sport+Service+Srl/data=!4m7!3m6!1s0x132ca7cf756e29af:0x994987a608b8f812!8m2!3d44.1941731!4d12.1072893!16s%2Fg%2F1td8f9x5!19sChIJryludc-nLBMREvi4CKaHSZk?authuser=0&hl=tr&rclk=1",
    "website_url": "",
    "rating_text": "4,4",
    "stars": null,
    "number_of_reviews": null,
    "price_level": "",
    "open_hours": "",
    "extraction_timestamp": "2025-06-07T16:47:42.643Z",
    "source_name": "google",
    "source_query": "Irrigation Equipment",
    "source_country": "IT",
    "country": "Italy",
    "state": "Emilia-Romagna",
    "city": "Forlì"
  },
  {
    "source_id": "ChIJKwHMRNikLBMREg7DTn3abu8",
    "name": "R.T.N. di Gabriele Parentelli ed Amos Venzi",
    "category": "R.T.N. di Gabriele Parentelli ed Amos Venzi",
    "formatted_address": "4,6(56)",
    "phone_number": "+390547632921",
    "source_url": "https://www.google.com/maps/place/R.T.N.+di+Gabriele+Parentelli+ed+Amos+Venzi/data=!4m7!3m6!1s0x132ca4d844cc012b:0xef6eda7d4ec30e12!8m2!3d44.1527741!4d12.2412461!16s%2Fg%2F11cs2wyglx!19sChIJKwHMRNikLBMREg7DTn3abu8?authuser=0&hl=tr&rclk=1",
    "website_url": "",
    "rating_text": "4,6",
    "stars": null,
    "number_of_reviews": null,
    "price_level": "",
    "open_hours": "",
    "extraction_timestamp": "2025-06-07T16:47:42.643Z",
    "source_name": "google",
    "source_query": "Irrigation Equipment",
    "source_country": "IT",
    "country": "Italy",
    "state": "Emilia-Romagna",
    "city": "Forlì"
  },
  {
    "source_id": "ChIJ9eBBE1GkLBMR9rJbIbGEPpg",
    "name": "Gardenia Service Di Montanari Enrico",
    "category": "Gardenia Service Di Montanari Enrico",
    "formatted_address": "4,2(32)",
    "phone_number": "+390547347588",
    "source_url": "https://www.google.com/maps/place/Gardenia+Service+Di+Montanari+Enrico/data=!4m7!3m6!1s0x132ca4511341e0f5:0x983e84b1215bb2f6!8m2!3d44.152884!4d12.201026!16s%2Fg%2F1tglcz8g!19sChIJ9eBBE1GkLBMR9rJbIbGEPpg?authuser=0&hl=tr&rclk=1",
    "website_url": "",
    "rating_text": "4,2",
    "stars": null,
    "number_of_reviews": null,
    "price_level": "",
    "open_hours": "",
    "extraction_timestamp": "2025-06-07T16:47:42.644Z",
    "source_name": "google",
    "source_query": "Irrigation Equipment",
    "source_country": "IT",
    "country": "Italy",
    "state": "Emilia-Romagna",
    "city": "Forlì"
  },
  {
    "source_id": "ChIJU3D2-82pLBMRS9rreb1LUhk",
    "name": "Brico OK Forlì",
    "category": "Brico OK Forlì",
    "formatted_address": "4,1(940)",
    "phone_number": "+390543030890",
    "source_url": "https://www.google.com/maps/place/Brico+OK+Forl%C3%AC/data=!4m7!3m6!1s0x132ca9cdfbf67053:0x19524bbd79ebda4b!8m2!3d44.2505269!4d12.0836762!16s%2Fg%2F11b7lff2db!19sChIJU3D2-82pLBMRS9rreb1LUhk?authuser=0&hl=tr&rclk=1",
    "website_url": "",
    "rating_text": "4,1",
    "stars": null,
    "number_of_reviews": null,
    "price_level": "",
    "open_hours": "",
    "extraction_timestamp": "2025-06-07T16:47:42.644Z",
    "source_name": "google",
    "source_query": "Irrigation Equipment",
    "source_country": "IT",
    "country": "Italy",
    "state": "Emilia-Romagna",
    "city": "Forlì"
  },
  {
    "source_id": "ChIJs7Anq09YKxMRGuHE9As6FJg",
    "name": "Armeria Gabriele Massi",
    "category": "Armeria Gabriele Massi",
    "formatted_address": "4,6(354)",
    "phone_number": "+39054383491",
    "source_url": "https://www.google.com/maps/place/Armeria+Gabriele+Massi/data=!4m7!3m6!1s0x132b584fab27b0b3:0x98143a0bf4c4e11a!8m2!3d44.188089!4d12.0347547!16s%2Fg%2F1jkydlccj!19sChIJs7Anq09YKxMRGuHE9As6FJg?authuser=0&hl=tr&rclk=1",
    "website_url": "",
    "rating_text": "4,6",
    "stars": null,
    "number_of_reviews": null,
    "price_level": "",
    "open_hours": "",
    "extraction_timestamp": "2025-06-07T16:47:42.644Z",
    "source_name": "google",
    "source_query": "Irrigation Equipment",
    "source_country": "IT",
    "country": "Italy",
    "state": "Emilia-Romagna",
    "city": "Forlì"
  },
  {
    "source_id": "ChIJ85cgpku6LBMRfX081ZX-wQQ",
    "name": "Idroget Atomizzatori Di Bianchi Carlo E C. (S.N.C.)",
    "category": "Idroget Atomizzatori Di Bianchi Carlo E C. (S.N.C.)",
    "formatted_address": "4,7(10)",
    "phone_number": "+390547300163",
    "source_url": "https://www.google.com/maps/place/Idroget+Atomizzatori+Di+Bianchi+Carlo+E+C.+%28S.N.C.%29/data=!4m7!3m6!1s0x132cba4ba62097f3:0x4c1fe95d53c7d7d!8m2!3d44.1418046!4d12.3078685!16s%2Fg%2F11b6j8p8p3!19sChIJ85cgpku6LBMRfX081ZX-wQQ?authuser=0&hl=tr&rclk=1",
    "website_url": "",
    "rating_text": "4,7",
    "stars": null,
    "number_of_reviews": null,
    "price_level": "",
    "open_hours": "",
    "extraction_timestamp": "2025-06-07T16:47:42.645Z",
    "source_name": "google",
    "source_query": "Irrigation Equipment",
    "source_country": "IT",
    "country": "Italy",
    "state": "Emilia-Romagna",
    "city": "Forlì"
  }
]
