[
  {
    "source_id": "ChIJQ_BOOCTlf0cRJXKkJ_D12g8",
    "name": "Easy Water Italia",
    "category": "Easy Water Italia",
    "formatted_address": "5,0(100)",
    "phone_number": "+393516973088",
    "source_url": "https://www.google.com/maps/place/Easy+Water+Italia/data=!4m7!3m6!1s0x477fe524384ef043:0xfdaf5f027a47225!8m2!3d44.5985842!4d10.8643358!16s%2Fg%2F11sc7k1qf7!19sChIJQ_BOOCTlf0cRJXKkJ_D12g8?authuser=0&hl=tr&rclk=1",
    "website_url": "",
    "rating_text": "5,0",
    "stars": null,
    "number_of_reviews": null,
    "price_level": "",
    "open_hours": "",
    "extraction_timestamp": "2025-06-07T16:43:59.729Z",
    "source_name": "google",
    "source_query": "Irrigation Equipment",
    "source_country": "IT",
    "country": "Italy",
    "state": "Emilia-Romagna",
    "city": "Formigine"
  },
  {
    "source_id": "ChIJ5VPTXaHkf0cR3lkhgU6o-2U",
    "name": "AGENZIA L'AGRICOLA S.n.c. di Fantuzzi L. & C.",
    "category": "AGENZIA L'AGRICOLA S.n.c. di Fantuzzi L. & C.",
    "formatted_address": "4,6(44)",
    "phone_number": "+39059558130",
    "source_url": "https://www.google.com/maps/place/AGENZIA+L%27AGRICOLA+S.n.c.+di+Fantuzzi+L.+%26+C./data=!4m7!3m6!1s0x477fe4a15dd353e5:0x65fba84e812159de!8m2!3d44.5623043!4d10.8470068!16s%2Fg%2F1tfphnjf!19sChIJ5VPTXaHkf0cR3lkhgU6o-2U?authuser=0&hl=tr&rclk=1",
    "website_url": "",
    "rating_text": "4,6",
    "stars": null,
    "number_of_reviews": null,
    "price_level": "",
    "open_hours": "",
    "extraction_timestamp": "2025-06-07T16:43:59.730Z",
    "source_name": "google",
    "source_query": "Irrigation Equipment",
    "source_country": "IT",
    "country": "Italy",
    "state": "Emilia-Romagna",
    "city": "Formigine"
  },
  {
    "source_id": "ChIJ0WqJQGLjf0cRuFtl5A-ws80",
    "name": "TecnoArg Oleodinamica",
    "category": "TecnoArg Oleodinamica",
    "formatted_address": "4,3(4)",
    "phone_number": "+390597470350",
    "source_url": "https://www.google.com/maps/place/TecnoArg+Oleodinamica/data=!4m7!3m6!1s0x477fe36240896ad1:0xcdb3b00fe4655bb8!8m2!3d44.5556806!4d10.8579794!16s%2Fg%2F1td3kfnf!19sChIJ0WqJQGLjf0cRuFtl5A-ws80?authuser=0&hl=tr&rclk=1",
    "website_url": "",
    "rating_text": "4,3",
    "stars": null,
    "number_of_reviews": null,
    "price_level": "",
    "open_hours": "",
    "extraction_timestamp": "2025-06-07T16:43:59.731Z",
    "source_name": "google",
    "source_query": "Irrigation Equipment",
    "source_country": "IT",
    "country": "Italy",
    "state": "Emilia-Romagna",
    "city": "Formigine"
  },
  {
    "source_id": "ChIJeV1Y_Tv7f0cRkL0mEReZEmA",
    "name": "GEO TRE DI BANDIERI BRUNO & C. SNC",
    "category": "GEO TRE DI BANDIERI BRUNO & C. SNC",
    "formatted_address": "4,7(72)",
    "phone_number": "+39059558413",
    "source_url": "https://www.google.com/maps/place/GEO+TRE+DI+BANDIERI+BRUNO+%26+C.+SNC/data=!4m7!3m6!1s0x477ffb3bfd585d79:0x601299171126bd90!8m2!3d44.5840301!4d10.8198118!16s%2Fg%2F11c7vty_gt!19sChIJeV1Y_Tv7f0cRkL0mEReZEmA?authuser=0&hl=tr&rclk=1",
    "website_url": "",
    "rating_text": "4,7",
    "stars": null,
    "number_of_reviews": null,
    "price_level": "",
    "open_hours": "",
    "extraction_timestamp": "2025-06-07T16:43:59.732Z",
    "source_name": "google",
    "source_query": "Irrigation Equipment",
    "source_country": "IT",
    "country": "Italy",
    "state": "Emilia-Romagna",
    "city": "Formigine"
  },
  {
    "source_id": "ChIJcQG6ul7df0cR3VxKiu5OPBs",
    "name": "Scova Impianti Srl",
    "category": "Scova Impianti Srl",
    "formatted_address": "4,5(64)",
    "phone_number": "+39059923202",
    "source_url": "https://www.google.com/maps/place/Scova+Impianti+Srl/data=!4m7!3m6!1s0x477fdd5ebaba0171:0x1b3c4eee8a4a5cdd!8m2!3d44.6018135!4d11.032294!16s%2Fg%2F1tfzwbfb!19sChIJcQG6ul7df0cR3VxKiu5OPBs?authuser=0&hl=tr&rclk=1",
    "website_url": "",
    "rating_text": "4,5",
    "stars": null,
    "number_of_reviews": null,
    "price_level": "",
    "open_hours": "",
    "extraction_timestamp": "2025-06-07T16:43:59.733Z",
    "source_name": "google",
    "source_query": "Irrigation Equipment",
    "source_country": "IT",
    "country": "Italy",
    "state": "Emilia-Romagna",
    "city": "Formigine"
  },
  {
    "source_id": "ChIJJ6V6lMDgf0cR1SpFsfjDuHg",
    "name": "Ocmis Irrigazione Spa",
    "category": "Ocmis Irrigazione Spa",
    "formatted_address": "3,5(31)",
    "phone_number": "+39059702150",
    "source_url": "https://www.google.com/maps/place/Ocmis+Irrigazione+Spa/data=!4m7!3m6!1s0x477fe0c0947aa527:0x78b8c3f8b1452ad5!8m2!3d44.530494!4d10.9794578!16s%2Fg%2F1vd3tn19!19sChIJJ6V6lMDgf0cR1SpFsfjDuHg?authuser=0&hl=tr&rclk=1",
    "website_url": "",
    "rating_text": "3,5",
    "stars": null,
    "number_of_reviews": null,
    "price_level": "",
    "open_hours": "",
    "extraction_timestamp": "2025-06-07T16:43:59.734Z",
    "source_name": "google",
    "source_query": "Irrigation Equipment",
    "source_country": "IT",
    "country": "Italy",
    "state": "Emilia-Romagna",
    "city": "Formigine"
  },
  {
    "source_id": "ChIJGQEYVMbkf0cRnIoRAOGah2c",
    "name": "Bricofer Formigine",
    "category": "Bricofer Formigine",
    "formatted_address": "3,8(1.037)",
    "phone_number": "+39059711881",
    "source_url": "https://www.google.com/maps/place/Bricofer+Formigine/data=!4m7!3m6!1s0x477fe4c654180119:0x67879ae100118a9c!8m2!3d44.579729!4d10.8488692!16s%2Fg%2F11f2wl_c_q!19sChIJGQEYVMbkf0cRnIoRAOGah2c?authuser=0&hl=tr&rclk=1",
    "website_url": "",
    "rating_text": "3,8",
    "stars": null,
    "number_of_reviews": null,
    "price_level": "",
    "open_hours": "",
    "extraction_timestamp": "2025-06-07T16:43:59.737Z",
    "source_name": "google",
    "source_query": "Irrigation Equipment",
    "source_country": "IT",
    "country": "Italy",
    "state": "Emilia-Romagna",
    "city": "Formigine"
  },
  {
    "source_id": "ChIJhXAT4J3kf0cRotQGf2wZZ_w",
    "name": "Cambielli S.p.A.",
    "category": "Cambielli S.p.A.",
    "formatted_address": "4,3(41)",
    "phone_number": "+39059558459",
    "source_url": "https://www.google.com/maps/place/Cambielli+S.p.A./data=!4m7!3m6!1s0x477fe49de0137085:0xfc67196c7f06d4a2!8m2!3d44.5586513!4d10.8558575!16s%2Fg%2F11clvrzz7s!19sChIJhXAT4J3kf0cRotQGf2wZZ_w?authuser=0&hl=tr&rclk=1",
    "website_url": "",
    "rating_text": "4,3",
    "stars": null,
    "number_of_reviews": null,
    "price_level": "",
    "open_hours": "",
    "extraction_timestamp": "2025-06-07T16:43:59.738Z",
    "source_name": "google",
    "source_query": "Irrigation Equipment",
    "source_country": "IT",
    "country": "Italy",
    "state": "Emilia-Romagna",
    "city": "Formigine"
  },
  {
    "source_id": "ChIJNd7DD9rkf0cR2e6iN7Z2Pt4",
    "name": "Inventa N.S.T. Srl",
    "category": "Inventa N.S.T. Srl",
    "formatted_address": "4,0(5)",
    "phone_number": "+39059510391",
    "source_url": "https://www.google.com/maps/place/Inventa+N.S.T.+Srl/data=!4m7!3m6!1s0x477fe4da0fc3de35:0xde3e76b637a2eed9!8m2!3d44.5891853!4d10.851351!16s%2Fg%2F1th1sx98!19sChIJNd7DD9rkf0cR2e6iN7Z2Pt4?authuser=0&hl=tr&rclk=1",
    "website_url": "",
    "rating_text": "4,0",
    "stars": null,
    "number_of_reviews": null,
    "price_level": "",
    "open_hours": "",
    "extraction_timestamp": "2025-06-07T16:43:59.739Z",
    "source_name": "google",
    "source_query": "Irrigation Equipment",
    "source_country": "IT",
    "country": "Italy",
    "state": "Emilia-Romagna",
    "city": "Formigine"
  },
  {
    "source_id": "ChIJs29sE3Pjf0cRQykUVUXAUC4",
    "name": "Adesital S.P.A.",
    "category": "Adesital S.P.A.",
    "formatted_address": "4,7(10)",
    "phone_number": "+390536927511",
    "source_url": "https://www.google.com/maps/place/Adesital+S.P.A./data=!4m7!3m6!1s0x477fe373136c6fb3:0x2e50c04555142943!8m2!3d44.5397414!4d10.8591898!16s%2Fg%2F1tj499w9!19sChIJs29sE3Pjf0cRQykUVUXAUC4?authuser=0&hl=tr&rclk=1",
    "website_url": "",
    "rating_text": "4,7",
    "stars": null,
    "number_of_reviews": null,
    "price_level": "",
    "open_hours": "",
    "extraction_timestamp": "2025-06-07T16:43:59.740Z",
    "source_name": "google",
    "source_query": "Irrigation Equipment",
    "source_country": "IT",
    "country": "Italy",
    "state": "Emilia-Romagna",
    "city": "Formigine"
  },
  {
    "source_id": "ChIJcUV4nL3kf0cRJrYY_eYA6iw",
    "name": "Casali Impianti di Riccardo Casali",
    "category": "Casali Impianti di Riccardo Casali",
    "formatted_address": "5,0(9)",
    "phone_number": "+393333974935",
    "source_url": "https://www.google.com/maps/place/Casali+Impianti+di+Riccardo+Casali/data=!4m7!3m6!1s0x477fe4bd9c784571:0x2cea00e6fd18b626!8m2!3d44.5696084!4d10.8534408!16s%2Fg%2F1tfbm4th!19sChIJcUV4nL3kf0cRJrYY_eYA6iw?authuser=0&hl=tr&rclk=1",
    "website_url": "",
    "rating_text": "5,0",
    "stars": null,
    "number_of_reviews": null,
    "price_level": "",
    "open_hours": "",
    "extraction_timestamp": "2025-06-07T16:43:59.741Z",
    "source_name": "google",
    "source_query": "Irrigation Equipment",
    "source_country": "IT",
    "country": "Italy",
    "state": "Emilia-Romagna",
    "city": "Formigine"
  },
  {
    "source_id": "ChIJhT-kpAXff0cRKJQqKYwIulA",
    "name": "Irrigo",
    "category": "Irrigo",
    "formatted_address": "4,7(36)",
    "phone_number": "+393473096499",
    "source_url": "https://www.google.com/maps/place/Irrigo/data=!4m7!3m6!1s0x477fdf05a4a43f85:0x50ba088c292a9428!8m2!3d44.5018172!4d11.005272!16s%2Fg%2F11hdjcp5pk!19sChIJhT-kpAXff0cRKJQqKYwIulA?authuser=0&hl=tr&rclk=1",
    "website_url": "",
    "rating_text": "4,7",
    "stars": null,
    "number_of_reviews": null,
    "price_level": "",
    "open_hours": "",
    "extraction_timestamp": "2025-06-07T16:43:59.742Z",
    "source_name": "google",
    "source_query": "Irrigation Equipment",
    "source_country": "IT",
    "country": "Italy",
    "state": "Emilia-Romagna",
    "city": "Formigine"
  },
  {
    "source_id": "ChIJU76Zgjf7f0cRXhwosFSMtmU",
    "name": "Utilcasa Di Compagni Stefano & C. Snc",
    "category": "Utilcasa Di Compagni Stefano & C. Snc",
    "formatted_address": "4,8(267)",
    "phone_number": "+39059572603",
    "source_url": "https://www.google.com/maps/place/Utilcasa+Di+Compagni+Stefano+%26+C.+Snc/data=!4m7!3m6!1s0x477ffb378299be53:0x65b68c54b0281c5e!8m2!3d44.5812202!4d10.8250757!16s%2Fg%2F11b6hkg4sg!19sChIJU76Zgjf7f0cRXhwosFSMtmU?authuser=0&hl=tr&rclk=1",
    "website_url": "",
    "rating_text": "4,8",
    "stars": null,
    "number_of_reviews": null,
    "price_level": "",
    "open_hours": "",
    "extraction_timestamp": "2025-06-07T16:43:59.743Z",
    "source_name": "google",
    "source_query": "Irrigation Equipment",
    "source_country": "IT",
    "country": "Italy",
    "state": "Emilia-Romagna",
    "city": "Formigine"
  },
  {
    "source_id": "ChIJHalA8sf8f0cRSJdBt5XR5ns",
    "name": "Lazzaretti Giovanni Snc di Scorzoni Giuliano & Pini Francesca",
    "category": "Lazzaretti Giovanni Snc di Scorzoni Giuliano & Pini Francesca",
    "formatted_address": "4,6(54)",
    "phone_number": "+390536830118",
    "source_url": "https://www.google.com/maps/place/Lazzaretti+Giovanni+Snc+di+Scorzoni+Giuliano+%26+Pini+Francesca/data=!4m7!3m6!1s0x477ffcc7f240a91d:0x7be6d195b7419748!8m2!3d44.5522158!4d10.8064512!16s%2Fg%2F1thnmmq2!19sChIJHalA8sf8f0cRSJdBt5XR5ns?authuser=0&hl=tr&rclk=1",
    "website_url": "",
    "rating_text": "4,6",
    "stars": null,
    "number_of_reviews": null,
    "price_level": "",
    "open_hours": "",
    "extraction_timestamp": "2025-06-07T16:43:59.744Z",
    "source_name": "google",
    "source_query": "Irrigation Equipment",
    "source_country": "IT",
    "country": "Italy",
    "state": "Emilia-Romagna",
    "city": "Formigine"
  },
  {
    "source_id": "ChIJZ7lItirlf0cRMPTvv6lYs18",
    "name": "Edilizia per Te a Formigine Ristrutturare Casa",
    "category": "Edilizia per Te a Formigine Ristrutturare Casa",
    "formatted_address": "5,0(1)",
    "phone_number": "+393351384536",
    "source_url": "https://www.google.com/maps/place/Edilizia+per+Te+a+Formigine+Ristrutturare+Casa/data=!4m7!3m6!1s0x477fe52ab648b967:0x5fb358a9bfeff430!8m2!3d44.5670913!4d10.850994!16s%2Fg%2F11h0sxjcc5!19sChIJZ7lItirlf0cRMPTvv6lYs18?authuser=0&hl=tr&rclk=1",
    "website_url": "",
    "rating_text": "5,0",
    "stars": null,
    "number_of_reviews": null,
    "price_level": "",
    "open_hours": "",
    "extraction_timestamp": "2025-06-07T16:43:59.745Z",
    "source_name": "google",
    "source_query": "Irrigation Equipment",
    "source_country": "IT",
    "country": "Italy",
    "state": "Emilia-Romagna",
    "city": "Formigine"
  },
  {
    "source_id": "ChIJg5ovz6bkf0cRLLrHJXOjP8w",
    "name": "BRICOLIN",
    "category": "BRICOLIN",
    "formatted_address": "3,4(680)",
    "phone_number": "+39059572445",
    "source_url": "https://www.google.com/maps/place/BRICOLIN/data=!4m7!3m6!1s0x477fe4a6cf2f9a83:0xcc3fa37325c7ba2c!8m2!3d44.5615577!4d10.8451557!16s%2Fg%2F11f54sq_fm!19sChIJg5ovz6bkf0cRLLrHJXOjP8w?authuser=0&hl=tr&rclk=1",
    "website_url": "",
    "rating_text": "3,4",
    "stars": null,
    "number_of_reviews": null,
    "price_level": "",
    "open_hours": "",
    "extraction_timestamp": "2025-06-07T16:43:59.746Z",
    "source_name": "google",
    "source_query": "Irrigation Equipment",
    "source_country": "IT",
    "country": "Italy",
    "state": "Emilia-Romagna",
    "city": "Formigine"
  },
  {
    "source_id": "ChIJHQGz6dXof0cRPD2igQWHtxo",
    "name": "Hidrostar",
    "category": "Hidrostar",
    "formatted_address": "4,8(33)",
    "phone_number": "+39059251056",
    "source_url": "https://www.google.com/maps/place/Hidrostar/data=!4m7!3m6!1s0x477fe8d5e9b3011d:0x1ab7870581a23d3c!8m2!3d44.6584919!4d10.9641811!16s%2Fg%2F1tf9rp0c!19sChIJHQGz6dXof0cRPD2igQWHtxo?authuser=0&hl=tr&rclk=1",
    "website_url": "",
    "rating_text": "4,8",
    "stars": null,
    "number_of_reviews": null,
    "price_level": "",
    "open_hours": "",
    "extraction_timestamp": "2025-06-07T16:43:59.747Z",
    "source_name": "google",
    "source_query": "Irrigation Equipment",
    "source_country": "IT",
    "country": "Italy",
    "state": "Emilia-Romagna",
    "city": "Formigine"
  },
  {
    "source_id": "ChIJKXm9k7_8f0cRp7XntRaamh8",
    "name": "Monte Ave Società Cooperativa Agricola",
    "category": "Monte Ave Società Cooperativa Agricola",
    "formatted_address": "4,5(30)",
    "phone_number": "+390536804115",
    "source_url": "https://www.google.com/maps/place/Monte+Ave+Societ%C3%A0+Cooperativa+Agricola/data=!4m7!3m6!1s0x477ffcbf93bd7929:0x1f9a9a16b5e7b5a7!8m2!3d44.5446307!4d10.8001567!16s%2Fg%2F1tfnxfjc!19sChIJKXm9k7_8f0cRp7XntRaamh8?authuser=0&hl=tr&rclk=1",
    "website_url": "",
    "rating_text": "4,5",
    "stars": null,
    "number_of_reviews": null,
    "price_level": "",
    "open_hours": "",
    "extraction_timestamp": "2025-06-07T16:43:59.748Z",
    "source_name": "google",
    "source_query": "Irrigation Equipment",
    "source_country": "IT",
    "country": "Italy",
    "state": "Emilia-Romagna",
    "city": "Formigine"
  },
  {
    "source_id": "ChIJtdBlQNzff0cRUFa11zCJX1k",
    "name": "Basca Srl",
    "category": "Basca Srl",
    "formatted_address": "5,0(1)",
    "phone_number": "+393807436439",
    "source_url": "https://www.google.com/maps/place/Basca+Srl/data=!4m7!3m6!1s0x477fdfdc4065d0b5:0x595f8930d7b55650!8m2!3d44.5759247!4d10.8273798!16s%2Fg%2F11hcyznpsj!19sChIJtdBlQNzff0cRUFa11zCJX1k?authuser=0&hl=tr&rclk=1",
    "website_url": "",
    "rating_text": "5,0",
    "stars": null,
    "number_of_reviews": null,
    "price_level": "",
    "open_hours": "",
    "extraction_timestamp": "2025-06-07T16:43:59.749Z",
    "source_name": "google",
    "source_query": "Irrigation Equipment",
    "source_country": "IT",
    "country": "Italy",
    "state": "Emilia-Romagna",
    "city": "Formigine"
  },
  {
    "source_id": "ChIJF2CTYYTlf0cRF1qZVfiVjXw",
    "name": "Termoidraulica Giuliani Davide",
    "category": "Termoidraulica Giuliani Davide",
    "formatted_address": "5,0(2)",
    "phone_number": "+393347351507",
    "source_url": "https://www.google.com/maps/place/Termoidraulica+Giuliani+Davide/data=!4m7!3m6!1s0x477fe58461936017:0x7c8d95f855995a17!8m2!3d44.551051!4d10.8753026!16s%2Fg%2F11q_69l64t!19sChIJF2CTYYTlf0cRF1qZVfiVjXw?authuser=0&hl=tr&rclk=1",
    "website_url": "",
    "rating_text": "5,0",
    "stars": null,
    "number_of_reviews": null,
    "price_level": "",
    "open_hours": "",
    "extraction_timestamp": "2025-06-07T16:43:59.750Z",
    "source_name": "google",
    "source_query": "Irrigation Equipment",
    "source_country": "IT",
    "country": "Italy",
    "state": "Emilia-Romagna",
    "city": "Formigine"
  },
  {
    "source_id": "ChIJa8flob_wf0cRa7XVBodnL2I",
    "name": "Arag Srl",
    "category": "Arag Srl",
    "formatted_address": "4,6(141)",
    "phone_number": "+390522622011",
    "source_url": "https://www.google.com/maps/place/Arag+Srl/data=!4m7!3m6!1s0x477ff0bfa1e5c76b:0x622f678706d5b56b!8m2!3d44.6556162!4d10.7922409!16s%2Fg%2F1tdnd2vb!19sChIJa8flob_wf0cRa7XVBodnL2I?authuser=0&hl=tr&rclk=1",
    "website_url": "",
    "rating_text": "4,6",
    "stars": null,
    "number_of_reviews": null,
    "price_level": "",
    "open_hours": "",
    "extraction_timestamp": "2025-06-07T16:43:59.751Z",
    "source_name": "google",
    "source_query": "Irrigation Equipment",
    "source_country": "IT",
    "country": "Italy",
    "state": "Emilia-Romagna",
    "city": "Formigine"
  },
  {
    "source_id": "ChIJ22H1yovjf0cR9IdzMVe1BOg",
    "name": "Agritutto (S.A.S.)",
    "category": "Agritutto (S.A.S.)",
    "formatted_address": "4,8(52)",
    "phone_number": "+393488824665",
    "source_url": "https://www.google.com/maps/place/Agritutto+%28S.A.S.%29/data=!4m7!3m6!1s0x477fe38bcaf561db:0xe804b557317387f4!8m2!3d44.5516096!4d10.8946497!16s%2Fg%2F1hc1spbw5!19sChIJ22H1yovjf0cR9IdzMVe1BOg?authuser=0&hl=tr&rclk=1",
    "website_url": "",
    "rating_text": "4,8",
    "stars": null,
    "number_of_reviews": null,
    "price_level": "",
    "open_hours": "",
    "extraction_timestamp": "2025-06-07T16:43:59.752Z",
    "source_name": "google",
    "source_query": "Irrigation Equipment",
    "source_country": "IT",
    "country": "Italy",
    "state": "Emilia-Romagna",
    "city": "Formigine"
  },
  {
    "source_id": "ChIJgVjbdx7df0cRsMjOLRKEzBA",
    "name": "Geocentro",
    "category": "Geocentro",
    "formatted_address": "4,4(87)",
    "phone_number": "+39059926168",
    "source_url": "https://www.google.com/maps/place/Geocentro/data=!4m7!3m6!1s0x477fdd1e77db5881:0x10cc84122dcec8b0!8m2!3d44.5868616!4d11.070717!16s%2Fg%2F11cn3ph0_q!19sChIJgVjbdx7df0cRsMjOLRKEzBA?authuser=0&hl=tr&rclk=1",
    "website_url": "",
    "rating_text": "4,4",
    "stars": null,
    "number_of_reviews": null,
    "price_level": "",
    "open_hours": "",
    "extraction_timestamp": "2025-06-07T16:43:59.753Z",
    "source_name": "google",
    "source_query": "Irrigation Equipment",
    "source_country": "IT",
    "country": "Italy",
    "state": "Emilia-Romagna",
    "city": "Formigine"
  },
  {
    "source_id": "ChIJ-Z_RHvbnf0cRry0jCm7Q5GQ",
    "name": "Scova Impianti",
    "category": "Scova Impianti",
    "formatted_address": "4,0(4)",
    "phone_number": "+39059925910",
    "source_url": "https://www.google.com/maps/place/Scova+Impianti/data=!4m7!3m6!1s0x477fe7f61ed19ff9:0x64e4d06e0a232daf!8m2!3d44.6018937!4d11.0315223!16s%2Fg%2F1td6wznv!19sChIJ-Z_RHvbnf0cRry0jCm7Q5GQ?authuser=0&hl=tr&rclk=1",
    "website_url": "",
    "rating_text": "4,0",
    "stars": null,
    "number_of_reviews": null,
    "price_level": "",
    "open_hours": "",
    "extraction_timestamp": "2025-06-07T16:43:59.754Z",
    "source_name": "google",
    "source_query": "Irrigation Equipment",
    "source_country": "IT",
    "country": "Italy",
    "state": "Emilia-Romagna",
    "city": "Formigine"
  },
  {
    "source_id": "ChIJvbBU8onnf0cRPQohczz7vW0",
    "name": "Zenit Italia",
    "category": "Zenit Italia",
    "formatted_address": "4,4(42)",
    "phone_number": "+39059950611",
    "source_url": "https://www.google.com/maps/place/Zenit+Italia/data=!4m7!3m6!1s0x477fe789f254b0bd:0x6dbdfb3c73210a3d!8m2!3d44.5916183!4d11.0267414!16s%2Fg%2F1tg77x9h!19sChIJvbBU8onnf0cRPQohczz7vW0?authuser=0&hl=tr&rclk=1",
    "website_url": "",
    "rating_text": "4,4",
    "stars": null,
    "number_of_reviews": null,
    "price_level": "",
    "open_hours": "",
    "extraction_timestamp": "2025-06-07T16:43:59.755Z",
    "source_name": "google",
    "source_query": "Irrigation Equipment",
    "source_country": "IT",
    "country": "Italy",
    "state": "Emilia-Romagna",
    "city": "Formigine"
  },
  {
    "source_id": "ChIJmbatPHPjf0cRUHMf4FQkrxg",
    "name": "IPERCERAMICA Modena - Fiorano Modenese",
    "category": "IPERCERAMICA Modena - Fiorano Modenese",
    "formatted_address": "3,6(366)",
    "phone_number": "+393452393110",
    "source_url": "https://www.google.com/maps/place/IPERCERAMICA+Modena+-+Fiorano+Modenese/data=!4m7!3m6!1s0x477fe3733cadb699:0x18af2454e01f7350!8m2!3d44.5542232!4d10.8103993!16s%2Fg%2F1vq73pz5!19sChIJmbatPHPjf0cRUHMf4FQkrxg?authuser=0&hl=tr&rclk=1",
    "website_url": "",
    "rating_text": "3,6",
    "stars": null,
    "number_of_reviews": null,
    "price_level": "",
    "open_hours": "",
    "extraction_timestamp": "2025-06-07T16:43:59.756Z",
    "source_name": "google",
    "source_query": "Irrigation Equipment",
    "source_country": "IT",
    "country": "Italy",
    "state": "Emilia-Romagna",
    "city": "Formigine"
  },
  {
    "source_id": "ChIJMRG3YwD7f0cRl38Ux8S6vfo",
    "name": "Fer.Gio S.r.l.",
    "category": "Fer.Gio S.r.l.",
    "formatted_address": "4,9(22)",
    "phone_number": "+39059555105",
    "source_url": "https://www.google.com/maps/place/Fer.Gio+S.r.l./data=!4m7!3m6!1s0x477ffb0063b71131:0xfabdbac4c7147f97!8m2!3d44.5980383!4d10.8017351!16s%2Fg%2F1261dghh1!19sChIJMRG3YwD7f0cRl38Ux8S6vfo?authuser=0&hl=tr&rclk=1",
    "website_url": "",
    "rating_text": "4,9",
    "stars": null,
    "number_of_reviews": null,
    "price_level": "",
    "open_hours": "",
    "extraction_timestamp": "2025-06-07T16:43:59.757Z",
    "source_name": "google",
    "source_query": "Irrigation Equipment",
    "source_country": "IT",
    "country": "Italy",
    "state": "Emilia-Romagna",
    "city": "Formigine"
  },
  {
    "source_id": "ChIJ7yzfH9Dff0cRJzwApVzDMC0",
    "name": "Mescoli Caldaie Srl",
    "category": "Mescoli Caldaie Srl",
    "formatted_address": "3,9(39)",
    "phone_number": "+39059772733",
    "source_url": "https://www.google.com/maps/place/Mescoli+Caldaie+Srl/data=!4m7!3m6!1s0x477fdfd01fdf2cef:0x2d30c35ca5003c27!8m2!3d44.498448!4d11.0021417!16s%2Fg%2F1tdzkdts!19sChIJ7yzfH9Dff0cRJzwApVzDMC0?authuser=0&hl=tr&rclk=1",
    "website_url": "",
    "rating_text": "3,9",
    "stars": null,
    "number_of_reviews": null,
    "price_level": "",
    "open_hours": "",
    "extraction_timestamp": "2025-06-07T16:43:59.758Z",
    "source_name": "google",
    "source_query": "Irrigation Equipment",
    "source_country": "IT",
    "country": "Italy",
    "state": "Emilia-Romagna",
    "city": "Formigine"
  },
  {
    "source_id": "ChIJ1c-YKEv3f0cRK_abF_cGaSU",
    "name": "Global Water Solutions Italia srl",
    "category": "Global Water Solutions Italia srl",
    "formatted_address": "4,8(4)",
    "phone_number": "+390522626307",
    "source_url": "https://www.google.com/maps/place/Global+Water+Solutions+Italia+srl/data=!4m7!3m6!1s0x477ff74b2898cfd5:0x256906f7179bf62b!8m2!3d44.6565234!4d10.7697472!16s%2Fg%2F11fzc76q7y!19sChIJ1c-YKEv3f0cRK_abF_cGaSU?authuser=0&hl=tr&rclk=1",
    "website_url": "",
    "rating_text": "4,8",
    "stars": null,
    "number_of_reviews": null,
    "price_level": "",
    "open_hours": "",
    "extraction_timestamp": "2025-06-07T16:43:59.759Z",
    "source_name": "google",
    "source_query": "Irrigation Equipment",
    "source_country": "IT",
    "country": "Italy",
    "state": "Emilia-Romagna",
    "city": "Formigine"
  },
  {
    "source_id": "ChIJo35coqrhf0cRTLWyfHFEKxU",
    "name": "Irtec (S.R.L.)",
    "category": "Irtec (S.R.L.)",
    "formatted_address": "4,5(2)",
    "phone_number": "+39059702150",
    "source_url": "https://www.google.com/maps/place/Irtec+%28S.R.L.%29/data=!4m7!3m6!1s0x477fe1aaa25c7ea3:0x152b44717cb2b54c!8m2!3d44.5304847!4d10.9796055!16s%2Fg%2F1tgn8gft!19sChIJo35coqrhf0cRTLWyfHFEKxU?authuser=0&hl=tr&rclk=1",
    "website_url": "",
    "rating_text": "4,5",
    "stars": null,
    "number_of_reviews": null,
    "price_level": "",
    "open_hours": "",
    "extraction_timestamp": "2025-06-07T16:43:59.760Z",
    "source_name": "google",
    "source_query": "Irrigation Equipment",
    "source_country": "IT",
    "country": "Italy",
    "state": "Emilia-Romagna",
    "city": "Formigine"
  }
]
