[
  {
    "source_id": "ChIJd7eylXj9fUcRgJvVsAodHf8",
    "name": "Tecnomat",
    "category": "Tecnomat",
    "formatted_address": "4,7(2.542)",
    "phone_number": "+390283905463",
    "source_url": "https://www.google.com/maps/place/Tecnomat/data=!4m7!3m6!1s0x477dfd7895b2b777:0xff1d1d0ab0d59b80!8m2!3d44.420516!4d12.1542138!16s%2Fg%2F11s_c0nvs_!19sChIJd7eylXj9fUcRgJvVsAodHf8?authuser=0&hl=tr&rclk=1",
    "website_url": "",
    "rating_text": "4,7",
    "stars": null,
    "number_of_reviews": null,
    "price_level": "",
    "open_hours": "",
    "extraction_timestamp": "2025-06-07T16:48:37.733Z",
    "source_name": "google",
    "source_query": "Irrigation Equipment",
    "source_country": "IT",
    "country": "Italy",
    "state": "Emilia-Romagna",
    "city": "Fornace Zarattini"
  },
  {
    "source_id": "ChIJedns4Ib-fUcRksY5a4tieuk",
    "name": "Menotti Poverini",
    "category": "Menotti Poverini",
    "formatted_address": "4,5(206)",
    "phone_number": "+390544465616",
    "source_url": "https://www.google.com/maps/place/Menotti+Poverini/data=!4m7!3m6!1s0x477dfe86e0ecd979:0xe97a628b6b39c692!8m2!3d44.4226749!4d12.1522757!16s%2Fg%2F11bbww_npg!19sChIJedns4Ib-fUcRksY5a4tieuk?authuser=0&hl=tr&rclk=1",
    "website_url": "",
    "rating_text": "4,5",
    "stars": null,
    "number_of_reviews": null,
    "price_level": "",
    "open_hours": "",
    "extraction_timestamp": "2025-06-07T16:48:37.735Z",
    "source_name": "google",
    "source_query": "Irrigation Equipment",
    "source_country": "IT",
    "country": "Italy",
    "state": "Emilia-Romagna",
    "city": "Fornace Zarattini"
  },
  {
    "source_id": "ChIJVSEYN0H_fUcRBYQ3bhPlnVU",
    "name": "Z&H STORE",
    "category": "Z&H STORE",
    "formatted_address": "4,0(609)",
    "phone_number": "+3905441881280",
    "source_url": "https://www.google.com/maps/place/Z%26H+STORE/data=!4m7!3m6!1s0x477dff4137182155:0x559de5136e378405!8m2!3d44.4205589!4d12.1562728!16s%2Fg%2F11h_vs943s!19sChIJVSEYN0H_fUcRBYQ3bhPlnVU?authuser=0&hl=tr&rclk=1",
    "website_url": "",
    "rating_text": "4,0",
    "stars": null,
    "number_of_reviews": null,
    "price_level": "",
    "open_hours": "",
    "extraction_timestamp": "2025-06-07T16:48:37.737Z",
    "source_name": "google",
    "source_query": "Irrigation Equipment",
    "source_country": "IT",
    "country": "Italy",
    "state": "Emilia-Romagna",
    "city": "Fornace Zarattini"
  },
  {
    "source_id": "ChIJK7bYXoP-fUcRLEcH_yEwAHQ",
    "name": "Idro Zeta - Sala Esposizione - Ravenna",
    "category": "Idro Zeta - Sala Esposizione - Ravenna",
    "formatted_address": "3,8(29)",
    "phone_number": "+390544501477",
    "source_url": "https://www.google.com/maps/place/Idro+Zeta+-+Sala+Esposizione+-+Ravenna/data=!4m7!3m6!1s0x477dfe835ed8b62b:0x74003021ff07472c!8m2!3d44.4205245!4d12.1562585!16s%2Fg%2F1trrc0f0!19sChIJK7bYXoP-fUcRLEcH_yEwAHQ?authuser=0&hl=tr&rclk=1",
    "website_url": "",
    "rating_text": "3,8",
    "stars": null,
    "number_of_reviews": null,
    "price_level": "",
    "open_hours": "",
    "extraction_timestamp": "2025-06-07T16:48:37.739Z",
    "source_name": "google",
    "source_query": "Irrigation Equipment",
    "source_country": "IT",
    "country": "Italy",
    "state": "Emilia-Romagna",
    "city": "Fornace Zarattini"
  },
  {
    "source_id": "ChIJNZVR82T-fUcR84oVrU6TDAE",
    "name": "Rier Impianti",
    "category": "Rier Impianti",
    "formatted_address": "4,0(9)",
    "phone_number": "+390544460370",
    "source_url": "https://www.google.com/maps/place/Rier+Impianti/data=!4m7!3m6!1s0x477dfe64f3519535:0x10c934ead158af3!8m2!3d44.4162596!4d12.135262!16s%2Fg%2F1hc2c457n!19sChIJNZVR82T-fUcR84oVrU6TDAE?authuser=0&hl=tr&rclk=1",
    "website_url": "",
    "rating_text": "4,0",
    "stars": null,
    "number_of_reviews": null,
    "price_level": "",
    "open_hours": "",
    "extraction_timestamp": "2025-06-07T16:48:37.740Z",
    "source_name": "google",
    "source_query": "Irrigation Equipment",
    "source_country": "IT",
    "country": "Italy",
    "state": "Emilia-Romagna",
    "city": "Fornace Zarattini"
  },
  {
    "source_id": "ChIJv6VnA4P-fUcR4gxzv3OPHSE",
    "name": "IPERCERAMICA Ravenna",
    "category": "IPERCERAMICA Ravenna",
    "formatted_address": "4,1(273)",
    "phone_number": "+393466276425",
    "source_url": "https://www.google.com/maps/place/IPERCERAMICA+Ravenna/data=!4m7!3m6!1s0x477dfe830367a5bf:0x211d8f73bf730ce2!8m2!3d44.421921!4d12.1531755!16s%2Fg%2F11d_259kg4!19sChIJv6VnA4P-fUcR4gxzv3OPHSE?authuser=0&hl=tr&rclk=1",
    "website_url": "",
    "rating_text": "4,1",
    "stars": null,
    "number_of_reviews": null,
    "price_level": "",
    "open_hours": "",
    "extraction_timestamp": "2025-06-07T16:48:37.741Z",
    "source_name": "google",
    "source_query": "Irrigation Equipment",
    "source_country": "IT",
    "country": "Italy",
    "state": "Emilia-Romagna",
    "city": "Fornace Zarattini"
  },
  {
    "source_id": "ChIJG4PqEIH-fUcR-S6aEJn9fVA",
    "name": "T.V.R. Attrezzature per La Pulizia Industriale",
    "category": "T.V.R. Attrezzature per La Pulizia Industriale",
    "formatted_address": "5,0(3)",
    "phone_number": "+393483509812",
    "source_url": "https://www.google.com/maps/place/T.V.R.+Attrezzature+per+La+Pulizia+Industriale/data=!4m7!3m6!1s0x477dfe8110ea831b:0x507dfd99109a2ef9!8m2!3d44.4205046!4d12.1518033!16s%2Fg%2F11b6hv6f30!19sChIJG4PqEIH-fUcR-S6aEJn9fVA?authuser=0&hl=tr&rclk=1",
    "website_url": "",
    "rating_text": "5,0",
    "stars": null,
    "number_of_reviews": null,
    "price_level": "",
    "open_hours": "",
    "extraction_timestamp": "2025-06-07T16:48:37.742Z",
    "source_name": "google",
    "source_query": "Irrigation Equipment",
    "source_country": "IT",
    "country": "Italy",
    "state": "Emilia-Romagna",
    "city": "Fornace Zarattini"
  },
  {
    "source_id": "ChIJM8Lj4IL-fUcRCyzxuy97ys0",
    "name": "Idrogas House Solutions srl",
    "category": "Idrogas House Solutions srl",
    "formatted_address": "4,4(15)",
    "phone_number": "+390544464156",
    "source_url": "https://www.google.com/maps/place/Idrogas+House+Solutions+srl/data=!4m7!3m6!1s0x477dfe82e0e3c233:0xcdca7b2fbbf12c0b!8m2!3d44.4228256!4d12.1571111!16s%2Fg%2F11bz_2tcrv!19sChIJM8Lj4IL-fUcRCyzxuy97ys0?authuser=0&hl=tr&rclk=1",
    "website_url": "",
    "rating_text": "4,4",
    "stars": null,
    "number_of_reviews": null,
    "price_level": "",
    "open_hours": "",
    "extraction_timestamp": "2025-06-07T16:48:37.744Z",
    "source_name": "google",
    "source_query": "Irrigation Equipment",
    "source_country": "IT",
    "country": "Italy",
    "state": "Emilia-Romagna",
    "city": "Fornace Zarattini"
  },
  {
    "source_id": "ChIJl9g5ms1J5xIRH2ynb7GSrA0",
    "name": "Cisalfa Sport S.p.A.",
    "category": "Cisalfa Sport S.p.A.",
    "formatted_address": "4,1(1.654)",
    "phone_number": "+390544082447",
    "source_url": "https://www.google.com/maps/place/Cisalfa+Sport+S.p.A./data=!4m7!3m6!1s0x12e749cd9a39d897:0xdac92b16fa76c1f!8m2!3d44.4233741!4d12.1663589!16s%2Fg%2F1hdz2b6jr!19sChIJl9g5ms1J5xIRH2ynb7GSrA0?authuser=0&hl=tr&rclk=1",
    "website_url": "",
    "rating_text": "4,1",
    "stars": null,
    "number_of_reviews": null,
    "price_level": "",
    "open_hours": "",
    "extraction_timestamp": "2025-06-07T16:48:37.746Z",
    "source_name": "google",
    "source_query": "Irrigation Equipment",
    "source_country": "IT",
    "country": "Italy",
    "state": "Emilia-Romagna",
    "city": "Fornace Zarattini"
  },
  {
    "source_id": "ChIJbxS2bgr5fUcRVklNzVG8Yg8",
    "name": "Tl Termoidraulica",
    "category": "Tl Termoidraulica",
    "formatted_address": "4,8(39)",
    "phone_number": "+3905441933780",
    "source_url": "https://www.google.com/maps/place/Tl+Termoidraulica/data=!4m7!3m6!1s0x477df90a6eb6146f:0xf62bc51cd4d4956!8m2!3d44.4233245!4d12.1564928!16s%2Fg%2F11h5d0pmbg!19sChIJbxS2bgr5fUcRVklNzVG8Yg8?authuser=0&hl=tr&rclk=1",
    "website_url": "",
    "rating_text": "4,8",
    "stars": null,
    "number_of_reviews": null,
    "price_level": "",
    "open_hours": "",
    "extraction_timestamp": "2025-06-07T16:48:37.747Z",
    "source_name": "google",
    "source_query": "Irrigation Equipment",
    "source_country": "IT",
    "country": "Italy",
    "state": "Emilia-Romagna",
    "city": "Fornace Zarattini"
  },
  {
    "source_id": "ChIJoc7l4IL-fUcR1OdGRE-wano",
    "name": "Würth Store & MODYF Ravenna",
    "category": "Würth Store & MODYF Ravenna",
    "formatted_address": "4,6(12)",
    "phone_number": "+390471828034",
    "source_url": "https://www.google.com/maps/place/W%C3%BCrth+Store+%26+MODYF+Ravenna/data=!4m7!3m6!1s0x477dfe82e0e5cea1:0x7a6ab04f4446e7d4!8m2!3d44.4222442!4d12.1574791!16s%2Fg%2F11ckgmyn4s!19sChIJoc7l4IL-fUcR1OdGRE-wano?authuser=0&hl=tr&rclk=1",
    "website_url": "",
    "rating_text": "4,6",
    "stars": null,
    "number_of_reviews": null,
    "price_level": "",
    "open_hours": "",
    "extraction_timestamp": "2025-06-07T16:48:37.749Z",
    "source_name": "google",
    "source_query": "Irrigation Equipment",
    "source_country": "IT",
    "country": "Italy",
    "state": "Emilia-Romagna",
    "city": "Fornace Zarattini"
  },
  {
    "source_id": "ChIJPVMEA4P-fUcRVktdNSLKnAk",
    "name": "Idrometal S.r.l.",
    "category": "Idrometal S.r.l.",
    "formatted_address": "5,0(1)",
    "phone_number": "+390544200899",
    "source_url": "https://www.google.com/maps/place/Idrometal+S.r.l./data=!4m7!3m6!1s0x477dfe830304533d:0x99cca22355d4b56!8m2!3d44.4230188!4d12.1565164!16s%2Fg%2F11fzff25sv!19sChIJPVMEA4P-fUcRVktdNSLKnAk?authuser=0&hl=tr&rclk=1",
    "website_url": "",
    "rating_text": "5,0",
    "stars": null,
    "number_of_reviews": null,
    "price_level": "",
    "open_hours": "",
    "extraction_timestamp": "2025-06-07T16:48:37.750Z",
    "source_name": "google",
    "source_query": "Irrigation Equipment",
    "source_country": "IT",
    "country": "Italy",
    "state": "Emilia-Romagna",
    "city": "Fornace Zarattini"
  },
  {
    "source_id": "ChIJQ8fJol1SKxMRShirn3slxH4",
    "name": "Tecnir",
    "category": "Tecnir",
    "formatted_address": "4,4(17)",
    "phone_number": "+390546641026",
    "source_url": "https://www.google.com/maps/place/Tecnir/data=!4m7!3m6!1s0x132b525da2c9c743:0x7ec4257b9fab184a!8m2!3d44.363732!4d11.935557!16s%2Fg%2F1vfps_3m!19sChIJQ8fJol1SKxMRShirn3slxH4?authuser=0&hl=tr&rclk=1",
    "website_url": "",
    "rating_text": "4,4",
    "stars": null,
    "number_of_reviews": null,
    "price_level": "",
    "open_hours": "",
    "extraction_timestamp": "2025-06-07T16:48:37.751Z",
    "source_name": "google",
    "source_query": "Irrigation Equipment",
    "source_country": "IT",
    "country": "Italy",
    "state": "Emilia-Romagna",
    "city": "Fornace Zarattini"
  },
  {
    "source_id": "ChIJi7qmgNz7fUcRb1p3xZzBUZ0",
    "name": "Gairsa Srl",
    "category": "Gairsa Srl",
    "formatted_address": "4,2(22)",
    "phone_number": "+390544421024",
    "source_url": "https://www.google.com/maps/place/Gairsa+Srl/data=!4m7!3m6!1s0x477dfbdc80a6ba8b:0x9d51c19cc5775a6f!8m2!3d44.4245561!4d12.2251123!16s%2Fg%2F1pzx3z5lm!19sChIJi7qmgNz7fUcRb1p3xZzBUZ0?authuser=0&hl=tr&rclk=1",
    "website_url": "",
    "rating_text": "4,2",
    "stars": null,
    "number_of_reviews": null,
    "price_level": "",
    "open_hours": "",
    "extraction_timestamp": "2025-06-07T16:48:37.751Z",
    "source_name": "google",
    "source_query": "Irrigation Equipment",
    "source_country": "IT",
    "country": "Italy",
    "state": "Emilia-Romagna",
    "city": "Fornace Zarattini"
  },
  {
    "source_id": "ChIJTcJrMO__fUcR_tVPGyIj3cw",
    "name": "Idro Zeta - Magazzino - Ravenna",
    "category": "Idro Zeta - Magazzino - Ravenna",
    "formatted_address": "Su Tesisatı Malzemeleri Satıcısı ·  · Via Faentina, 212CKapalı ⋅ Açılış zamanı: Pzt 08:00 · +39 0544 501477",
    "phone_number": "+390544501477",
    "source_url": "https://www.google.com/maps/place/Idro+Zeta+-+Magazzino+-+Ravenna/data=!4m7!3m6!1s0x477dffef306bc24d:0xccdd23221b4fd5fe!8m2!3d44.4205932!4d12.156047!16s%2Fg%2F11wp_707q1!19sChIJTcJrMO__fUcR_tVPGyIj3cw?authuser=0&hl=tr&rclk=1",
    "website_url": "",
    "rating_text": "",
    "stars": null,
    "number_of_reviews": null,
    "price_level": "",
    "open_hours": "",
    "extraction_timestamp": "2025-06-07T16:48:37.752Z",
    "source_name": "google",
    "source_query": "Irrigation Equipment",
    "source_country": "IT",
    "country": "Italy",
    "state": "Emilia-Romagna",
    "city": "Fornace Zarattini"
  },
  {
    "source_id": "ChIJN0PxybQBfkcRNrqJDBj7pg8",
    "name": "Giorgi Bevande",
    "category": "Giorgi Bevande",
    "formatted_address": "4,6(12)",
    "phone_number": "+390544583238",
    "source_url": "https://www.google.com/maps/place/Giorgi+Bevande/data=!4m7!3m6!1s0x477e01b4c9f14337:0xfa6fb180c89ba36!8m2!3d44.4147752!4d12.127965!16s%2Fg%2F1tk9pm04!19sChIJN0PxybQBfkcRNrqJDBj7pg8?authuser=0&hl=tr&rclk=1",
    "website_url": "",
    "rating_text": "4,6",
    "stars": null,
    "number_of_reviews": null,
    "price_level": "",
    "open_hours": "",
    "extraction_timestamp": "2025-06-07T16:48:37.753Z",
    "source_name": "google",
    "source_query": "Irrigation Equipment",
    "source_country": "IT",
    "country": "Italy",
    "state": "Emilia-Romagna",
    "city": "Fornace Zarattini"
  },
  {
    "source_id": "ChIJA1L3UoL-fUcR-5i6tuxx0sw",
    "name": "Punto Clima Snc",
    "category": "Punto Clima Snc",
    "formatted_address": "4,8(20)",
    "phone_number": "+390544463779",
    "source_url": "https://www.google.com/maps/place/Punto+Clima+Snc/data=!4m7!3m6!1s0x477dfe8252f75203:0xccd271ecb6ba98fb!8m2!3d44.4230331!4d12.1553562!16s%2Fg%2F11c6q4lhqs!19sChIJA1L3UoL-fUcR-5i6tuxx0sw?authuser=0&hl=tr&rclk=1",
    "website_url": "",
    "rating_text": "4,8",
    "stars": null,
    "number_of_reviews": null,
    "price_level": "",
    "open_hours": "",
    "extraction_timestamp": "2025-06-07T16:48:37.754Z",
    "source_name": "google",
    "source_query": "Irrigation Equipment",
    "source_country": "IT",
    "country": "Italy",
    "state": "Emilia-Romagna",
    "city": "Fornace Zarattini"
  },
  {
    "source_id": "ChIJM030B37-fUcRpJied7oNwPk",
    "name": "Dual Clima",
    "category": "Dual Clima",
    "formatted_address": "5,0(3)",
    "phone_number": "+393285919174",
    "source_url": "https://www.google.com/maps/place/Dual+Clima/data=!4m7!3m6!1s0x477dfe7e07f44d33:0xf9c00dba779e98a4!8m2!3d44.4173995!4d12.1458219!16s%2Fg%2F11dxhydmd_!19sChIJM030B37-fUcRpJied7oNwPk?authuser=0&hl=tr&rclk=1",
    "website_url": "",
    "rating_text": "5,0",
    "stars": null,
    "number_of_reviews": null,
    "price_level": "",
    "open_hours": "",
    "extraction_timestamp": "2025-06-07T16:48:37.755Z",
    "source_name": "google",
    "source_query": "Irrigation Equipment",
    "source_country": "IT",
    "country": "Italy",
    "state": "Emilia-Romagna",
    "city": "Fornace Zarattini"
  },
  {
    "source_id": "ChIJl2ccBZ7-fUcRPGB0UNTwAvk",
    "name": "Toys Center",
    "category": "Toys Center",
    "formatted_address": "3,9(853)",
    "phone_number": "+390544502280",
    "source_url": "https://www.google.com/maps/place/Toys+Center/data=!4m7!3m6!1s0x477dfe9e051c6797:0xf902f0d45074603c!8m2!3d44.4230757!4d12.1653027!16s%2Fg%2F1td5q32l!19sChIJl2ccBZ7-fUcRPGB0UNTwAvk?authuser=0&hl=tr&rclk=1",
    "website_url": "",
    "rating_text": "3,9",
    "stars": null,
    "number_of_reviews": null,
    "price_level": "",
    "open_hours": "",
    "extraction_timestamp": "2025-06-07T16:48:37.757Z",
    "source_name": "google",
    "source_query": "Irrigation Equipment",
    "source_country": "IT",
    "country": "Italy",
    "state": "Emilia-Romagna",
    "city": "Fornace Zarattini"
  },
  {
    "source_id": "ChIJh3Nd8G0sfkcR_m7VewEmxXM",
    "name": "Irrigarden",
    "category": "Irrigarden",
    "formatted_address": "4,7(158)",
    "phone_number": "+39051782013",
    "source_url": "https://www.google.com/maps/place/Irrigarden/data=!4m7!3m6!1s0x477e2c6df05d7387:0x73c526017bd56efe!8m2!3d44.5096266!4d11.4390897!16s%2Fg%2F1vgw_l7w!19sChIJh3Nd8G0sfkcR_m7VewEmxXM?authuser=0&hl=tr&rclk=1",
    "website_url": "",
    "rating_text": "4,7",
    "stars": null,
    "number_of_reviews": null,
    "price_level": "",
    "open_hours": "",
    "extraction_timestamp": "2025-06-07T16:48:37.758Z",
    "source_name": "google",
    "source_query": "Irrigation Equipment",
    "source_country": "IT",
    "country": "Italy",
    "state": "Emilia-Romagna",
    "city": "Fornace Zarattini"
  },
  {
    "source_id": "ChIJtwwVdYT7fUcRrJF5i3HEmhQ",
    "name": "Valvotubi Ind. Srl",
    "category": "Valvotubi Ind. Srl",
    "formatted_address": "5,0(1)",
    "phone_number": "+390544452279",
    "source_url": "https://www.google.com/maps/place/Valvotubi+Ind.+Srl/data=!4m7!3m6!1s0x477dfb8475150cb7:0x149ac4718b7991ac!8m2!3d44.4516106!4d12.2140294!16s%2Fg%2F1tmpjbyc!19sChIJtwwVdYT7fUcRrJF5i3HEmhQ?authuser=0&hl=tr&rclk=1",
    "website_url": "",
    "rating_text": "5,0",
    "stars": null,
    "number_of_reviews": null,
    "price_level": "",
    "open_hours": "",
    "extraction_timestamp": "2025-06-07T16:48:37.759Z",
    "source_name": "google",
    "source_query": "Irrigation Equipment",
    "source_country": "IT",
    "country": "Italy",
    "state": "Emilia-Romagna",
    "city": "Fornace Zarattini"
  },
  {
    "source_id": "ChIJm3n3Dxv5fUcRd6kE9inRVaw",
    "name": "PELLEGRINO Finestre Porte Zanzariere Tende Grate Pergolati S.r.l. Ravenna",
    "category": "PELLEGRINO Finestre Porte Zanzariere Tende Grate Pergolati S.r.l. Ravenna",
    "formatted_address": "4,4(159)",
    "phone_number": "+39054465592",
    "source_url": "https://www.google.com/maps/place/PELLEGRINO+Finestre+Porte+Zanzariere+Tende+Grate+Pergolati+S.r.l.+Ravenna/data=!4m7!3m6!1s0x477df91b0ff7799b:0xac55d129f604a977!8m2!3d44.3879644!4d12.213417!16s%2Fg%2F11h11w31b!19sChIJm3n3Dxv5fUcRd6kE9inRVaw?authuser=0&hl=tr&rclk=1",
    "website_url": "",
    "rating_text": "4,4",
    "stars": null,
    "number_of_reviews": null,
    "price_level": "",
    "open_hours": "",
    "extraction_timestamp": "2025-06-07T16:48:37.760Z",
    "source_name": "google",
    "source_query": "Irrigation Equipment",
    "source_country": "IT",
    "country": "Italy",
    "state": "Emilia-Romagna",
    "city": "Fornace Zarattini"
  },
  {
    "source_id": "ChIJXXAt_x8EfkcRAcXrL1lM9Sg",
    "name": "Ferramenta Laghi Romano",
    "category": "Ferramenta Laghi Romano",
    "formatted_address": "4,5(98)",
    "phone_number": "+39054561567",
    "source_url": "https://www.google.com/maps/place/Ferramenta+Laghi+Romano/data=!4m7!3m6!1s0x477e041fff2d705d:0x28f54c592febc501!8m2!3d44.4200286!4d11.9813032!16s%2Fg%2F1hc35nw96!19sChIJXXAt_x8EfkcRAcXrL1lM9Sg?authuser=0&hl=tr&rclk=1",
    "website_url": "",
    "rating_text": "4,5",
    "stars": null,
    "number_of_reviews": null,
    "price_level": "",
    "open_hours": "",
    "extraction_timestamp": "2025-06-07T16:48:37.761Z",
    "source_name": "google",
    "source_query": "Irrigation Equipment",
    "source_country": "IT",
    "country": "Italy",
    "state": "Emilia-Romagna",
    "city": "Fornace Zarattini"
  },
  {
    "source_id": "ChIJFQPWNPACfkcRGODtp-BlKG4",
    "name": "Battipav",
    "category": "Battipav",
    "formatted_address": "5,0(6)",
    "phone_number": "+39054540696",
    "source_url": "https://www.google.com/maps/place/Battipav/data=!4m7!3m6!1s0x477e02f034d60315:0x6e2865e0a7ede018!8m2!3d44.4002706!4d11.9349884!16s%2Fg%2F1tjdklg2!19sChIJFQPWNPACfkcRGODtp-BlKG4?authuser=0&hl=tr&rclk=1",
    "website_url": "",
    "rating_text": "5,0",
    "stars": null,
    "number_of_reviews": null,
    "price_level": "",
    "open_hours": "",
    "extraction_timestamp": "2025-06-07T16:48:37.762Z",
    "source_name": "google",
    "source_query": "Irrigation Equipment",
    "source_country": "IT",
    "country": "Italy",
    "state": "Emilia-Romagna",
    "city": "Fornace Zarattini"
  },
  {
    "source_id": "ChIJVVWFzR_5fUcR4mugZUM1u18",
    "name": "Idraulico Fabbro Urgente Ravenna",
    "category": "Idraulico Fabbro Urgente Ravenna",
    "formatted_address": "4,9(78)",
    "phone_number": "+393926684154",
    "source_url": "https://www.google.com/maps/place/Idraulico+Fabbro+Urgente+Ravenna/data=!4m7!3m6!1s0x477df91fcd855555:0x5fbb354365a06be2!8m2!3d44.4148695!4d12.2109158!16s%2Fg%2F11sk888k8p!19sChIJVVWFzR_5fUcR4mugZUM1u18?authuser=0&hl=tr&rclk=1",
    "website_url": "",
    "rating_text": "4,9",
    "stars": null,
    "number_of_reviews": null,
    "price_level": "",
    "open_hours": "",
    "extraction_timestamp": "2025-06-07T16:48:37.763Z",
    "source_name": "google",
    "source_query": "Irrigation Equipment",
    "source_country": "IT",
    "country": "Italy",
    "state": "Emilia-Romagna",
    "city": "Fornace Zarattini"
  },
  {
    "source_id": "ChIJK9dFl2QAfkcRgxzGV-_Pvas",
    "name": "OBI Ravenna",
    "category": "OBI Ravenna",
    "formatted_address": "4,0(3.189)",
    "phone_number": "+39054446671",
    "source_url": "https://www.google.com/maps/place/OBI+Ravenna/data=!4m7!3m6!1s0x477e00649745d72b:0xabbdcfef57c61c83!8m2!3d44.4252701!4d12.1663318!16s%2Fg%2F1tk61z1c!19sChIJK9dFl2QAfkcRgxzGV-_Pvas?authuser=0&hl=tr&rclk=1",
    "website_url": "",
    "rating_text": "4,0",
    "stars": null,
    "number_of_reviews": null,
    "price_level": "",
    "open_hours": "",
    "extraction_timestamp": "2025-06-07T16:48:37.765Z",
    "source_name": "google",
    "source_query": "Irrigation Equipment",
    "source_country": "IT",
    "country": "Italy",
    "state": "Emilia-Romagna",
    "city": "Fornace Zarattini"
  },
  {
    "source_id": "ChIJvRhnHOBSKxMRKlGT0NFP5JQ",
    "name": "Enernova Impianti",
    "category": "Enernova Impianti",
    "formatted_address": "5,0(35)",
    "phone_number": "+393383367730",
    "source_url": "https://www.google.com/maps/place/Enernova+Impianti/data=!4m7!3m6!1s0x132b52e01c6718bd:0x94e44fd1d093512a!8m2!3d44.3545248!4d11.9347255!16s%2Fg%2F11fy3lc67y!19sChIJvRhnHOBSKxMRKlGT0NFP5JQ?authuser=0&hl=tr&rclk=1",
    "website_url": "",
    "rating_text": "5,0",
    "stars": null,
    "number_of_reviews": null,
    "price_level": "",
    "open_hours": "",
    "extraction_timestamp": "2025-06-07T16:48:37.766Z",
    "source_name": "google",
    "source_query": "Irrigation Equipment",
    "source_country": "IT",
    "country": "Italy",
    "state": "Emilia-Romagna",
    "city": "Fornace Zarattini"
  },
  {
    "source_id": "ChIJj7p79zMzKxMRxzB_tpcRXKE",
    "name": "F.lli Farne' Srl",
    "category": "F.lli Farne' Srl",
    "formatted_address": "4,7(97)",
    "phone_number": "+39051941145",
    "source_url": "https://www.google.com/maps/place/F.lli+Farne%27+Srl/data=!4m7!3m6!1s0x132b3333f77bba8f:0xa15c1197b67f30c7!8m2!3d44.4060269!4d11.5874732!16s%2Fg%2F1vx88btc!19sChIJj7p79zMzKxMRxzB_tpcRXKE?authuser=0&hl=tr&rclk=1",
    "website_url": "",
    "rating_text": "4,7",
    "stars": null,
    "number_of_reviews": null,
    "price_level": "",
    "open_hours": "",
    "extraction_timestamp": "2025-06-07T16:48:37.767Z",
    "source_name": "google",
    "source_query": "Irrigation Equipment",
    "source_country": "IT",
    "country": "Italy",
    "state": "Emilia-Romagna",
    "city": "Fornace Zarattini"
  }
]
