[
  {
    "source_id": "ChIJPx3QtLhRKxMRZfDhesKWivM",
    "name": "Idrologica Srl",
    "category": "Idrologica Srl",
    "formatted_address": "4,3(67)",
    "phone_number": "+39054630489",
    "source_url": "https://www.google.com/maps/place/Idrologica+Srl/data=!4m7!3m6!1s0x132b51b8b4d01d3f:0xf38a96c27ae1f065!8m2!3d44.27834!4d11.914588!16s%2Fg%2F1th9jy0w!19sChIJPx3QtLhRKxMRZfDhesKWivM?authuser=0&hl=tr&rclk=1",
    "website_url": "http://www.consorzioagrarioravenna.it/idrologica",
    "rating_text": "4,3",
    "stars": null,
    "number_of_reviews": null,
    "price_level": "",
    "open_hours": "",
    "extraction_timestamp": "2025-06-07T16:45:00.315Z",
    "source_name": "google",
    "source_query": "Irrigation Equipment",
    "source_country": "IT",
    "country": "Italy",
    "state": "Emilia-Romagna",
    "city": "Fosso Ghiaia"
  },
  {
    "source_id": "ChIJE_3jOnMtfkcRkxtTFj3Ym9E",
    "name": "Irrigation Scarabelli Srl",
    "category": "Irrigation Scarabelli Srl",
    "formatted_address": "4,5(23)",
    "phone_number": "+39051763363",
    "source_url": "https://www.google.com/maps/place/Irrigation+Scarabelli+Srl/data=!4m7!3m6!1s0x477e2d733ae3fd13:0xd19bd83d16531b93!8m2!3d44.5426053!4d11.4189136!16s%2Fg%2F11gzdz6vf!19sChIJE_3jOnMtfkcRkxtTFj3Ym9E?authuser=0&hl=tr&rclk=1",
    "website_url": "",
    "rating_text": "4,5",
    "stars": null,
    "number_of_reviews": null,
    "price_level": "",
    "open_hours": "",
    "extraction_timestamp": "2025-06-07T16:45:00.315Z",
    "source_name": "google",
    "source_query": "Irrigation Equipment",
    "source_country": "IT",
    "country": "Italy",
    "state": "Emilia-Romagna",
    "city": "Fosso Ghiaia"
  },
  {
    "source_id": "ChIJh3Nd8G0sfkcR_m7VewEmxXM",
    "name": "Irrigarden",
    "category": "Irrigarden",
    "formatted_address": "4,7(158)",
    "phone_number": "+39051782013",
    "source_url": "https://www.google.com/maps/place/Irrigarden/data=!4m7!3m6!1s0x477e2c6df05d7387:0x73c526017bd56efe!8m2!3d44.5096266!4d11.4390897!16s%2Fg%2F1vgw_l7w!19sChIJh3Nd8G0sfkcR_m7VewEmxXM?authuser=0&hl=tr&rclk=1",
    "website_url": "https://www.irrigarden-bo.it/",
    "rating_text": "4,7",
    "stars": null,
    "number_of_reviews": null,
    "price_level": "",
    "open_hours": "",
    "extraction_timestamp": "2025-06-07T16:45:00.315Z",
    "source_name": "google",
    "source_query": "Irrigation Equipment",
    "source_country": "IT",
    "country": "Italy",
    "state": "Emilia-Romagna",
    "city": "Fosso Ghiaia"
  },
  {
    "source_id": "ChIJ3U7vZAv8fUcRKsjqNovawKI",
    "name": "Laghi Daniele",
    "category": "Laghi Daniele",
    "formatted_address": "4,5(83)",
    "phone_number": "+390544453102",
    "source_url": "https://www.google.com/maps/place/Laghi+Daniele/data=!4m7!3m6!1s0x477dfc0b64ef4edd:0xa2c0da8b36eac82a!8m2!3d44.437728!4d12.195777!16s%2Fg%2F11bxd806wz!19sChIJ3U7vZAv8fUcRKsjqNovawKI?authuser=0&hl=tr&rclk=1",
    "website_url": "http://laghidaniele.it/",
    "rating_text": "4,5",
    "stars": null,
    "number_of_reviews": null,
    "price_level": "",
    "open_hours": "",
    "extraction_timestamp": "2025-06-07T16:45:00.316Z",
    "source_name": "google",
    "source_query": "Irrigation Equipment",
    "source_country": "IT",
    "country": "Italy",
    "state": "Emilia-Romagna",
    "city": "Fosso Ghiaia"
  },
  {
    "source_id": "ChIJi7qmgNz7fUcRb1p3xZzBUZ0",
    "name": "Gairsa Srl",
    "category": "Gairsa Srl",
    "formatted_address": "4,2(22)",
    "phone_number": "+390544421024",
    "source_url": "https://www.google.com/maps/place/Gairsa+Srl/data=!4m7!3m6!1s0x477dfbdc80a6ba8b:0x9d51c19cc5775a6f!8m2!3d44.4245561!4d12.2251123!16s%2Fg%2F1pzx3z5lm!19sChIJi7qmgNz7fUcRb1p3xZzBUZ0?authuser=0&hl=tr&rclk=1",
    "website_url": "http://www.gairsa.it/",
    "rating_text": "4,2",
    "stars": null,
    "number_of_reviews": null,
    "price_level": "",
    "open_hours": "",
    "extraction_timestamp": "2025-06-07T16:45:00.316Z",
    "source_name": "google",
    "source_query": "Irrigation Equipment",
    "source_country": "IT",
    "country": "Italy",
    "state": "Emilia-Romagna",
    "city": "Fosso Ghiaia"
  },
  {
    "source_id": "ChIJG4PqEIH-fUcR-S6aEJn9fVA",
    "name": "T.V.R. Attrezzature per La Pulizia Industriale",
    "category": "T.V.R. Attrezzature per La Pulizia Industriale",
    "formatted_address": "5,0(3)",
    "phone_number": "+393483509812",
    "source_url": "https://www.google.com/maps/place/T.V.R.+Attrezzature+per+La+Pulizia+Industriale/data=!4m7!3m6!1s0x477dfe8110ea831b:0x507dfd99109a2ef9!8m2!3d44.4205046!4d12.1518033!16s%2Fg%2F11b6hv6f30!19sChIJG4PqEIH-fUcR-S6aEJn9fVA?authuser=0&hl=tr&rclk=1",
    "website_url": "http://www.tvr-ravenna.it/",
    "rating_text": "5,0",
    "stars": null,
    "number_of_reviews": null,
    "price_level": "",
    "open_hours": "",
    "extraction_timestamp": "2025-06-07T16:45:00.317Z",
    "source_name": "google",
    "source_query": "Irrigation Equipment",
    "source_country": "IT",
    "country": "Italy",
    "state": "Emilia-Romagna",
    "city": "Fosso Ghiaia"
  },
  {
    "source_id": "ChIJK1ZcisRRKxMRDRMZE8O_llo",
    "name": "Aquatech srl",
    "category": "Aquatech srl",
    "formatted_address": "Sulama Ekipmanları Tedarikçisi · Via Soldata, 1Kapalı ⋅ Açılış zamanı: Pzt 08:00 · +39 0546 30489",
    "phone_number": "+39054630489",
    "source_url": "https://www.google.com/maps/place/Aquatech+srl/data=!4m7!3m6!1s0x132b51c48a5c562b:0x5a96bfc31319130d!8m2!3d44.2783055!4d11.9146886!16s%2Fg%2F11h3g3tcsl!19sChIJK1ZcisRRKxMRDRMZE8O_llo?authuser=0&hl=tr&rclk=1",
    "website_url": "",
    "rating_text": "",
    "stars": null,
    "number_of_reviews": null,
    "price_level": "",
    "open_hours": "",
    "extraction_timestamp": "2025-06-07T16:45:00.317Z",
    "source_name": "google",
    "source_query": "Irrigation Equipment",
    "source_country": "IT",
    "country": "Italy",
    "state": "Emilia-Romagna",
    "city": "Fosso Ghiaia"
  }
]
