[
  {
    "source_id": "ChIJRUl04bS_KhMRZrwD9Kyg1ac",
    "name": "Cep Green| Ferramenta Lillo |",
    "category": "Cep Green| Ferramenta Lillo |",
    "formatted_address": "4,7(138)",
    "phone_number": "+39053437099",
    "source_url": "https://www.google.com/maps/place/Cep+Green%7C+Ferramenta+Lillo+%7C/data=!4m7!3m6!1s0x132abfb4e1744945:0xa7d5a0acf403bc66!8m2!3d44.1967019!4d10.9370523!16s%2Fg%2F11bc7rjw4q!19sChIJRUl04bS_KhMRZrwD9Kyg1ac?authuser=0&hl=tr&rclk=1",
    "website_url": "https://cepgreen.com/",
    "rating_text": "4,7",
    "stars": null,
    "number_of_reviews": null,
    "price_level": "",
    "open_hours": "",
    "extraction_timestamp": "2025-06-07T15:41:37.779Z",
    "source_name": "google",
    "source_query": "Irrigation Equipment",
    "source_country": "IT",
    "country": "Italy",
    "state": "Emilia-Romagna",
    "city": "Gaggio Montano"
  },
  {
    "source_id": "ChIJh3Nd8G0sfkcR_m7VewEmxXM",
    "name": "Irrigarden",
    "category": "Irrigarden",
    "formatted_address": "4,7(158)",
    "phone_number": "+39051782013",
    "source_url": "https://www.google.com/maps/place/Irrigarden/data=!4m7!3m6!1s0x477e2c6df05d7387:0x73c526017bd56efe!8m2!3d44.5096266!4d11.4390897!16s%2Fg%2F1vgw_l7w!19sChIJh3Nd8G0sfkcR_m7VewEmxXM?authuser=0&hl=tr&rclk=1",
    "website_url": "https://www.irrigarden-bo.it/",
    "rating_text": "4,7",
    "stars": null,
    "number_of_reviews": null,
    "price_level": "",
    "open_hours": "",
    "extraction_timestamp": "2025-06-07T15:41:37.781Z",
    "source_name": "google",
    "source_query": "Irrigation Equipment",
    "source_country": "IT",
    "country": "Italy",
    "state": "Emilia-Romagna",
    "city": "Gaggio Montano"
  },
  {
    "source_id": "ChIJE_3jOnMtfkcRkxtTFj3Ym9E",
    "name": "Irrigation Scarabelli Srl",
    "category": "Irrigation Scarabelli Srl",
    "formatted_address": "4,5(23)",
    "phone_number": "+39051763363",
    "source_url": "https://www.google.com/maps/place/Irrigation+Scarabelli+Srl/data=!4m7!3m6!1s0x477e2d733ae3fd13:0xd19bd83d16531b93!8m2!3d44.5426053!4d11.4189136!16s%2Fg%2F11gzdz6vf!19sChIJE_3jOnMtfkcRkxtTFj3Ym9E?authuser=0&hl=tr&rclk=1",
    "website_url": "",
    "rating_text": "4,5",
    "stars": null,
    "number_of_reviews": null,
    "price_level": "",
    "open_hours": "",
    "extraction_timestamp": "2025-06-07T15:41:37.783Z",
    "source_name": "google",
    "source_query": "Irrigation Equipment",
    "source_country": "IT",
    "country": "Italy",
    "state": "Emilia-Romagna",
    "city": "Gaggio Montano"
  },
  {
    "source_id": "ChIJcQG6ul7df0cR3VxKiu5OPBs",
    "name": "Scova Impianti Srl",
    "category": "Scova Impianti Srl",
    "formatted_address": "4,5(64)",
    "phone_number": "+39059923202",
    "source_url": "https://www.google.com/maps/place/Scova+Impianti+Srl/data=!4m7!3m6!1s0x477fdd5ebaba0171:0x1b3c4eee8a4a5cdd!8m2!3d44.6018135!4d11.032294!16s%2Fg%2F1tfzwbfb!19sChIJcQG6ul7df0cR3VxKiu5OPBs?authuser=0&hl=tr&rclk=1",
    "website_url": "https://www.scovaimpianti.com/",
    "rating_text": "4,5",
    "stars": null,
    "number_of_reviews": null,
    "price_level": "",
    "open_hours": "",
    "extraction_timestamp": "2025-06-07T15:41:37.784Z",
    "source_name": "google",
    "source_query": "Irrigation Equipment",
    "source_country": "IT",
    "country": "Italy",
    "state": "Emilia-Romagna",
    "city": "Gaggio Montano"
  },
  {
    "source_id": "ChIJyXgg68QrfkcRAaJCOMJ3PxY",
    "name": "hidrisistem",
    "category": "hidrisistem",
    "formatted_address": "5,0(1)",
    "phone_number": "+39366448310824",
    "source_url": "https://www.google.com/maps/place/hidrisistem/data=!4m7!3m6!1s0x477e2bc4eb2078c9:0x163f77c23842a201!8m2!3d44.496029!4d11.402638!16s%2Fg%2F11w_zjhjy3!19sChIJyXgg68QrfkcRAaJCOMJ3PxY?authuser=0&hl=tr&rclk=1",
    "website_url": "",
    "rating_text": "5,0",
    "stars": null,
    "number_of_reviews": null,
    "price_level": "",
    "open_hours": "",
    "extraction_timestamp": "2025-06-07T15:41:37.786Z",
    "source_name": "google",
    "source_query": "Irrigation Equipment",
    "source_country": "IT",
    "country": "Italy",
    "state": "Emilia-Romagna",
    "city": "Gaggio Montano"
  },
  {
    "source_id": "ChIJ_SYf2IMsfkcRVw9xVhrnjyI",
    "name": "Irrigazione Bragaglia",
    "category": "Irrigazione Bragaglia",
    "formatted_address": "4,7(30)",
    "phone_number": "+39051534865",
    "source_url": "https://www.google.com/maps/place/Irrigazione+Bragaglia/data=!4m7!3m6!1s0x477e2c83d81f26fd:0x228fe71a56710f57!8m2!3d44.5053735!4d11.412403!16s%2Fg%2F1vp6z0gf!19sChIJ_SYf2IMsfkcRVw9xVhrnjyI?authuser=0&hl=tr&rclk=1",
    "website_url": "http://www.irrigazionebragaglia.it/",
    "rating_text": "4,7",
    "stars": null,
    "number_of_reviews": null,
    "price_level": "",
    "open_hours": "",
    "extraction_timestamp": "2025-06-07T15:41:37.787Z",
    "source_name": "google",
    "source_query": "Irrigation Equipment",
    "source_country": "IT",
    "country": "Italy",
    "state": "Emilia-Romagna",
    "city": "Gaggio Montano"
  },
  {
    "source_id": "ChIJQyDw8N_0f0cRhE_m36C06SU",
    "name": "Irrigreen",
    "category": "Irrigreen",
    "formatted_address": "4,3(3)",
    "phone_number": "+390522642318",
    "source_url": "https://www.google.com/maps/place/Irrigreen/data=!4m7!3m6!1s0x477ff4dff0f02043:0x25e9b4a0dfe64f84!8m2!3d45.1836109!4d10.6267461!16s%2Fg%2F1tddwm9t!19sChIJQyDw8N_0f0cRhE_m36C06SU?authuser=0&hl=tr&rclk=1",
    "website_url": "http://www.irrigreen.it/",
    "rating_text": "4,3",
    "stars": null,
    "number_of_reviews": null,
    "price_level": "",
    "open_hours": "",
    "extraction_timestamp": "2025-06-07T15:41:37.788Z",
    "source_name": "google",
    "source_query": "Irrigation Equipment",
    "source_country": "IT",
    "country": "Italy",
    "state": "Emilia-Romagna",
    "city": "Gaggio Montano"
  },
  {
    "source_id": "ChIJKXlL1y_1LBMRWKZy2Kocweo",
    "name": "Idrofoglia s.r.l.",
    "category": "Idrofoglia s.r.l.",
    "formatted_address": "4,7(81)",
    "phone_number": "+390722700311",
    "source_url": "https://www.google.com/maps/place/Idrofoglia+s.r.l./data=!4m7!3m6!1s0x132cf52fd74b7929:0xeac11caad872a658!8m2!3d43.735361!4d12.4430347!16s%2Fg%2F1w0dk464!19sChIJKXlL1y_1LBMRWKZy2Kocweo?authuser=0&hl=tr&rclk=1",
    "website_url": "http://www.idrofoglia.it/",
    "rating_text": "4,7",
    "stars": null,
    "number_of_reviews": null,
    "price_level": "",
    "open_hours": "",
    "extraction_timestamp": "2025-06-07T15:41:37.789Z",
    "source_name": "google",
    "source_query": "Irrigation Equipment",
    "source_country": "IT",
    "country": "Italy",
    "state": "Emilia-Romagna",
    "city": "Gaggio Montano"
  },
  {
    "source_id": "ChIJ-Z_RHvbnf0cRry0jCm7Q5GQ",
    "name": "Scova Impianti",
    "category": "Scova Impianti",
    "formatted_address": "4,0(4)",
    "phone_number": "+39059925910",
    "source_url": "https://www.google.com/maps/place/Scova+Impianti/data=!4m7!3m6!1s0x477fe7f61ed19ff9:0x64e4d06e0a232daf!8m2!3d44.6018937!4d11.0315223!16s%2Fg%2F1td6wznv!19sChIJ-Z_RHvbnf0cRry0jCm7Q5GQ?authuser=0&hl=tr&rclk=1",
    "website_url": "https://scovaimpianti.com/",
    "rating_text": "4,0",
    "stars": null,
    "number_of_reviews": null,
    "price_level": "",
    "open_hours": "",
    "extraction_timestamp": "2025-06-07T15:41:37.791Z",
    "source_name": "google",
    "source_query": "Irrigation Equipment",
    "source_country": "IT",
    "country": "Italy",
    "state": "Emilia-Romagna",
    "city": "Gaggio Montano"
  },
  {
    "source_id": "ChIJN3McatqOhkcRd1Bzz5AHqlY",
    "name": "Ag Plast Irrigation Srl",
    "category": "Ag Plast Irrigation Srl",
    "formatted_address": "5,0(3)",
    "phone_number": "+390331611846",
    "source_url": "https://www.google.com/maps/place/Ag+Plast+Irrigation+Srl/data=!4m7!3m6!1s0x47868eda6a1c7337:0x56aa0790cf735077!8m2!3d45.6666828!4d8.8878019!16s%2Fg%2F12jm3wfjk!19sChIJN3McatqOhkcRd1Bzz5AHqlY?authuser=0&hl=tr&rclk=1",
    "website_url": "http://agplastirrigation.it/",
    "rating_text": "5,0",
    "stars": null,
    "number_of_reviews": null,
    "price_level": "",
    "open_hours": "",
    "extraction_timestamp": "2025-06-07T15:41:37.792Z",
    "source_name": "google",
    "source_query": "Irrigation Equipment",
    "source_country": "IT",
    "country": "Italy",
    "state": "Emilia-Romagna",
    "city": "Gaggio Montano"
  },
  {
    "source_id": "ChIJdbi1mvUlfkcRw_VX1yUWxp8",
    "name": "Hydro Italia srl - Trattamento e Depurazione Acque Industriali",
    "category": "Hydro Italia srl - Trattamento e Depurazione Acque Industriali",
    "formatted_address": "4,0(2)",
    "phone_number": "+39051856263",
    "source_url": "https://www.google.com/maps/place/Hydro+Italia+srl+-+Trattamento+e+Depurazione+Acque+Industriali/data=!4m7!3m6!1s0x477e25f59ab5b875:0x9fc61625d757f5c3!8m2!3d44.5025405!4d11.560667!16s%2Fg%2F1tdjp_4w!19sChIJdbi1mvUlfkcRw_VX1yUWxp8?authuser=0&hl=tr&rclk=1",
    "website_url": "https://www.hydroitalia.com/?utm_source=google&utm_medium=mybusiness&utm_campaign=url-sito",
    "rating_text": "4,0",
    "stars": null,
    "number_of_reviews": null,
    "price_level": "",
    "open_hours": "",
    "extraction_timestamp": "2025-06-07T15:41:37.794Z",
    "source_name": "google",
    "source_query": "Irrigation Equipment",
    "source_country": "IT",
    "country": "Italy",
    "state": "Emilia-Romagna",
    "city": "Gaggio Montano"
  },
  {
    "source_id": "ChIJp2R3w7_Qf0cRHlt9J4ovm_o",
    "name": "Irritec S.p.A. - Stabilimento F",
    "category": "Irritec S.p.A. - Stabilimento F",
    "formatted_address": "5,0(2)",
    "phone_number": "+390516508020",
    "source_url": "https://www.google.com/maps/place/Irritec+S.p.A.+-+Stabilimento+F/data=!4m7!3m6!1s0x477fd0bfc37764a7:0xfa9b2f8a277d5b1e!8m2!3d44.6210254!4d11.3703614!16s%2Fg%2F1xpwhmq4!19sChIJp2R3w7_Qf0cRHlt9J4ovm_o?authuser=0&hl=tr&rclk=1",
    "website_url": "http://www.irritec.com/",
    "rating_text": "5,0",
    "stars": null,
    "number_of_reviews": null,
    "price_level": "",
    "open_hours": "",
    "extraction_timestamp": "2025-06-07T15:41:37.795Z",
    "source_name": "google",
    "source_query": "Irrigation Equipment",
    "source_country": "IT",
    "country": "Italy",
    "state": "Emilia-Romagna",
    "city": "Gaggio Montano"
  },
  {
    "source_id": "ChIJCfGZUN1bKhMRf4-QhnWZoPs",
    "name": "Del Taglia Irrigazione",
    "category": "Del Taglia Irrigazione",
    "formatted_address": "4,5(10)",
    "phone_number": "+390558736611",
    "source_url": "https://www.google.com/maps/place/Del+Taglia+Irrigazione/data=!4m7!3m6!1s0x132a5bdd5099f109:0xfba0997586908f7f!8m2!3d43.7938708!4d11.1035784!16s%2Fg%2F11b6hz8try!19sChIJCfGZUN1bKhMRf4-QhnWZoPs?authuser=0&hl=tr&rclk=1",
    "website_url": "http://www.dti.it/",
    "rating_text": "4,5",
    "stars": null,
    "number_of_reviews": null,
    "price_level": "",
    "open_hours": "",
    "extraction_timestamp": "2025-06-07T15:41:37.797Z",
    "source_name": "google",
    "source_query": "Irrigation Equipment",
    "source_country": "IT",
    "country": "Italy",
    "state": "Emilia-Romagna",
    "city": "Gaggio Montano"
  },
  {
    "source_id": "ChIJSSMzGN4pfkcRxNrEMhpqts8",
    "name": "Hydro Ware srl",
    "category": "Hydro Ware srl",
    "formatted_address": "4,5(2)",
    "phone_number": "+390510404329",
    "source_url": "https://www.google.com/maps/place/Hydro+Ware+srl/data=!4m7!3m6!1s0x477e29de18332349:0xcfb66a1a32c4dac4!8m2!3d44.4442053!4d11.4850842!16s%2Fg%2F11h55y8w7d!19sChIJSSMzGN4pfkcRxNrEMhpqts8?authuser=0&hl=tr&rclk=1",
    "website_url": "http://www.hydroware.it/it/",
    "rating_text": "4,5",
    "stars": null,
    "number_of_reviews": null,
    "price_level": "",
    "open_hours": "",
    "extraction_timestamp": "2025-06-07T15:41:37.798Z",
    "source_name": "google",
    "source_query": "Irrigation Equipment",
    "source_country": "IT",
    "country": "Italy",
    "state": "Emilia-Romagna",
    "city": "Gaggio Montano"
  },
  {
    "source_id": "ChIJCXuseTHTf0cRzptQ0pGelFU",
    "name": "Alpe Hydraulic Systems Water Meters",
    "category": "Alpe Hydraulic Systems Water Meters",
    "formatted_address": "Su Hizmeti Sağlayıcısı · Via del Gomito, 23+39 051 326854",
    "phone_number": "+39051326854",
    "source_url": "https://www.google.com/maps/place/Alpe+Hydraulic+Systems+Water+Meters/data=!4m7!3m6!1s0x477fd33179ac7b09:0x55949e91d2509bce!8m2!3d44.531701!4d11.3753288!16s%2Fg%2F1tjt0slq!19sChIJCXuseTHTf0cRzptQ0pGelFU?authuser=0&hl=tr&rclk=1",
    "website_url": "http://www.ahs.it/",
    "rating_text": "",
    "stars": null,
    "number_of_reviews": null,
    "price_level": "",
    "open_hours": "",
    "extraction_timestamp": "2025-06-07T15:41:37.799Z",
    "source_name": "google",
    "source_query": "Irrigation Equipment",
    "source_country": "IT",
    "country": "Italy",
    "state": "Emilia-Romagna",
    "city": "Gaggio Montano"
  },
  {
    "source_id": "ChIJCf5GXp9ywgwRjOaHi3EuOyk",
    "name": "T.R.I. italia srl irrigazione",
    "category": "T.R.I. italia srl irrigazione",
    "formatted_address": "",
    "phone_number": "+393492227322",
    "source_url": "https://www.google.com/maps/place/T.R.I.+italia+srl+irrigazione/data=!4m7!3m6!1s0xcc2729f5e46fe09:0x293b2e718b87e68c!8m2!3d41.29085!4d12.71216!16s%2Fg%2F11wqp9bx1c!19sChIJCf5GXp9ywgwRjOaHi3EuOyk?authuser=0&hl=tr&rclk=1",
    "website_url": "",
    "rating_text": "",
    "stars": null,
    "number_of_reviews": null,
    "price_level": "",
    "open_hours": "",
    "extraction_timestamp": "2025-06-07T15:41:37.800Z",
    "source_name": "google",
    "source_query": "Irrigation Equipment",
    "source_country": "IT",
    "country": "Italy",
    "state": "Emilia-Romagna",
    "city": "Gaggio Montano"
  },
  {
    "source_id": "ChIJ9UosqzHbASoR02d0Tw_sUAk",
    "name": "TRI italia srl",
    "category": "TRI italia srl",
    "formatted_address": "",
    "phone_number": "+393492227322",
    "source_url": "https://www.google.com/maps/place/TRI+italia+srl/data=!4m7!3m6!1s0x2a01db31ab2c4af5:0x950ec0f4f7467d3!8m2!3d41.29085!4d12.71216!16s%2Fg%2F11wqp8w6f4!19sChIJ9UosqzHbASoR02d0Tw_sUAk?authuser=0&hl=tr&rclk=1",
    "website_url": "",
    "rating_text": "",
    "stars": null,
    "number_of_reviews": null,
    "price_level": "",
    "open_hours": "",
    "extraction_timestamp": "2025-06-07T15:41:37.801Z",
    "source_name": "google",
    "source_query": "Irrigation Equipment",
    "source_country": "IT",
    "country": "Italy",
    "state": "Emilia-Romagna",
    "city": "Gaggio Montano"
  },
  {
    "source_id": "ChIJlffQ1RR-KhMR5glWdV92Mgk",
    "name": "Nuova A. Guastapaglia L'Irrigazione Srl",
    "category": "Nuova A. Guastapaglia L'Irrigazione Srl",
    "formatted_address": "4,3(50)",
    "phone_number": "+390572453137",
    "source_url": "https://www.google.com/maps/place/Nuova+A.+Guastapaglia+L%27Irrigazione+Srl/data=!4m7!3m6!1s0x132a7e14d5d0f795:0x932765f755609e6!8m2!3d43.8835256!4d10.6839506!16s%2Fg%2F11b6hwlm64!19sChIJlffQ1RR-KhMR5glWdV92Mgk?authuser=0&hl=tr&rclk=1",
    "website_url": "",
    "rating_text": "4,3",
    "stars": null,
    "number_of_reviews": null,
    "price_level": "",
    "open_hours": "",
    "extraction_timestamp": "2025-06-07T15:41:37.802Z",
    "source_name": "google",
    "source_query": "Irrigation Equipment",
    "source_country": "IT",
    "country": "Italy",
    "state": "Emilia-Romagna",
    "city": "Gaggio Montano"
  },
  {
    "source_id": "ChIJnbkQdwC_KhMRKYv9G2dYGnk",
    "name": "Depuratore Gaggio Montano",
    "category": "Depuratore Gaggio Montano",
    "formatted_address": "Su Arıtma Tesisi · Via del Molino di Gaggio, 231",
    "phone_number": "",
    "source_url": "https://www.google.com/maps/place/Depuratore+Gaggio+Montano/data=!4m7!3m6!1s0x132abf007710b99d:0x791a58671bfd8b29!8m2!3d44.186294!4d10.953557!16s%2Fg%2F11vq6l_6p9!19sChIJnbkQdwC_KhMRKYv9G2dYGnk?authuser=0&hl=tr&rclk=1",
    "website_url": "",
    "rating_text": "",
    "stars": null,
    "number_of_reviews": null,
    "price_level": "",
    "open_hours": "",
    "extraction_timestamp": "2025-06-07T15:41:37.803Z",
    "source_name": "google",
    "source_query": "Irrigation Equipment",
    "source_country": "IT",
    "country": "Italy",
    "state": "Emilia-Romagna",
    "city": "Gaggio Montano"
  }
]
