[
  {
    "source_id": "ChIJAbwfMgi8LBMRioiar71f0bM",
    "name": "Calandrini Irrigazioni",
    "category": "Calandrini Irrigazioni",
    "formatted_address": "4,4(18)",
    "phone_number": "+39054756150",
    "source_url": "https://www.google.com/maps/place/Calandrini+Irrigazioni/data=!4m7!3m6!1s0x132cbc08321fbc01:0xb3d15fbdaf9a888a!8m2!3d44.1072556!4d12.3324437!16s%2Fg%2F1td0k7ly!19sChIJAbwfMgi8LBMRioiar71f0bM?authuser=0&hl=tr&rclk=1",
    "website_url": "",
    "rating_text": "4,4",
    "stars": null,
    "number_of_reviews": null,
    "price_level": "",
    "open_hours": "",
    "extraction_timestamp": "2025-06-07T16:14:32.883Z",
    "source_name": "google",
    "source_query": "Irrigation Equipment",
    "source_country": "IT",
    "country": "Italy",
    "state": "Emilia-Romagna",
    "city": "Gambettola"
  },
  {
    "source_id": "ChIJxwyfbMW-LBMR82ivWDKLyak",
    "name": "Campedelli srl",
    "category": "Campedelli srl",
    "formatted_address": "4,3(20)",
    "phone_number": "+390541945180",
    "source_url": "https://www.google.com/maps/place/Campedelli+srl/data=!4m7!3m6!1s0x132cbec56c9f0cc7:0xa9c98b3258af68f3!8m2!3d44.0913771!4d12.3790216!16s%2Fg%2F1td55wfn!19sChIJxwyfbMW-LBMR82ivWDKLyak?authuser=0&hl=tr&rclk=1",
    "website_url": "",
    "rating_text": "4,3",
    "stars": null,
    "number_of_reviews": null,
    "price_level": "",
    "open_hours": "",
    "extraction_timestamp": "2025-06-07T16:14:32.884Z",
    "source_name": "google",
    "source_query": "Irrigation Equipment",
    "source_country": "IT",
    "country": "Italy",
    "state": "Emilia-Romagna",
    "city": "Gambettola"
  },
  {
    "source_id": "ChIJy4AVn9C-LBMRn6nsnuZl82A",
    "name": "Ramilli Irrigazioni S.R.L.",
    "category": "Ramilli Irrigazioni S.R.L.",
    "formatted_address": "4,3(52)",
    "phone_number": "+390541945335",
    "source_url": "https://www.google.com/maps/place/Ramilli+Irrigazioni+S.R.L./data=!4m7!3m6!1s0x132cbed09f1580cb:0x60f365e69eeca99f!8m2!3d44.0923156!4d12.3843691!16s%2Fg%2F1ts2ls1r!19sChIJy4AVn9C-LBMRn6nsnuZl82A?authuser=0&hl=tr&rclk=1",
    "website_url": "",
    "rating_text": "4,3",
    "stars": null,
    "number_of_reviews": null,
    "price_level": "",
    "open_hours": "",
    "extraction_timestamp": "2025-06-07T16:14:32.884Z",
    "source_name": "google",
    "source_query": "Irrigation Equipment",
    "source_country": "IT",
    "country": "Italy",
    "state": "Emilia-Romagna",
    "city": "Gambettola"
  },
  {
    "source_id": "ChIJ6V_bZG65LBMR6_qD8NNIQ0A",
    "name": "Mazzoni Massimo Srl",
    "category": "Mazzoni Massimo Srl",
    "formatted_address": "4,6(92)",
    "phone_number": "+39054788260",
    "source_url": "https://www.google.com/maps/place/Mazzoni+Massimo+Srl/data=!4m7!3m6!1s0x132cb96e64db5fe9:0x404348d3f083faeb!8m2!3d44.1299616!4d12.3628702!16s%2Fg%2F11c5xv4rdg!19sChIJ6V_bZG65LBMR6_qD8NNIQ0A?authuser=0&hl=tr&rclk=1",
    "website_url": "",
    "rating_text": "4,6",
    "stars": null,
    "number_of_reviews": null,
    "price_level": "",
    "open_hours": "",
    "extraction_timestamp": "2025-06-07T16:14:32.884Z",
    "source_name": "google",
    "source_query": "Irrigation Equipment",
    "source_country": "IT",
    "country": "Italy",
    "state": "Emilia-Romagna",
    "city": "Gambettola"
  },
  {
    "source_id": "ChIJza-Tl_e7LBMRgd13f54axmg",
    "name": "Hardware - Tools Moreno Moreno & Co. Srl",
    "category": "Hardware - Tools Moreno Moreno & Co. Srl",
    "formatted_address": "4,7(234)",
    "phone_number": "+39054759124",
    "source_url": "https://www.google.com/maps/place/Hardware+-+Tools+Moreno+Moreno+%26+Co.+Srl/data=!4m7!3m6!1s0x132cbbf79793afcd:0x68c61a9e7f77dd81!8m2!3d44.1090812!4d12.3336324!16s%2Fg%2F1vx7brsm!19sChIJza-Tl_e7LBMRgd13f54axmg?authuser=0&hl=tr&rclk=1",
    "website_url": "",
    "rating_text": "4,7",
    "stars": null,
    "number_of_reviews": null,
    "price_level": "",
    "open_hours": "",
    "extraction_timestamp": "2025-06-07T16:14:32.885Z",
    "source_name": "google",
    "source_query": "Irrigation Equipment",
    "source_country": "IT",
    "country": "Italy",
    "state": "Emilia-Romagna",
    "city": "Gambettola"
  },
  {
    "source_id": "ChIJ68i18nq6LBMRHr0Y1_62DLE",
    "name": "Lineaverde s.a.s. di Fantini Marina",
    "category": "Lineaverde s.a.s. di Fantini Marina",
    "formatted_address": "4,8(24)",
    "phone_number": "+390547322071",
    "source_url": "https://www.google.com/maps/place/Lineaverde+s.a.s.+di+Fantini+Marina/data=!4m7!3m6!1s0x132cba7af2b5c8eb:0xb10cb6fed718bd1e!8m2!3d44.176567!4d12.3105783!16s%2Fg%2F11d_25mn6t!19sChIJ68i18nq6LBMRHr0Y1_62DLE?authuser=0&hl=tr&rclk=1",
    "website_url": "",
    "rating_text": "4,8",
    "stars": null,
    "number_of_reviews": null,
    "price_level": "",
    "open_hours": "",
    "extraction_timestamp": "2025-06-07T16:14:32.885Z",
    "source_name": "google",
    "source_query": "Irrigation Equipment",
    "source_country": "IT",
    "country": "Italy",
    "state": "Emilia-Romagna",
    "city": "Gambettola"
  },
  {
    "source_id": "ChIJKb3qwAq9LBMRUcJUgWGEt0U",
    "name": "Casali Irrigazione",
    "category": "Casali Irrigazione",
    "formatted_address": "3,0(1)",
    "phone_number": "+393346424587",
    "source_url": "https://www.google.com/maps/place/Casali+Irrigazione/data=!4m7!3m6!1s0x132cbd0ac0eabd29:0x45b784618154c251!8m2!3d44.08289!4d12.27084!16s%2Fg%2F1tdr5fdj!19sChIJKb3qwAq9LBMRUcJUgWGEt0U?authuser=0&hl=tr&rclk=1",
    "website_url": "",
    "rating_text": "3,0",
    "stars": null,
    "number_of_reviews": null,
    "price_level": "",
    "open_hours": "",
    "extraction_timestamp": "2025-06-07T16:14:32.885Z",
    "source_name": "google",
    "source_query": "Irrigation Equipment",
    "source_country": "IT",
    "country": "Italy",
    "state": "Emilia-Romagna",
    "city": "Gambettola"
  },
  {
    "source_id": "ChIJ5xCbpOS7LBMR2kL-YZrgj4s",
    "name": "Vitasommersa Di Romagnoli Daniela",
    "category": "Vitasommersa Di Romagnoli Daniela",
    "formatted_address": "4,8(116)",
    "phone_number": "+39054757576",
    "source_url": "https://www.google.com/maps/place/Vitasommersa+Di+Romagnoli+Daniela/data=!4m7!3m6!1s0x132cbbe4a49b10e7:0x8b8fe09a61fe42da!8m2!3d44.1162739!4d12.3397845!16s%2Fg%2F1tgw74s3!19sChIJ5xCbpOS7LBMR2kL-YZrgj4s?authuser=0&hl=tr&rclk=1",
    "website_url": "",
    "rating_text": "4,8",
    "stars": null,
    "number_of_reviews": null,
    "price_level": "",
    "open_hours": "",
    "extraction_timestamp": "2025-06-07T16:14:32.886Z",
    "source_name": "google",
    "source_query": "Irrigation Equipment",
    "source_country": "IT",
    "country": "Italy",
    "state": "Emilia-Romagna",
    "city": "Gambettola"
  },
  {
    "source_id": "ChIJVfQKJOS7LBMR8nPP1rwyUWk",
    "name": "Hobby Petfood Giardinaggio",
    "category": "Hobby Petfood Giardinaggio",
    "formatted_address": "4,5(2)",
    "phone_number": "+393395039430",
    "source_url": "https://www.google.com/maps/place/Hobby+Petfood+Giardinaggio/data=!4m7!3m6!1s0x132cbbe4240af455:0x695132bcd6cf73f2!8m2!3d44.1197468!4d12.3389827!16s%2Fg%2F1tqd2_5_!19sChIJVfQKJOS7LBMR8nPP1rwyUWk?authuser=0&hl=tr&rclk=1",
    "website_url": "",
    "rating_text": "4,5",
    "stars": null,
    "number_of_reviews": null,
    "price_level": "",
    "open_hours": "",
    "extraction_timestamp": "2025-06-07T16:14:32.886Z",
    "source_name": "google",
    "source_query": "Irrigation Equipment",
    "source_country": "IT",
    "country": "Italy",
    "state": "Emilia-Romagna",
    "city": "Gambettola"
  },
  {
    "source_id": "ChIJ_6V63QO8LBMRWhnNjhv4AF0",
    "name": "Ricci Giorgio Srl ricambi industriali",
    "category": "Ricci Giorgio Srl ricambi industriali",
    "formatted_address": "4,9(47)",
    "phone_number": "+39054756063",
    "source_url": "https://www.google.com/maps/place/Ricci+Giorgio+Srl+ricambi+industriali/data=!4m7!3m6!1s0x132cbc03dd7aa5ff:0x5d00f81b8ecd195a!8m2!3d44.1000251!4d12.3415346!16s%2Fg%2F1tdg04mt!19sChIJ_6V63QO8LBMRWhnNjhv4AF0?authuser=0&hl=tr&rclk=1",
    "website_url": "",
    "rating_text": "4,9",
    "stars": null,
    "number_of_reviews": null,
    "price_level": "",
    "open_hours": "",
    "extraction_timestamp": "2025-06-07T16:14:32.886Z",
    "source_name": "google",
    "source_query": "Irrigation Equipment",
    "source_country": "IT",
    "country": "Italy",
    "state": "Emilia-Romagna",
    "city": "Gambettola"
  },
  {
    "source_id": "ChIJSYvtteS7LBMRMuMOjoTYXB8",
    "name": "Ferramenta Rossi di Notarstefano Nicola",
    "category": "Ferramenta Rossi di Notarstefano Nicola",
    "formatted_address": "4,5(20)",
    "phone_number": "+390547485582",
    "source_url": "https://www.google.com/maps/place/Ferramenta+Rossi+di+Notarstefano+Nicola/data=!4m7!3m6!1s0x132cbbe4b5ed8b49:0x1f5cd8848e0ee332!8m2!3d44.1166406!4d12.3390405!16s%2Fg%2F1thzxj92!19sChIJSYvtteS7LBMRMuMOjoTYXB8?authuser=0&hl=tr&rclk=1",
    "website_url": "",
    "rating_text": "4,5",
    "stars": null,
    "number_of_reviews": null,
    "price_level": "",
    "open_hours": "",
    "extraction_timestamp": "2025-06-07T16:14:32.887Z",
    "source_name": "google",
    "source_query": "Irrigation Equipment",
    "source_country": "IT",
    "country": "Italy",
    "state": "Emilia-Romagna",
    "city": "Gambettola"
  },
  {
    "source_id": "ChIJUX5B_ve7LBMRsppvX745J8s",
    "name": "Zoovet - Pets e Green Shop",
    "category": "Zoovet - Pets e Green Shop",
    "formatted_address": "4,7(234)",
    "phone_number": "+390547075017",
    "source_url": "https://www.google.com/maps/place/Zoovet+-+Pets+e+Green+Shop/data=!4m7!3m6!1s0x132cbbf7fe417e51:0xcb2739be5f6f9ab2!8m2!3d44.1094818!4d12.3345136!16s%2Fg%2F1tkzjbt0!19sChIJUX5B_ve7LBMRsppvX745J8s?authuser=0&hl=tr&rclk=1",
    "website_url": "",
    "rating_text": "4,7",
    "stars": null,
    "number_of_reviews": null,
    "price_level": "",
    "open_hours": "",
    "extraction_timestamp": "2025-06-07T16:14:32.887Z",
    "source_name": "google",
    "source_query": "Irrigation Equipment",
    "source_country": "IT",
    "country": "Italy",
    "state": "Emilia-Romagna",
    "city": "Gambettola"
  },
  {
    "source_id": "ChIJf2nOlfu7LBMR9mGbaZH-Gvk",
    "name": "Pf Termoidraulica",
    "category": "Pf Termoidraulica",
    "formatted_address": "5,0(1)",
    "phone_number": "+393451154704",
    "source_url": "https://www.google.com/maps/place/Pf+Termoidraulica/data=!4m7!3m6!1s0x132cbbfb95ce697f:0xf91afe91699b61f6!8m2!3d44.1124078!4d12.3392066!16s%2Fg%2F11d_8wyqt1!19sChIJf2nOlfu7LBMR9mGbaZH-Gvk?authuser=0&hl=tr&rclk=1",
    "website_url": "",
    "rating_text": "5,0",
    "stars": null,
    "number_of_reviews": null,
    "price_level": "",
    "open_hours": "",
    "extraction_timestamp": "2025-06-07T16:14:32.887Z",
    "source_name": "google",
    "source_query": "Irrigation Equipment",
    "source_country": "IT",
    "country": "Italy",
    "state": "Emilia-Romagna",
    "city": "Gambettola"
  },
  {
    "source_id": "ChIJV6ygPwK8LBMRaN7hZYGMO80",
    "name": "Ferramenta De Gag Sas",
    "category": "Ferramenta De Gag Sas",
    "formatted_address": "4,7(92)",
    "phone_number": "+39054754063",
    "source_url": "https://www.google.com/maps/place/Ferramenta+De+Gag+Sas/data=!4m7!3m6!1s0x132cbc023fa0ac57:0xcd3b8c8165e1de68!8m2!3d44.0998715!4d12.3449781!16s%2Fg%2F1tfcqgtr!19sChIJV6ygPwK8LBMRaN7hZYGMO80?authuser=0&hl=tr&rclk=1",
    "website_url": "",
    "rating_text": "4,7",
    "stars": null,
    "number_of_reviews": null,
    "price_level": "",
    "open_hours": "",
    "extraction_timestamp": "2025-06-07T16:14:32.888Z",
    "source_name": "google",
    "source_query": "Irrigation Equipment",
    "source_country": "IT",
    "country": "Italy",
    "state": "Emilia-Romagna",
    "city": "Gambettola"
  },
  {
    "source_id": "ChIJO9LZplClLBMRoc5mYg6AFeY",
    "name": "Irrigazione Balestra Di Battistini Filippo & Francesca SNC",
    "category": "Irrigazione Balestra Di Battistini Filippo & Francesca SNC",
    "formatted_address": "4,6(14)",
    "phone_number": "+390547384176",
    "source_url": "https://www.google.com/maps/place/Irrigazione+Balestra+Di+Battistini+Filippo+%26+Francesca+SNC/data=!4m7!3m6!1s0x132ca550a6d9d23b:0xe615800e6266cea1!8m2!3d44.1861044!4d12.2437073!16s%2Fg%2F1tf90qkj!19sChIJO9LZplClLBMRoc5mYg6AFeY?authuser=0&hl=tr&rclk=1",
    "website_url": "",
    "rating_text": "4,6",
    "stars": null,
    "number_of_reviews": null,
    "price_level": "",
    "open_hours": "",
    "extraction_timestamp": "2025-06-07T16:14:32.888Z",
    "source_name": "google",
    "source_query": "Irrigation Equipment",
    "source_country": "IT",
    "country": "Italy",
    "state": "Emilia-Romagna",
    "city": "Gambettola"
  },
  {
    "source_id": "ChIJFW3XPJejLBMRDpQWGwmYqU4",
    "name": "Raggini Irrigazioni e Robot Tosaerba",
    "category": "Raggini Irrigazioni e Robot Tosaerba",
    "formatted_address": "5,0(1)",
    "phone_number": "+393926808947",
    "source_url": "https://www.google.com/maps/place/Raggini+Irrigazioni+e+Robot+Tosaerba/data=!4m7!3m6!1s0x132ca3973cd76d15:0x4ea998091b16940e!8m2!3d44.36369!4d11.8460774!16s%2Fg%2F11dz0bbs9t!19sChIJFW3XPJejLBMRDpQWGwmYqU4?authuser=0&hl=tr&rclk=1",
    "website_url": "",
    "rating_text": "5,0",
    "stars": null,
    "number_of_reviews": null,
    "price_level": "",
    "open_hours": "",
    "extraction_timestamp": "2025-06-07T16:14:32.888Z",
    "source_name": "google",
    "source_query": "Irrigation Equipment",
    "source_country": "IT",
    "country": "Italy",
    "state": "Emilia-Romagna",
    "city": "Gambettola"
  }
]
