[
  {
    "source_id": "ChIJy4AVn9C-LBMRn6nsnuZl82A",
    "name": "Ramilli Irrigazioni S.R.L.",
    "category": "Ramilli Irrigazioni S.R.L.",
    "formatted_address": "4,3(52)",
    "phone_number": "+390541945335",
    "source_url": "https://www.google.com/maps/place/Ramilli+Irrigazioni+S.R.L./data=!4m7!3m6!1s0x132cbed09f1580cb:0x60f365e69eeca99f!8m2!3d44.0923156!4d12.3843691!16s%2Fg%2F1ts2ls1r!19sChIJy4AVn9C-LBMRn6nsnuZl82A?authuser=0&hl=tr&rclk=1",
    "website_url": "https://www.ramilli.it/",
    "rating_text": "4,3",
    "stars": null,
    "number_of_reviews": null,
    "price_level": "",
    "open_hours": "",
    "extraction_timestamp": "2025-06-07T15:44:36.799Z",
    "source_name": "google",
    "source_query": "Irrigation Equipment",
    "source_country": "IT",
    "country": "Italy",
    "state": "Emilia-Romagna",
    "city": "Gatteo-Sant'Angelo"
  },
  {
    "source_id": "ChIJDUg-8fa5LBMReeQ9ydeeco8",
    "name": "Tabaku A. Impianti d'irrigazione",
    "category": "Tabaku A. Impianti d'irrigazione",
    "formatted_address": "5,0(15)",
    "phone_number": "+393487828399",
    "source_url": "https://www.google.com/maps/place/Tabaku+A.+Impianti+d%27irrigazione/data=!4m7!3m6!1s0x132cb9f6f13e480d:0x8f729ed7c93de479!8m2!3d44.1057266!4d12.3865066!16s%2Fg%2F11y5f01cdv!19sChIJDUg-8fa5LBMReeQ9ydeeco8?authuser=0&hl=tr&rclk=1",
    "website_url": "https://www.tabakua.online/",
    "rating_text": "5,0",
    "stars": null,
    "number_of_reviews": null,
    "price_level": "",
    "open_hours": "",
    "extraction_timestamp": "2025-06-07T15:44:36.802Z",
    "source_name": "google",
    "source_query": "Irrigation Equipment",
    "source_country": "IT",
    "country": "Italy",
    "state": "Emilia-Romagna",
    "city": "Gatteo-Sant'Angelo"
  },
  {
    "source_id": "ChIJxwyfbMW-LBMR82ivWDKLyak",
    "name": "Campedelli srl",
    "category": "Campedelli srl",
    "formatted_address": "4,3(20)",
    "phone_number": "+390541945180",
    "source_url": "https://www.google.com/maps/place/Campedelli+srl/data=!4m7!3m6!1s0x132cbec56c9f0cc7:0xa9c98b3258af68f3!8m2!3d44.0913771!4d12.3790216!16s%2Fg%2F1td55wfn!19sChIJxwyfbMW-LBMR82ivWDKLyak?authuser=0&hl=tr&rclk=1",
    "website_url": "https://www.facebook.com/pg/campedellisrl.savignanosulrubicone/community/",
    "rating_text": "4,3",
    "stars": null,
    "number_of_reviews": null,
    "price_level": "",
    "open_hours": "",
    "extraction_timestamp": "2025-06-07T15:44:36.804Z",
    "source_name": "google",
    "source_query": "Irrigation Equipment",
    "source_country": "IT",
    "country": "Italy",
    "state": "Emilia-Romagna",
    "city": "Gatteo-Sant'Angelo"
  },
  {
    "source_id": "ChIJEeMrZhy5LBMRWDKWacMbLm8",
    "name": "Bricoleria 33 Gatteo",
    "category": "Bricoleria 33 Gatteo",
    "formatted_address": "4,3(99)",
    "phone_number": "+393807796465",
    "source_url": "https://www.google.com/maps/place/Bricoleria+33+Gatteo/data=!4m7!3m6!1s0x132cb91c662be311:0x6f2e1bc369963258!8m2!3d44.1258086!4d12.3875476!16s%2Fg%2F11b7w310wq!19sChIJEeMrZhy5LBMRWDKWacMbLm8?authuser=0&hl=tr&rclk=1",
    "website_url": "http://www.bricoleria33.com/",
    "rating_text": "4,3",
    "stars": null,
    "number_of_reviews": null,
    "price_level": "",
    "open_hours": "",
    "extraction_timestamp": "2025-06-07T15:44:36.805Z",
    "source_name": "google",
    "source_query": "Irrigation Equipment",
    "source_country": "IT",
    "country": "Italy",
    "state": "Emilia-Romagna",
    "city": "Gatteo-Sant'Angelo"
  },
  {
    "source_id": "ChIJD2ynIQO5LBMR-zbaZxv66iU",
    "name": "VIORICA - Fontane Danzanti",
    "category": "VIORICA - Fontane Danzanti",
    "formatted_address": "4,8(21)",
    "phone_number": "+393209010186",
    "source_url": "https://www.google.com/maps/place/VIORICA+-+Fontane+Danzanti/data=!4m7!3m6!1s0x132cb90321a76c0f:0x25eafa1b67da36fb!8m2!3d44.1277991!4d12.3891005!16s%2Fg%2F1tkzjbsx!19sChIJD2ynIQO5LBMR-zbaZxv66iU?authuser=0&hl=tr&rclk=1",
    "website_url": "http://www.viorica.it/",
    "rating_text": "4,8",
    "stars": null,
    "number_of_reviews": null,
    "price_level": "",
    "open_hours": "",
    "extraction_timestamp": "2025-06-07T15:44:36.808Z",
    "source_name": "google",
    "source_query": "Irrigation Equipment",
    "source_country": "IT",
    "country": "Italy",
    "state": "Emilia-Romagna",
    "city": "Gatteo-Sant'Angelo"
  },
  {
    "source_id": "ChIJAQKS9QO4LBMRjXNU9oRMCJg",
    "name": "Veneta",
    "category": "Veneta",
    "formatted_address": "4,6(93)",
    "phone_number": "+390547680599",
    "source_url": "https://www.google.com/maps/place/Veneta/data=!4m7!3m6!1s0x132cb803f5920201:0x98084c84f654738d!8m2!3d44.1662263!4d12.4310239!16s%2Fg%2F1vypf1kf!19sChIJAQKS9QO4LBMRjXNU9oRMCJg?authuser=0&hl=tr&rclk=1",
    "website_url": "https://www.venetaelettromeccanica.it/",
    "rating_text": "4,6",
    "stars": null,
    "number_of_reviews": null,
    "price_level": "",
    "open_hours": "",
    "extraction_timestamp": "2025-06-07T15:44:36.810Z",
    "source_name": "google",
    "source_query": "Irrigation Equipment",
    "source_country": "IT",
    "country": "Italy",
    "state": "Emilia-Romagna",
    "city": "Gatteo-Sant'Angelo"
  },
  {
    "source_id": "ChIJb8BPTTy5LBMR1vY3s5ytKHs",
    "name": "Gazebo Spa",
    "category": "Gazebo Spa",
    "formatted_address": "4,9(21)",
    "phone_number": "+390541818060",
    "source_url": "https://www.google.com/maps/place/Gazebo+Spa/data=!4m7!3m6!1s0x132cb93c4d4fc06f:0x7b28ad9cb337f6d6!8m2!3d44.1191249!4d12.374579!16s%2Fg%2F1tpmd8f3!19sChIJb8BPTTy5LBMR1vY3s5ytKHs?authuser=0&hl=tr&rclk=1",
    "website_url": "http://www.gazebo.it/",
    "rating_text": "4,9",
    "stars": null,
    "number_of_reviews": null,
    "price_level": "",
    "open_hours": "",
    "extraction_timestamp": "2025-06-07T15:44:36.812Z",
    "source_name": "google",
    "source_query": "Irrigation Equipment",
    "source_country": "IT",
    "country": "Italy",
    "state": "Emilia-Romagna",
    "city": "Gatteo-Sant'Angelo"
  },
  {
    "source_id": "ChIJ2V4MEBy5LBMRmVWleQzhMK4",
    "name": "Climasystem Magnanimpianti",
    "category": "Climasystem Magnanimpianti",
    "formatted_address": "4,8(5)",
    "phone_number": "+390541818112",
    "source_url": "https://www.google.com/maps/place/Climasystem+Magnanimpianti/data=!4m7!3m6!1s0x132cb91c100c5ed9:0xae30e10c79a55599!8m2!3d44.1250772!4d12.3872853!16s%2Fg%2F1pty8b7ct!19sChIJ2V4MEBy5LBMRmVWleQzhMK4?authuser=0&hl=tr&rclk=1",
    "website_url": "https://www.magnanimpiantisrl-gatteo.it/",
    "rating_text": "4,8",
    "stars": null,
    "number_of_reviews": null,
    "price_level": "",
    "open_hours": "",
    "extraction_timestamp": "2025-06-07T15:44:36.814Z",
    "source_name": "google",
    "source_query": "Irrigation Equipment",
    "source_country": "IT",
    "country": "Italy",
    "state": "Emilia-Romagna",
    "city": "Gatteo-Sant'Angelo"
  },
  {
    "source_id": "ChIJKb3qwAq9LBMRUcJUgWGEt0U",
    "name": "Casali Irrigazione",
    "category": "Casali Irrigazione",
    "formatted_address": "3,0(1)",
    "phone_number": "+393346424587",
    "source_url": "https://www.google.com/maps/place/Casali+Irrigazione/data=!4m7!3m6!1s0x132cbd0ac0eabd29:0x45b784618154c251!8m2!3d44.08289!4d12.27084!16s%2Fg%2F1tdr5fdj!19sChIJKb3qwAq9LBMRUcJUgWGEt0U?authuser=0&hl=tr&rclk=1",
    "website_url": "",
    "rating_text": "3,0",
    "stars": null,
    "number_of_reviews": null,
    "price_level": "",
    "open_hours": "",
    "extraction_timestamp": "2025-06-07T15:44:36.816Z",
    "source_name": "google",
    "source_query": "Irrigation Equipment",
    "source_country": "IT",
    "country": "Italy",
    "state": "Emilia-Romagna",
    "city": "Gatteo-Sant'Angelo"
  },
  {
    "source_id": "ChIJ-16AHz-5LBMRNLuhdQYDpMg",
    "name": "Mini Zoo di Rinaldi Denis",
    "category": "Mini Zoo di Rinaldi Denis",
    "formatted_address": "4,3(257)",
    "phone_number": "+390541930006",
    "source_url": "https://www.google.com/maps/place/Mini+Zoo+di+Rinaldi+Denis/data=!4m7!3m6!1s0x132cb93f1f805efb:0xc8a4030675a1bb34!8m2!3d44.116994!4d12.3703275!16s%2Fg%2F1tkf32rg!19sChIJ-16AHz-5LBMRNLuhdQYDpMg?authuser=0&hl=tr&rclk=1",
    "website_url": "http://www.minizoorinaldi.it/",
    "rating_text": "4,3",
    "stars": null,
    "number_of_reviews": null,
    "price_level": "",
    "open_hours": "",
    "extraction_timestamp": "2025-06-07T15:44:36.839Z",
    "source_name": "google",
    "source_query": "Irrigation Equipment",
    "source_country": "IT",
    "country": "Italy",
    "state": "Emilia-Romagna",
    "city": "Gatteo-Sant'Angelo"
  },
  {
    "source_id": "ChIJh7Widue4LBMR8Pa9eNLPHh8",
    "name": "Adriatica Acque Srl",
    "category": "Adriatica Acque Srl",
    "formatted_address": "3,6(23)",
    "phone_number": "+39800323800",
    "source_url": "https://www.google.com/maps/place/Adriatica+Acque+Srl/data=!4m7!3m6!1s0x132cb8e776a2b587:0x1f1ecfd278bdf6f0!8m2!3d44.1120403!4d12.4016461!16s%2Fg%2F1ptz6htsp!19sChIJh7Widue4LBMR8Pa9eNLPHh8?authuser=0&hl=tr&rclk=1",
    "website_url": "http://www.adriaticacque.com/",
    "rating_text": "3,6",
    "stars": null,
    "number_of_reviews": null,
    "price_level": "",
    "open_hours": "",
    "extraction_timestamp": "2025-06-07T15:44:36.841Z",
    "source_name": "google",
    "source_query": "Irrigation Equipment",
    "source_country": "IT",
    "country": "Italy",
    "state": "Emilia-Romagna",
    "city": "Gatteo-Sant'Angelo"
  },
  {
    "source_id": "ChIJU4_GxJS5LBMRGXjjmxsWSK8",
    "name": "Mercatone Di Gatteo",
    "category": "Mercatone Di Gatteo",
    "formatted_address": "4,3(206)",
    "phone_number": "+393315022068",
    "source_url": "https://www.google.com/maps/place/Mercatone+Di+Gatteo/data=!4m7!3m6!1s0x132cb994c4c68f53:0xaf48161b9be37819!8m2!3d44.114693!4d12.3876493!16s%2Fg%2F11l86zqjvt!19sChIJU4_GxJS5LBMRGXjjmxsWSK8?authuser=0&hl=tr&rclk=1",
    "website_url": "https://m.facebook.com/pages/category/Home-Decor/Mercatone-di-Gatteo-103995314867283/",
    "rating_text": "4,3",
    "stars": null,
    "number_of_reviews": null,
    "price_level": "",
    "open_hours": "",
    "extraction_timestamp": "2025-06-07T15:44:36.843Z",
    "source_name": "google",
    "source_query": "Irrigation Equipment",
    "source_country": "IT",
    "country": "Italy",
    "state": "Emilia-Romagna",
    "city": "Gatteo-Sant'Angelo"
  },
  {
    "source_id": "ChIJFW3XPJejLBMRDpQWGwmYqU4",
    "name": "Raggini Irrigazioni e Robot Tosaerba",
    "category": "Raggini Irrigazioni e Robot Tosaerba",
    "formatted_address": "5,0(1)",
    "phone_number": "+393926808947",
    "source_url": "https://www.google.com/maps/place/Raggini+Irrigazioni+e+Robot+Tosaerba/data=!4m7!3m6!1s0x132ca3973cd76d15:0x4ea998091b16940e!8m2!3d44.36369!4d11.8460774!16s%2Fg%2F11dz0bbs9t!19sChIJFW3XPJejLBMRDpQWGwmYqU4?authuser=0&hl=tr&rclk=1",
    "website_url": "",
    "rating_text": "5,0",
    "stars": null,
    "number_of_reviews": null,
    "price_level": "",
    "open_hours": "",
    "extraction_timestamp": "2025-06-07T15:44:36.845Z",
    "source_name": "google",
    "source_query": "Irrigation Equipment",
    "source_country": "IT",
    "country": "Italy",
    "state": "Emilia-Romagna",
    "city": "Gatteo-Sant'Angelo"
  }
]
