[
  {
    "source_id": "ChIJy4AVn9C-LBMRn6nsnuZl82A",
    "name": "Ramilli Irrigazioni S.R.L.",
    "category": "Ramilli Irrigazioni S.R.L.",
    "formatted_address": "4,3(52)",
    "phone_number": "+390541945335",
    "source_url": "https://www.google.com/maps/place/Ramilli+Irrigazioni+S.R.L./data=!4m7!3m6!1s0x132cbed09f1580cb:0x60f365e69eeca99f!8m2!3d44.0923156!4d12.3843691!16s%2Fg%2F1ts2ls1r!19sChIJy4AVn9C-LBMRn6nsnuZl82A?authuser=0&hl=tr&rclk=1",
    "website_url": "https://www.ramilli.it/",
    "rating_text": "4,3",
    "stars": null,
    "number_of_reviews": null,
    "price_level": "",
    "open_hours": "",
    "extraction_timestamp": "2025-06-07T16:27:55.663Z",
    "source_name": "google",
    "source_query": "Irrigation Equipment",
    "source_country": "IT",
    "country": "Italy",
    "state": "Emilia-Romagna",
    "city": "Gatteo a Mare"
  },
  {
    "source_id": "ChIJxwyfbMW-LBMR82ivWDKLyak",
    "name": "Campedelli srl",
    "category": "Campedelli srl",
    "formatted_address": "4,3(20)",
    "phone_number": "+390541945180",
    "source_url": "https://www.google.com/maps/place/Campedelli+srl/data=!4m7!3m6!1s0x132cbec56c9f0cc7:0xa9c98b3258af68f3!8m2!3d44.0913771!4d12.3790216!16s%2Fg%2F1td55wfn!19sChIJxwyfbMW-LBMR82ivWDKLyak?authuser=0&hl=tr&rclk=1",
    "website_url": "https://www.facebook.com/pg/campedellisrl.savignanosulrubicone/community/",
    "rating_text": "4,3",
    "stars": null,
    "number_of_reviews": null,
    "price_level": "",
    "open_hours": "",
    "extraction_timestamp": "2025-06-07T16:27:55.664Z",
    "source_name": "google",
    "source_query": "Irrigation Equipment",
    "source_country": "IT",
    "country": "Italy",
    "state": "Emilia-Romagna",
    "city": "Gatteo a Mare"
  },
  {
    "source_id": "ChIJwb4JcgW4LBMR8IIOzqneApA",
    "name": "Elettromeccanica Veneta",
    "category": "Elettromeccanica Veneta",
    "formatted_address": "4,6(237)",
    "phone_number": "+390547680599",
    "source_url": "https://www.google.com/maps/place/Elettromeccanica+Veneta/data=!4m7!3m6!1s0x132cb8057209bec1:0x9002dea9ce0e82f0!8m2!3d44.1628684!4d12.4287451!16s%2Fg%2F11c5b131z9!19sChIJwb4JcgW4LBMR8IIOzqneApA?authuser=0&hl=tr&rclk=1",
    "website_url": "https://www.venetaelettromeccanica.it/",
    "rating_text": "4,6",
    "stars": null,
    "number_of_reviews": null,
    "price_level": "",
    "open_hours": "",
    "extraction_timestamp": "2025-06-07T16:27:55.665Z",
    "source_name": "google",
    "source_query": "Irrigation Equipment",
    "source_country": "IT",
    "country": "Italy",
    "state": "Emilia-Romagna",
    "city": "Gatteo a Mare"
  },
  {
    "source_id": "ChIJDUg-8fa5LBMReeQ9ydeeco8",
    "name": "Tabaku A. Impianti d'irrigazione",
    "category": "Tabaku A. Impianti d'irrigazione",
    "formatted_address": "5,0(15)",
    "phone_number": "+393487828399",
    "source_url": "https://www.google.com/maps/place/Tabaku+A.+Impianti+d%27irrigazione/data=!4m7!3m6!1s0x132cb9f6f13e480d:0x8f729ed7c93de479!8m2!3d44.1057266!4d12.3865066!16s%2Fg%2F11y5f01cdv!19sChIJDUg-8fa5LBMReeQ9ydeeco8?authuser=0&hl=tr&rclk=1",
    "website_url": "https://www.tabakua.online/",
    "rating_text": "5,0",
    "stars": null,
    "number_of_reviews": null,
    "price_level": "",
    "open_hours": "",
    "extraction_timestamp": "2025-06-07T16:27:55.667Z",
    "source_name": "google",
    "source_query": "Irrigation Equipment",
    "source_country": "IT",
    "country": "Italy",
    "state": "Emilia-Romagna",
    "city": "Gatteo a Mare"
  },
  {
    "source_id": "ChIJAQKS9QO4LBMRjXNU9oRMCJg",
    "name": "Veneta",
    "category": "Veneta",
    "formatted_address": "4,6(93)",
    "phone_number": "+390547680599",
    "source_url": "https://www.google.com/maps/place/Veneta/data=!4m7!3m6!1s0x132cb803f5920201:0x98084c84f654738d!8m2!3d44.1662263!4d12.4310239!16s%2Fg%2F1vypf1kf!19sChIJAQKS9QO4LBMRjXNU9oRMCJg?authuser=0&hl=tr&rclk=1",
    "website_url": "https://www.venetaelettromeccanica.it/",
    "rating_text": "4,6",
    "stars": null,
    "number_of_reviews": null,
    "price_level": "",
    "open_hours": "",
    "extraction_timestamp": "2025-06-07T16:27:55.668Z",
    "source_name": "google",
    "source_query": "Irrigation Equipment",
    "source_country": "IT",
    "country": "Italy",
    "state": "Emilia-Romagna",
    "city": "Gatteo a Mare"
  },
  {
    "source_id": "ChIJ1dctBE66LBMRYD-M3IRBi9M",
    "name": "Venturi SAS di Venturi Piero & C.",
    "category": "Venturi SAS di Venturi Piero & C.",
    "formatted_address": "4,3(64)",
    "phone_number": "+390547311136",
    "source_url": "https://www.google.com/maps/place/Venturi+SAS+di+Venturi+Piero+%26+C./data=!4m7!3m6!1s0x132cba4e042dd7d5:0xd38b4184dc8c3f60!8m2!3d44.1516799!4d12.3126239!16s%2Fg%2F11csb23jzd!19sChIJ1dctBE66LBMRYD-M3IRBi9M?authuser=0&hl=tr&rclk=1",
    "website_url": "https://www.venturi.fc.it/",
    "rating_text": "4,3",
    "stars": null,
    "number_of_reviews": null,
    "price_level": "",
    "open_hours": "",
    "extraction_timestamp": "2025-06-07T16:27:55.669Z",
    "source_name": "google",
    "source_query": "Irrigation Equipment",
    "source_country": "IT",
    "country": "Italy",
    "state": "Emilia-Romagna",
    "city": "Gatteo a Mare"
  },
  {
    "source_id": "ChIJUaJTIwC4LBMRdnad-PGY1xM",
    "name": "Elettromeccanica Veneta di Marivo Remo & C. (S.N.C.)",
    "category": "Elettromeccanica Veneta di Marivo Remo & C. (S.N.C.)",
    "formatted_address": "4,8(5)",
    "phone_number": "+390547680599",
    "source_url": "https://www.google.com/maps/place/Elettromeccanica+Veneta+di+Marivo+Remo+%26+C.+%28S.N.C.%29/data=!4m7!3m6!1s0x132cb8002353a251:0x13d798f1f89d7676!8m2!3d44.169784!4d12.4364004!16s%2Fg%2F1tk0stgv!19sChIJUaJTIwC4LBMRdnad-PGY1xM?authuser=0&hl=tr&rclk=1",
    "website_url": "https://www.venetaelettromeccanica.it/",
    "rating_text": "4,8",
    "stars": null,
    "number_of_reviews": null,
    "price_level": "",
    "open_hours": "",
    "extraction_timestamp": "2025-06-07T16:27:55.670Z",
    "source_name": "google",
    "source_query": "Irrigation Equipment",
    "source_country": "IT",
    "country": "Italy",
    "state": "Emilia-Romagna",
    "city": "Gatteo a Mare"
  },
  {
    "source_id": "ChIJKb3qwAq9LBMRUcJUgWGEt0U",
    "name": "Casali Irrigazione",
    "category": "Casali Irrigazione",
    "formatted_address": "3,0(1)",
    "phone_number": "+393346424587",
    "source_url": "https://www.google.com/maps/place/Casali+Irrigazione/data=!4m7!3m6!1s0x132cbd0ac0eabd29:0x45b784618154c251!8m2!3d44.08289!4d12.27084!16s%2Fg%2F1tdr5fdj!19sChIJKb3qwAq9LBMRUcJUgWGEt0U?authuser=0&hl=tr&rclk=1",
    "website_url": "",
    "rating_text": "3,0",
    "stars": null,
    "number_of_reviews": null,
    "price_level": "",
    "open_hours": "",
    "extraction_timestamp": "2025-06-07T16:27:55.671Z",
    "source_name": "google",
    "source_query": "Irrigation Equipment",
    "source_country": "IT",
    "country": "Italy",
    "state": "Emilia-Romagna",
    "city": "Gatteo a Mare"
  },
  {
    "source_id": "ChIJ85cgpku6LBMRfX081ZX-wQQ",
    "name": "Idroget Atomizzatori Di Bianchi Carlo E C. (S.N.C.)",
    "category": "Idroget Atomizzatori Di Bianchi Carlo E C. (S.N.C.)",
    "formatted_address": "4,7(10)",
    "phone_number": "+390547300163",
    "source_url": "https://www.google.com/maps/place/Idroget+Atomizzatori+Di+Bianchi+Carlo+E+C.+%28S.N.C.%29/data=!4m7!3m6!1s0x132cba4ba62097f3:0x4c1fe95d53c7d7d!8m2!3d44.1418046!4d12.3078685!16s%2Fg%2F11b6j8p8p3!19sChIJ85cgpku6LBMRfX081ZX-wQQ?authuser=0&hl=tr&rclk=1",
    "website_url": "http://www.idroget.it/",
    "rating_text": "4,7",
    "stars": null,
    "number_of_reviews": null,
    "price_level": "",
    "open_hours": "",
    "extraction_timestamp": "2025-06-07T16:27:55.672Z",
    "source_name": "google",
    "source_query": "Irrigation Equipment",
    "source_country": "IT",
    "country": "Italy",
    "state": "Emilia-Romagna",
    "city": "Gatteo a Mare"
  },
  {
    "source_id": "ChIJZWXIbv-3LBMRNZ4yJe-sR_Y",
    "name": "Loris' Casadei Household Hardware Store",
    "category": "Loris' Casadei Household Hardware Store",
    "formatted_address": "4,5(21)",
    "phone_number": "+39054786585",
    "source_url": "https://www.google.com/maps/place/Loris%27+Casadei+Household+Hardware+Store/data=!4m7!3m6!1s0x132cb7ff6ec86565:0xf647acef25329e35!8m2!3d44.1712946!4d12.4343053!16s%2Fg%2F1vnn3kb1!19sChIJZWXIbv-3LBMRNZ4yJe-sR_Y?authuser=0&hl=tr&rclk=1",
    "website_url": "",
    "rating_text": "4,5",
    "stars": null,
    "number_of_reviews": null,
    "price_level": "",
    "open_hours": "",
    "extraction_timestamp": "2025-06-07T16:27:55.674Z",
    "source_name": "google",
    "source_query": "Irrigation Equipment",
    "source_country": "IT",
    "country": "Italy",
    "state": "Emilia-Romagna",
    "city": "Gatteo a Mare"
  },
  {
    "source_id": "ChIJ1xYfYTK7LBMRH8fF3soqxIc",
    "name": "Caselli Mirco",
    "category": "Caselli Mirco",
    "formatted_address": "4,7(75)",
    "phone_number": "+390547645010",
    "source_url": "https://www.google.com/maps/place/Caselli+Mirco/data=!4m7!3m6!1s0x132cbb32611f16d7:0x87c42acadec5c71f!8m2!3d44.1180337!4d12.306261!16s%2Fg%2F1hc61vjd1!19sChIJ1xYfYTK7LBMRH8fF3soqxIc?authuser=0&hl=tr&rclk=1",
    "website_url": "",
    "rating_text": "4,7",
    "stars": null,
    "number_of_reviews": null,
    "price_level": "",
    "open_hours": "",
    "extraction_timestamp": "2025-06-07T16:27:55.675Z",
    "source_name": "google",
    "source_query": "Irrigation Equipment",
    "source_country": "IT",
    "country": "Italy",
    "state": "Emilia-Romagna",
    "city": "Gatteo a Mare"
  },
  {
    "source_id": "ChIJkakS8fS3LBMRyRLkRfhSczQ",
    "name": "Topolino Park",
    "category": "Topolino Park",
    "formatted_address": "4,5(406)",
    "phone_number": "+39054787888",
    "source_url": "https://www.google.com/maps/place/Topolino+Park/data=!4m7!3m6!1s0x132cb7f4f112a991:0x347352f845e412c9!8m2!3d44.1715581!4d12.4332737!16s%2Fg%2F11syf4b3p_!19sChIJkakS8fS3LBMRyRLkRfhSczQ?authuser=0&hl=tr&rclk=1",
    "website_url": "http://www.topolinopark.it/",
    "rating_text": "4,5",
    "stars": null,
    "number_of_reviews": null,
    "price_level": "",
    "open_hours": "",
    "extraction_timestamp": "2025-06-07T16:27:55.675Z",
    "source_name": "google",
    "source_query": "Irrigation Equipment",
    "source_country": "IT",
    "country": "Italy",
    "state": "Emilia-Romagna",
    "city": "Gatteo a Mare"
  },
  {
    "source_id": "ChIJR0pDRPzHLBMR3-2b760uDUM",
    "name": "Bagno Fido Beach 11 - Grandi Spiagge San Mauro Mare",
    "category": "Bagno Fido Beach 11 - Grandi Spiagge San Mauro Mare",
    "formatted_address": "4,6(214)",
    "phone_number": "+393347834746",
    "source_url": "https://www.google.com/maps/place/Bagno+Fido+Beach+11+-+Grandi+Spiagge+San+Mauro+Mare/data=!4m7!3m6!1s0x132cc7fc44434a47:0x430d2eadef9beddf!8m2!3d44.1662811!4d12.4457207!16s%2Fg%2F11hb5208gc!19sChIJR0pDRPzHLBMR3-2b760uDUM?authuser=0&hl=tr&rclk=1",
    "website_url": "http://www.grandispiagge.it/",
    "rating_text": "4,6",
    "stars": null,
    "number_of_reviews": null,
    "price_level": "",
    "open_hours": "",
    "extraction_timestamp": "2025-06-07T16:27:55.676Z",
    "source_name": "google",
    "source_query": "Irrigation Equipment",
    "source_country": "IT",
    "country": "Italy",
    "state": "Emilia-Romagna",
    "city": "Gatteo a Mare"
  },
  {
    "source_id": "ChIJFW3XPJejLBMRDpQWGwmYqU4",
    "name": "Raggini Irrigazioni e Robot Tosaerba",
    "category": "Raggini Irrigazioni e Robot Tosaerba",
    "formatted_address": "5,0(1)",
    "phone_number": "+393926808947",
    "source_url": "https://www.google.com/maps/place/Raggini+Irrigazioni+e+Robot+Tosaerba/data=!4m7!3m6!1s0x132ca3973cd76d15:0x4ea998091b16940e!8m2!3d44.36369!4d11.8460774!16s%2Fg%2F11dz0bbs9t!19sChIJFW3XPJejLBMRDpQWGwmYqU4?authuser=0&hl=tr&rclk=1",
    "website_url": "",
    "rating_text": "5,0",
    "stars": null,
    "number_of_reviews": null,
    "price_level": "",
    "open_hours": "",
    "extraction_timestamp": "2025-06-07T16:27:55.677Z",
    "source_name": "google",
    "source_query": "Irrigation Equipment",
    "source_country": "IT",
    "country": "Italy",
    "state": "Emilia-Romagna",
    "city": "Gatteo a Mare"
  }
]
