[
  {
    "source_id": "ChIJy805WcDcgEcRtmGWlwosXQc",
    "name": "IRRIMEC SRL",
    "category": "IRRIMEC SRL",
    "formatted_address": "4,5(90)",
    "phone_number": "+390523760441",
    "source_url": "https://www.google.com/maps/place/IRRIMEC+SRL/data=!4m7!3m6!1s0x4780dcc05939cdcb:0x75d2c0a979661b6!8m2!3d45.0612353!4d9.630829!16s%2Fg%2F1tdgt7d_!19sChIJy805WcDcgEcRtmGWlwosXQc?authuser=0&hl=tr&rclk=1",
    "website_url": "http://www.irrimec.com/",
    "rating_text": "4,5",
    "stars": null,
    "number_of_reviews": null,
    "price_level": "",
    "open_hours": "",
    "extraction_timestamp": "2025-06-07T16:10:55.156Z",
    "source_name": "google",
    "source_query": "Irrigation Equipment",
    "source_country": "IT",
    "country": "Italy",
    "state": "Emilia-Romagna",
    "city": "Gazzola"
  },
  {
    "source_id": "ChIJCdwQIfbNgEcRtWOzhvtW0iA",
    "name": "Agrimil Tech Srl",
    "category": "Agrimil Tech Srl",
    "formatted_address": "4,8(9)",
    "phone_number": "+390523849679",
    "source_url": "https://www.google.com/maps/place/Agrimil+Tech+Srl/data=!4m7!3m6!1s0x4780cdf62110dc09:0x20d256fb86b363b5!8m2!3d45.0556557!4d9.5030905!16s%2Fg%2F1tdf9z93!19sChIJCdwQIfbNgEcRtWOzhvtW0iA?authuser=0&hl=tr&rclk=1",
    "website_url": "http://www.agrimil.it/",
    "rating_text": "4,8",
    "stars": null,
    "number_of_reviews": null,
    "price_level": "",
    "open_hours": "",
    "extraction_timestamp": "2025-06-07T16:10:55.158Z",
    "source_name": "google",
    "source_query": "Irrigation Equipment",
    "source_country": "IT",
    "country": "Italy",
    "state": "Emilia-Romagna",
    "city": "Gazzola"
  },
  {
    "source_id": "ChIJE_3jOnMtfkcRkxtTFj3Ym9E",
    "name": "Irrigation Scarabelli Srl",
    "category": "Irrigation Scarabelli Srl",
    "formatted_address": "4,5(23)",
    "phone_number": "+39051763363",
    "source_url": "https://www.google.com/maps/place/Irrigation+Scarabelli+Srl/data=!4m7!3m6!1s0x477e2d733ae3fd13:0xd19bd83d16531b93!8m2!3d44.5426053!4d11.4189136!16s%2Fg%2F11gzdz6vf!19sChIJE_3jOnMtfkcRkxtTFj3Ym9E?authuser=0&hl=tr&rclk=1",
    "website_url": "",
    "rating_text": "4,5",
    "stars": null,
    "number_of_reviews": null,
    "price_level": "",
    "open_hours": "",
    "extraction_timestamp": "2025-06-07T16:10:55.159Z",
    "source_name": "google",
    "source_query": "Irrigation Equipment",
    "source_country": "IT",
    "country": "Italy",
    "state": "Emilia-Romagna",
    "city": "Gazzola"
  },
  {
    "source_id": "ChIJt6J4-pXGgEcR3-luy2bgNu4",
    "name": "Al Cucciarein Chiosco Gazzola",
    "category": "Al Cucciarein Chiosco Gazzola",
    "formatted_address": "4,7(65)",
    "phone_number": "+393887898800",
    "source_url": "https://www.google.com/maps/place/Al+Cucciarein+Chiosco+Gazzola/data=!4m7!3m6!1s0x4780c695fa78a2b7:0xee36e066cb6ee9df!8m2!3d44.9599943!4d9.5504884!16s%2Fg%2F11gbty_rdn!19sChIJt6J4-pXGgEcR3-luy2bgNu4?authuser=0&hl=tr&rclk=1",
    "website_url": "https://www.instagram.com/al_cucciarein/",
    "rating_text": "4,7",
    "stars": null,
    "number_of_reviews": null,
    "price_level": "",
    "open_hours": "",
    "extraction_timestamp": "2025-06-07T16:10:55.160Z",
    "source_name": "google",
    "source_query": "Irrigation Equipment",
    "source_country": "IT",
    "country": "Italy",
    "state": "Emilia-Romagna",
    "city": "Gazzola"
  },
  {
    "source_id": "ChIJcQG6ul7df0cR3VxKiu5OPBs",
    "name": "Scova Impianti Srl",
    "category": "Scova Impianti Srl",
    "formatted_address": "4,5(64)",
    "phone_number": "+39059923202",
    "source_url": "https://www.google.com/maps/place/Scova+Impianti+Srl/data=!4m7!3m6!1s0x477fdd5ebaba0171:0x1b3c4eee8a4a5cdd!8m2!3d44.6018135!4d11.032294!16s%2Fg%2F1tfzwbfb!19sChIJcQG6ul7df0cR3VxKiu5OPBs?authuser=0&hl=tr&rclk=1",
    "website_url": "https://www.scovaimpianti.com/",
    "rating_text": "4,5",
    "stars": null,
    "number_of_reviews": null,
    "price_level": "",
    "open_hours": "",
    "extraction_timestamp": "2025-06-07T16:10:55.161Z",
    "source_name": "google",
    "source_query": "Irrigation Equipment",
    "source_country": "IT",
    "country": "Italy",
    "state": "Emilia-Romagna",
    "city": "Gazzola"
  },
  {
    "source_id": "ChIJ_SYf2IMsfkcRVw9xVhrnjyI",
    "name": "Irrigazione Bragaglia",
    "category": "Irrigazione Bragaglia",
    "formatted_address": "4,7(30)",
    "phone_number": "+39051534865",
    "source_url": "https://www.google.com/maps/place/Irrigazione+Bragaglia/data=!4m7!3m6!1s0x477e2c83d81f26fd:0x228fe71a56710f57!8m2!3d44.5053735!4d11.412403!16s%2Fg%2F1vp6z0gf!19sChIJ_SYf2IMsfkcRVw9xVhrnjyI?authuser=0&hl=tr&rclk=1",
    "website_url": "http://www.irrigazionebragaglia.it/",
    "rating_text": "4,7",
    "stars": null,
    "number_of_reviews": null,
    "price_level": "",
    "open_hours": "",
    "extraction_timestamp": "2025-06-07T16:10:55.162Z",
    "source_name": "google",
    "source_query": "Irrigation Equipment",
    "source_country": "IT",
    "country": "Italy",
    "state": "Emilia-Romagna",
    "city": "Gazzola"
  },
  {
    "source_id": "ChIJh3Nd8G0sfkcR_m7VewEmxXM",
    "name": "Irrigarden",
    "category": "Irrigarden",
    "formatted_address": "4,7(158)",
    "phone_number": "+39051782013",
    "source_url": "https://www.google.com/maps/place/Irrigarden/data=!4m7!3m6!1s0x477e2c6df05d7387:0x73c526017bd56efe!8m2!3d44.5096266!4d11.4390897!16s%2Fg%2F1vgw_l7w!19sChIJh3Nd8G0sfkcR_m7VewEmxXM?authuser=0&hl=tr&rclk=1",
    "website_url": "https://www.irrigarden-bo.it/",
    "rating_text": "4,7",
    "stars": null,
    "number_of_reviews": null,
    "price_level": "",
    "open_hours": "",
    "extraction_timestamp": "2025-06-07T16:10:55.163Z",
    "source_name": "google",
    "source_query": "Irrigation Equipment",
    "source_country": "IT",
    "country": "Italy",
    "state": "Emilia-Romagna",
    "city": "Gazzola"
  },
  {
    "source_id": "ChIJ9V7VUGIbEQ4Rd0H8gwcDqwk",
    "name": "Mannino Sistemi Trattamento Acqua",
    "category": "Mannino Sistemi Trattamento Acqua",
    "formatted_address": "3,7(3)",
    "phone_number": "+393505784936",
    "source_url": "https://www.google.com/maps/place/Mannino+Sistemi+Trattamento+Acqua/data=!4m7!3m6!1s0xe111b6250d55ef5:0x9ab030783fc4177!8m2!3d45.0422201!4d9.6981487!16s%2Fg%2F11s33q_spp!19sChIJ9V7VUGIbEQ4Rd0H8gwcDqwk?authuser=0&hl=tr&rclk=1",
    "website_url": "http://www.manninodepurazione.it/",
    "rating_text": "3,7",
    "stars": null,
    "number_of_reviews": null,
    "price_level": "",
    "open_hours": "",
    "extraction_timestamp": "2025-06-07T16:10:55.164Z",
    "source_name": "google",
    "source_query": "Irrigation Equipment",
    "source_country": "IT",
    "country": "Italy",
    "state": "Emilia-Romagna",
    "city": "Gazzola"
  },
  {
    "source_id": "ChIJORFQ7ZfGgEcRSf0QITp8aIU",
    "name": "Farmacia San Lorenzo",
    "category": "Farmacia San Lorenzo",
    "formatted_address": "4,9(17)",
    "phone_number": "+390523975220",
    "source_url": "https://www.google.com/maps/place/Farmacia+San+Lorenzo/data=!4m7!3m6!1s0x4780c697ed501139:0x85687c3a2110fd49!8m2!3d44.9584482!4d9.5472017!16s%2Fg%2F1tdz3p2m!19sChIJORFQ7ZfGgEcRSf0QITp8aIU?authuser=0&hl=tr&rclk=1",
    "website_url": "",
    "rating_text": "4,9",
    "stars": null,
    "number_of_reviews": null,
    "price_level": "",
    "open_hours": "",
    "extraction_timestamp": "2025-06-07T16:10:55.165Z",
    "source_name": "google",
    "source_query": "Irrigation Equipment",
    "source_country": "IT",
    "country": "Italy",
    "state": "Emilia-Romagna",
    "city": "Gazzola"
  },
  {
    "source_id": "ChIJ-wPcHKnpgEcRYErDfUksad8",
    "name": "IRRIGARDEN PISCINE S.r.l.s.",
    "category": "IRRIGARDEN PISCINE S.r.l.s.",
    "formatted_address": "Yüzme Havuzu İşleri Yüklenicisi · Via Emilia Parmense, 148/HKapalı ⋅ Açılış zamanı: Pzt 08:30 · +39 335 716 6435",
    "phone_number": "+393357166435",
    "source_url": "https://www.google.com/maps/place/IRRIGARDEN+PISCINE+S.r.l.s./data=!4m7!3m6!1s0x4780e9a91cdc03fb:0xdf692c497dc34a60!8m2!3d45.0288519!4d9.7385134!16s%2Fg%2F11r9fb1llm!19sChIJ-wPcHKnpgEcRYErDfUksad8?authuser=0&hl=tr&rclk=1",
    "website_url": "https://www.irrigardenpiscine.it/",
    "rating_text": "",
    "stars": null,
    "number_of_reviews": null,
    "price_level": "",
    "open_hours": "",
    "extraction_timestamp": "2025-06-07T16:10:55.166Z",
    "source_name": "google",
    "source_query": "Irrigation Equipment",
    "source_country": "IT",
    "country": "Italy",
    "state": "Emilia-Romagna",
    "city": "Gazzola"
  },
  {
    "source_id": "ChIJtdJC5j6Zf0cRmmVcuMyNEW0",
    "name": "Tadei | Impianti irrigazione | Robot tagliaerba | Barbecue | Outdoor",
    "category": "Tadei | Impianti irrigazione | Robot tagliaerba | Barbecue | Outdoor",
    "formatted_address": "4,6(69)",
    "phone_number": "+390386733460",
    "source_url": "https://www.google.com/maps/place/Tadei+%7C+Impianti+irrigazione+%7C+Robot+tagliaerba+%7C+Barbecue+%7C+Outdoor/data=!4m7!3m6!1s0x477f993ee642d2b5:0x6d118dccb85c659a!8m2!3d44.9680645!4d11.1076526!16s%2Fg%2F113dpgnd_!19sChIJtdJC5j6Zf0cRmmVcuMyNEW0?authuser=0&hl=tr&rclk=1",
    "website_url": "https://www.irrigazionetadei.it/",
    "rating_text": "4,6",
    "stars": null,
    "number_of_reviews": null,
    "price_level": "",
    "open_hours": "",
    "extraction_timestamp": "2025-06-07T16:10:55.167Z",
    "source_name": "google",
    "source_query": "Irrigation Equipment",
    "source_country": "IT",
    "country": "Italy",
    "state": "Emilia-Romagna",
    "city": "Gazzola"
  },
  {
    "source_id": "ChIJP4ZNSAV720MRKzxQGw-onx0",
    "name": "Mannino Sistemi Trattamento",
    "category": "Mannino Sistemi Trattamento",
    "formatted_address": "",
    "phone_number": "+393505784936",
    "source_url": "https://www.google.com/maps/place/Mannino+Sistemi+Trattamento/data=!4m7!3m6!1s0x43db7b05484d863f:0x1d9fa80f1b503c2b!8m2!3d44.4355116!4d10.9767761!16s%2Fg%2F11q4bd04zw!19sChIJP4ZNSAV720MRKzxQGw-onx0?authuser=0&hl=tr&rclk=1",
    "website_url": "http://manninodepurazione.it/",
    "rating_text": "",
    "stars": null,
    "number_of_reviews": null,
    "price_level": "",
    "open_hours": "",
    "extraction_timestamp": "2025-06-07T16:10:55.168Z",
    "source_name": "google",
    "source_query": "Irrigation Equipment",
    "source_country": "IT",
    "country": "Italy",
    "state": "Emilia-Romagna",
    "city": "Gazzola"
  }
]
