[
  {
    "source_id": "ChIJowlr8GQAfkcR37lijjnk5lc",
    "name": "tuttoGIARDINO Godo",
    "category": "tuttoGIARDINO Godo",
    "formatted_address": "4,4(28)",
    "phone_number": "+390545906339",
    "source_url": "https://www.google.com/maps/place/tuttoGIARDINO+Godo/data=!4m7!3m6!1s0x477e0064f06b09a3:0x57e6e4398e62b9df!8m2!3d44.3905943!4d12.0709159!16s%2Fg%2F1tkc0yx4!19sChIJowlr8GQAfkcR37lijjnk5lc?authuser=0&hl=tr&rclk=1",
    "website_url": "",
    "rating_text": "4,4",
    "stars": null,
    "number_of_reviews": null,
    "price_level": "",
    "open_hours": "",
    "extraction_timestamp": "2025-06-07T15:56:30.319Z",
    "source_name": "google",
    "source_query": "Irrigation Equipment",
    "source_country": "IT",
    "country": "Italy",
    "state": "Emilia-Romagna",
    "city": "Godo"
  },
  {
    "source_id": "ChIJy4AVn9C-LBMRn6nsnuZl82A",
    "name": "Ramilli Irrigazioni S.R.L.",
    "category": "Ramilli Irrigazioni S.R.L.",
    "formatted_address": "4,3(52)",
    "phone_number": "+390541945335",
    "source_url": "https://www.google.com/maps/place/Ramilli+Irrigazioni+S.R.L./data=!4m7!3m6!1s0x132cbed09f1580cb:0x60f365e69eeca99f!8m2!3d44.0923156!4d12.3843691!16s%2Fg%2F1ts2ls1r!19sChIJy4AVn9C-LBMRn6nsnuZl82A?authuser=0&hl=tr&rclk=1",
    "website_url": "https://www.ramilli.it/",
    "rating_text": "4,3",
    "stars": null,
    "number_of_reviews": null,
    "price_level": "",
    "open_hours": "",
    "extraction_timestamp": "2025-06-07T15:56:30.320Z",
    "source_name": "google",
    "source_query": "Irrigation Equipment",
    "source_country": "IT",
    "country": "Italy",
    "state": "Emilia-Romagna",
    "city": "Godo"
  },
  {
    "source_id": "ChIJQ8fJol1SKxMRShirn3slxH4",
    "name": "Tecnir",
    "category": "Tecnir",
    "formatted_address": "4,4(17)",
    "phone_number": "+390546641026",
    "source_url": "https://www.google.com/maps/place/Tecnir/data=!4m7!3m6!1s0x132b525da2c9c743:0x7ec4257b9fab184a!8m2!3d44.363732!4d11.935557!16s%2Fg%2F1vfps_3m!19sChIJQ8fJol1SKxMRShirn3slxH4?authuser=0&hl=tr&rclk=1",
    "website_url": "https://www.tecnirirrigazione.it/",
    "rating_text": "4,4",
    "stars": null,
    "number_of_reviews": null,
    "price_level": "",
    "open_hours": "",
    "extraction_timestamp": "2025-06-07T15:56:30.321Z",
    "source_name": "google",
    "source_query": "Irrigation Equipment",
    "source_country": "IT",
    "country": "Italy",
    "state": "Emilia-Romagna",
    "city": "Godo"
  },
  {
    "source_id": "ChIJ2VMMS0gAfkcR37ymWG3MgHU",
    "name": "Zannoni Trattamento Acque",
    "category": "Zannoni Trattamento Acque",
    "formatted_address": "5,0(6)",
    "phone_number": "+390544583368",
    "source_url": "https://www.google.com/maps/place/Zannoni+Trattamento+Acque/data=!4m7!3m6!1s0x477e00484b0c53d9:0x7580cc6d58a6bcdf!8m2!3d44.38246!4d12.0426646!16s%2Fg%2F1ty73306!19sChIJ2VMMS0gAfkcR37ymWG3MgHU?authuser=0&hl=tr&rclk=1",
    "website_url": "https://www.zannonidepurazioneacque.it/",
    "rating_text": "5,0",
    "stars": null,
    "number_of_reviews": null,
    "price_level": "",
    "open_hours": "",
    "extraction_timestamp": "2025-06-07T15:56:30.322Z",
    "source_name": "google",
    "source_query": "Irrigation Equipment",
    "source_country": "IT",
    "country": "Italy",
    "state": "Emilia-Romagna",
    "city": "Godo"
  },
  {
    "source_id": "ChIJh3Nd8G0sfkcR_m7VewEmxXM",
    "name": "Irrigarden",
    "category": "Irrigarden",
    "formatted_address": "4,7(158)",
    "phone_number": "+39051782013",
    "source_url": "https://www.google.com/maps/place/Irrigarden/data=!4m7!3m6!1s0x477e2c6df05d7387:0x73c526017bd56efe!8m2!3d44.5096266!4d11.4390897!16s%2Fg%2F1vgw_l7w!19sChIJh3Nd8G0sfkcR_m7VewEmxXM?authuser=0&hl=tr&rclk=1",
    "website_url": "https://www.irrigarden-bo.it/",
    "rating_text": "4,7",
    "stars": null,
    "number_of_reviews": null,
    "price_level": "",
    "open_hours": "",
    "extraction_timestamp": "2025-06-07T15:56:30.324Z",
    "source_name": "google",
    "source_query": "Irrigation Equipment",
    "source_country": "IT",
    "country": "Italy",
    "state": "Emilia-Romagna",
    "city": "Godo"
  },
  {
    "source_id": "ChIJi7qmgNz7fUcRb1p3xZzBUZ0",
    "name": "Gairsa Srl",
    "category": "Gairsa Srl",
    "formatted_address": "4,2(22)",
    "phone_number": "+390544421024",
    "source_url": "https://www.google.com/maps/place/Gairsa+Srl/data=!4m7!3m6!1s0x477dfbdc80a6ba8b:0x9d51c19cc5775a6f!8m2!3d44.4245561!4d12.2251123!16s%2Fg%2F1pzx3z5lm!19sChIJi7qmgNz7fUcRb1p3xZzBUZ0?authuser=0&hl=tr&rclk=1",
    "website_url": "http://www.gairsa.it/",
    "rating_text": "4,2",
    "stars": null,
    "number_of_reviews": null,
    "price_level": "",
    "open_hours": "",
    "extraction_timestamp": "2025-06-07T15:56:30.325Z",
    "source_name": "google",
    "source_query": "Irrigation Equipment",
    "source_country": "IT",
    "country": "Italy",
    "state": "Emilia-Romagna",
    "city": "Godo"
  },
  {
    "source_id": "ChIJiyEM90cAfkcRkNbbrjixWpA",
    "name": "B&B Impianti Di Bondi Giuseppe",
    "category": "B&B Impianti Di Bondi Giuseppe",
    "formatted_address": "4,0(1)",
    "phone_number": "+39335532209924",
    "source_url": "https://www.google.com/maps/place/B%26B+Impianti+Di+Bondi+Giuseppe/data=!4m7!3m6!1s0x477e0047f70c218b:0x905ab138aedbd690!8m2!3d44.380974!4d12.0458427!16s%2Fg%2F11cncp9vcc!19sChIJiyEM90cAfkcRkNbbrjixWpA?authuser=0&hl=tr&rclk=1",
    "website_url": "https://www.facebook.com/BB-Impianti-Di-Bondi-Giuseppe-520561551484054/",
    "rating_text": "4,0",
    "stars": null,
    "number_of_reviews": null,
    "price_level": "",
    "open_hours": "",
    "extraction_timestamp": "2025-06-07T15:56:30.326Z",
    "source_name": "google",
    "source_query": "Irrigation Equipment",
    "source_country": "IT",
    "country": "Italy",
    "state": "Emilia-Romagna",
    "city": "Godo"
  },
  {
    "source_id": "ChIJXVm5QPUBfkcRTAG0hfMp8SQ",
    "name": "LOVINO DUEPUNTOZERO",
    "category": "LOVINO DUEPUNTOZERO",
    "formatted_address": "4,7(170) · €1–10",
    "phone_number": "+393334499949",
    "source_url": "https://www.google.com/maps/place/LOVINO+DUEPUNTOZERO/data=!4m7!3m6!1s0x477e01f540b9595d:0x24f129f385b4014c!8m2!3d44.3923704!4d12.07446!16s%2Fg%2F11svt5ygkq!19sChIJXVm5QPUBfkcRTAG0hfMp8SQ?authuser=0&hl=tr&rclk=1",
    "website_url": "https://lovino.eatbu.com/?lang=it",
    "rating_text": "4,7",
    "stars": null,
    "number_of_reviews": null,
    "price_level": "",
    "open_hours": "",
    "extraction_timestamp": "2025-06-07T15:56:30.328Z",
    "source_name": "google",
    "source_query": "Irrigation Equipment",
    "source_country": "IT",
    "country": "Italy",
    "state": "Emilia-Romagna",
    "city": "Godo"
  },
  {
    "source_id": "ChIJl0M9f2MAfkcRomNI3qpmJac",
    "name": "Farmacia Gallina",
    "category": "Farmacia Gallina",
    "formatted_address": "4,8(85)",
    "phone_number": "+390544419322",
    "source_url": "https://www.google.com/maps/place/Farmacia+Gallina/data=!4m7!3m6!1s0x477e00637f3d4397:0xa72566aade4863a2!8m2!3d44.3915842!4d12.0717658!16s%2Fg%2F11clt77j9y!19sChIJl0M9f2MAfkcRomNI3qpmJac?authuser=0&hl=tr&rclk=1",
    "website_url": "https://www.farmaciagallina.it/",
    "rating_text": "4,8",
    "stars": null,
    "number_of_reviews": null,
    "price_level": "",
    "open_hours": "",
    "extraction_timestamp": "2025-06-07T15:56:30.329Z",
    "source_name": "google",
    "source_query": "Irrigation Equipment",
    "source_country": "IT",
    "country": "Italy",
    "state": "Emilia-Romagna",
    "city": "Godo"
  }
]
