[
  {
    "source_id": "ChIJy805WcDcgEcRtmGWlwosXQc",
    "name": "IRRIMEC SRL",
    "category": "IRRIMEC SRL",
    "formatted_address": "4,5(90)",
    "phone_number": "+390523760441",
    "source_url": "https://www.google.com/maps/place/IRRIMEC+SRL/data=!4m7!3m6!1s0x4780dcc05939cdcb:0x75d2c0a979661b6!8m2!3d45.0612353!4d9.630829!16s%2Fg%2F1tdgt7d_!19sChIJy805WcDcgEcRtmGWlwosXQc?authuser=0&hl=tr&rclk=1",
    "website_url": "http://www.irrimec.com/",
    "rating_text": "4,5",
    "stars": null,
    "number_of_reviews": null,
    "price_level": "",
    "open_hours": "",
    "extraction_timestamp": "2025-06-07T15:51:23.255Z",
    "source_name": "google",
    "source_query": "Irrigation Equipment",
    "source_country": "IT",
    "country": "Italy",
    "state": "Emilia-Romagna",
    "city": "Gossolengo"
  },
  {
    "source_id": "ChIJtf0oE6bDgEcRzXeQjJ5KWIM",
    "name": "Geo Nord Srl",
    "category": "Geo Nord Srl",
    "formatted_address": "4,0(1)",
    "phone_number": "+390523779169",
    "source_url": "https://www.google.com/maps/place/Geo+Nord+Srl/data=!4m7!3m6!1s0x4780c3a61328fdb5:0x83584a9e8c9077cd!8m2!3d45.0024355!4d9.6218329!16s%2Fg%2F1tj90d3h!19sChIJtf0oE6bDgEcRzXeQjJ5KWIM?authuser=0&hl=tr&rclk=1",
    "website_url": "http://www.geo-nord.it/",
    "rating_text": "4,0",
    "stars": null,
    "number_of_reviews": null,
    "price_level": "",
    "open_hours": "",
    "extraction_timestamp": "2025-06-07T15:51:23.255Z",
    "source_name": "google",
    "source_query": "Irrigation Equipment",
    "source_country": "IT",
    "country": "Italy",
    "state": "Emilia-Romagna",
    "city": "Gossolengo"
  },
  {
    "source_id": "ChIJpbkpAqPDgEcRnM2lp3SFSxc",
    "name": "F.G.M | Impianti Termosanitari, di Condizionamento, a Gas e Protezione Antincendio",
    "category": "F.G.M | Impianti Termosanitari, di Condizionamento, a Gas e Protezione Antincendio",
    "formatted_address": "F.G.M | Impianti Termosanitari, di Condizionamento, a Gas e Protezione Antincendio",
    "phone_number": "+390523778177",
    "source_url": "https://www.google.com/maps/place/F.G.M+%7C+Impianti+Termosanitari,+di+Condizionamento,+a+Gas+e+Protezione+Antincendio/data=!4m7!3m6!1s0x4780c3a30229b9a5:0x174b8574a7a5cd9c!8m2!3d44.9981339!4d9.6131247!16s%2Fg%2F1pty4_1br!19sChIJpbkpAqPDgEcRnM2lp3SFSxc?authuser=0&hl=tr&rclk=1",
    "website_url": "http://www.fgmarodotti.it/",
    "rating_text": "3,8",
    "stars": null,
    "number_of_reviews": null,
    "price_level": "",
    "open_hours": "",
    "extraction_timestamp": "2025-06-07T15:51:23.256Z",
    "source_name": "google",
    "source_query": "Irrigation Equipment",
    "source_country": "IT",
    "country": "Italy",
    "state": "Emilia-Romagna",
    "city": "Gossolengo"
  },
  {
    "source_id": "ChIJi9iMU1zDgEcRDES7knAbJi8",
    "name": "ETS EcoTecnologie Stradali S.r.l.",
    "category": "ETS EcoTecnologie Stradali S.r.l.",
    "formatted_address": "4,6(39)",
    "phone_number": "+390523778162",
    "source_url": "https://www.google.com/maps/place/ETS+EcoTecnologie+Stradali+S.r.l./data=!4m7!3m6!1s0x4780c35c538cd88b:0x2f261b7092bb440c!8m2!3d45.0290723!4d9.6055867!16s%2Fg%2F1vfn5hk_!19sChIJi9iMU1zDgEcRDES7knAbJi8?authuser=0&hl=tr&rclk=1",
    "website_url": "http://www.gruppoquarello.it/ets",
    "rating_text": "4,6",
    "stars": null,
    "number_of_reviews": null,
    "price_level": "",
    "open_hours": "",
    "extraction_timestamp": "2025-06-07T15:51:23.256Z",
    "source_name": "google",
    "source_query": "Irrigation Equipment",
    "source_country": "IT",
    "country": "Italy",
    "state": "Emilia-Romagna",
    "city": "Gossolengo"
  },
  {
    "source_id": "ChIJCdwQIfbNgEcRtWOzhvtW0iA",
    "name": "Agrimil Tech Srl",
    "category": "Agrimil Tech Srl",
    "formatted_address": "4,8(9)",
    "phone_number": "+390523849679",
    "source_url": "https://www.google.com/maps/place/Agrimil+Tech+Srl/data=!4m7!3m6!1s0x4780cdf62110dc09:0x20d256fb86b363b5!8m2!3d45.0556557!4d9.5030905!16s%2Fg%2F1tdf9z93!19sChIJCdwQIfbNgEcRtWOzhvtW0iA?authuser=0&hl=tr&rclk=1",
    "website_url": "http://www.agrimil.it/",
    "rating_text": "4,8",
    "stars": null,
    "number_of_reviews": null,
    "price_level": "",
    "open_hours": "",
    "extraction_timestamp": "2025-06-07T15:51:23.257Z",
    "source_name": "google",
    "source_query": "Irrigation Equipment",
    "source_country": "IT",
    "country": "Italy",
    "state": "Emilia-Romagna",
    "city": "Gossolengo"
  },
  {
    "source_id": "ChIJnf1ETDbDgEcRbIsuaqUU0vI",
    "name": "Idrolab Hydroponics S.r.l",
    "category": "Idrolab Hydroponics S.r.l",
    "formatted_address": "Topraksız Tarım Ekipmanları Tedarikçisi ·  · Viale Dei Rivi, 15Kapalı ⋅ Açılış zamanı: Pzt 08:00",
    "phone_number": "",
    "source_url": "https://www.google.com/maps/place/Idrolab+Hydroponics+S.r.l/data=!4m7!3m6!1s0x4780c3364c44fd9d:0xf2d214a56a2e8b6c!8m2!3d45.0027324!4d9.6225051!16s%2Fg%2F11ll9pn2kg!19sChIJnf1ETDbDgEcRbIsuaqUU0vI?authuser=0&hl=tr&rclk=1",
    "website_url": "https://www.idrolabhydroponics.com/",
    "rating_text": "",
    "stars": null,
    "number_of_reviews": null,
    "price_level": "",
    "open_hours": "",
    "extraction_timestamp": "2025-06-07T15:51:23.257Z",
    "source_name": "google",
    "source_query": "Irrigation Equipment",
    "source_country": "IT",
    "country": "Italy",
    "state": "Emilia-Romagna",
    "city": "Gossolengo"
  },
  {
    "source_id": "ChIJowY_3N7ngEcRTiAvwcqeGUI",
    "name": "Paesaggistica Piacentina Srl",
    "category": "Paesaggistica Piacentina Srl",
    "formatted_address": "5,0(1)",
    "phone_number": "+390523618154",
    "source_url": "https://www.google.com/maps/place/Paesaggistica+Piacentina+Srl/data=!4m7!3m6!1s0x4780e7dedc3f06a3:0x42199ecac12f204e!8m2!3d44.9922856!4d9.6929373!16s%2Fg%2F11b6j2cgrt!19sChIJowY_3N7ngEcRTiAvwcqeGUI?authuser=0&hl=tr&rclk=1",
    "website_url": "https://www.paesaggisticapiacentina.com/",
    "rating_text": "5,0",
    "stars": null,
    "number_of_reviews": null,
    "price_level": "",
    "open_hours": "",
    "extraction_timestamp": "2025-06-07T15:51:23.257Z",
    "source_name": "google",
    "source_query": "Irrigation Equipment",
    "source_country": "IT",
    "country": "Italy",
    "state": "Emilia-Romagna",
    "city": "Gossolengo"
  },
  {
    "source_id": "ChIJN1atg4npgEcRZvz-ElSIojc",
    "name": "Ecotek srl",
    "category": "Ecotek srl",
    "formatted_address": "4,7(15)",
    "phone_number": "+390523593386",
    "source_url": "https://www.google.com/maps/place/Ecotek+srl/data=!4m7!3m6!1s0x4780e98983ad5637:0x37a2885412fefc66!8m2!3d45.0368303!4d9.704905!16s%2Fg%2F11f70_71yz!19sChIJN1atg4npgEcRZvz-ElSIojc?authuser=0&hl=tr&rclk=1",
    "website_url": "http://www.ecotekpiacenza.it/",
    "rating_text": "4,7",
    "stars": null,
    "number_of_reviews": null,
    "price_level": "",
    "open_hours": "",
    "extraction_timestamp": "2025-06-07T15:51:23.258Z",
    "source_name": "google",
    "source_query": "Irrigation Equipment",
    "source_country": "IT",
    "country": "Italy",
    "state": "Emilia-Romagna",
    "city": "Gossolengo"
  },
  {
    "source_id": "ChIJ4WnZNofogEcRcCSJgGupNXk",
    "name": "Irrigarden",
    "category": "Irrigarden",
    "formatted_address": "3,7(6)",
    "phone_number": "+390523592012",
    "source_url": "https://www.google.com/maps/place/Irrigarden/data=!4m7!3m6!1s0x4780e88736d969e1:0x7935a96b80892470!8m2!3d45.0288739!4d9.7384753!16s%2Fg%2F11g4d1r753!19sChIJ4WnZNofogEcRcCSJgGupNXk?authuser=0&hl=tr&rclk=1",
    "website_url": "https://www.irrigarden.com/",
    "rating_text": "3,7",
    "stars": null,
    "number_of_reviews": null,
    "price_level": "",
    "open_hours": "",
    "extraction_timestamp": "2025-06-07T15:51:23.258Z",
    "source_name": "google",
    "source_query": "Irrigation Equipment",
    "source_country": "IT",
    "country": "Italy",
    "state": "Emilia-Romagna",
    "city": "Gossolengo"
  },
  {
    "source_id": "ChIJlfKaqSlRfksRNvergECjVi8",
    "name": "Mannino Sistemi Trattamento Acqua",
    "category": "Mannino Sistemi Trattamento Acqua",
    "formatted_address": "4,8(16)",
    "phone_number": "+393505784936",
    "source_url": "https://www.google.com/maps/place/Mannino+Sistemi+Trattamento+Acqua/data=!4m7!3m6!1s0x4b7e5129a99af295:0x2f56a34080abf736!8m2!3d45.0422201!4d9.6981487!16s%2Fg%2F11q3q46xvv!19sChIJlfKaqSlRfksRNvergECjVi8?authuser=0&hl=tr&rclk=1",
    "website_url": "http://manninodepurazione.it/",
    "rating_text": "4,8",
    "stars": null,
    "number_of_reviews": null,
    "price_level": "",
    "open_hours": "",
    "extraction_timestamp": "2025-06-07T15:51:23.258Z",
    "source_name": "google",
    "source_query": "Irrigation Equipment",
    "source_country": "IT",
    "country": "Italy",
    "state": "Emilia-Romagna",
    "city": "Gossolengo"
  },
  {
    "source_id": "ChIJC0LYzsXngEcR8g_5HSSzAko",
    "name": "Pulitecno",
    "category": "Pulitecno",
    "formatted_address": "5,0(5)",
    "phone_number": "+390523577811",
    "source_url": "https://www.google.com/maps/place/Pulitecno/data=!4m7!3m6!1s0x4780e7c5ced8420b:0x4a02b3241df90ff2!8m2!3d45.0483093!4d9.7294483!16s%2Fg%2F11fxwb60cv!19sChIJC0LYzsXngEcR8g_5HSSzAko?authuser=0&hl=tr&rclk=1",
    "website_url": "http://www.pulitecnosrl.it/",
    "rating_text": "5,0",
    "stars": null,
    "number_of_reviews": null,
    "price_level": "",
    "open_hours": "",
    "extraction_timestamp": "2025-06-07T15:51:23.259Z",
    "source_name": "google",
    "source_query": "Irrigation Equipment",
    "source_country": "IT",
    "country": "Italy",
    "state": "Emilia-Romagna",
    "city": "Gossolengo"
  },
  {
    "source_id": "ChIJURNsXunRgEcRmae-SVNqONs",
    "name": "IDROPAVESE SAS DI VARESI GIAMPAOLO E VARESI MARA",
    "category": "IDROPAVESE SAS DI VARESI GIAMPAOLO E VARESI MARA",
    "formatted_address": "4,2(17)",
    "phone_number": "+390523882596",
    "source_url": "https://www.google.com/maps/place/IDROPAVESE+SAS+DI+VARESI+GIAMPAOLO+E+VARESI+MARA/data=!4m7!3m6!1s0x4780d1e95e6c1351:0xdb386a5349bea799!8m2!3d45.0733425!4d9.4455294!16s%2Fg%2F11b6hssh7j!19sChIJURNsXunRgEcRmae-SVNqONs?authuser=0&hl=tr&rclk=1",
    "website_url": "http://www.idropavese.it/",
    "rating_text": "4,2",
    "stars": null,
    "number_of_reviews": null,
    "price_level": "",
    "open_hours": "",
    "extraction_timestamp": "2025-06-07T15:51:23.259Z",
    "source_name": "google",
    "source_query": "Irrigation Equipment",
    "source_country": "IT",
    "country": "Italy",
    "state": "Emilia-Romagna",
    "city": "Gossolengo"
  },
  {
    "source_id": "ChIJS5MUhybdgEcR5VM0wd-wyo4",
    "name": "Assistenza impianti trattamento acqua Piacenza",
    "category": "Assistenza impianti trattamento acqua Piacenza",
    "formatted_address": "",
    "phone_number": "+393247707944",
    "source_url": "https://www.google.com/maps/place/Assistenza+impianti+trattamento+acqua+Piacenza/data=!4m7!3m6!1s0x4780dd268714934b:0x8ecab0dfc13453e5!8m2!3d45.0422201!4d9.6981487!16s%2Fg%2F11j4p_1f6m!19sChIJS5MUhybdgEcR5VM0wd-wyo4?authuser=0&hl=tr&rclk=1",
    "website_url": "",
    "rating_text": "",
    "stars": null,
    "number_of_reviews": null,
    "price_level": "",
    "open_hours": "",
    "extraction_timestamp": "2025-06-07T15:51:23.259Z",
    "source_name": "google",
    "source_query": "Irrigation Equipment",
    "source_country": "IT",
    "country": "Italy",
    "state": "Emilia-Romagna",
    "city": "Gossolengo"
  }
]
