[
  {
    "source_id": "ChIJCdwQIfbNgEcRtWOzhvtW0iA",
    "name": "Agrimil Tech Srl",
    "category": "Agrimil Tech Srl",
    "formatted_address": "4,8(9)",
    "phone_number": "+390523849679",
    "source_url": "https://www.google.com/maps/place/Agrimil+Tech+Srl/data=!4m7!3m6!1s0x4780cdf62110dc09:0x20d256fb86b363b5!8m2!3d45.0556557!4d9.5030905!16s%2Fg%2F1tdf9z93!19sChIJCdwQIfbNgEcRtWOzhvtW0iA?authuser=0&hl=tr&rclk=1",
    "website_url": "http://www.agrimil.it/",
    "rating_text": "4,8",
    "stars": null,
    "number_of_reviews": null,
    "price_level": "",
    "open_hours": "",
    "extraction_timestamp": "2025-06-07T16:25:18.355Z",
    "source_name": "google",
    "source_query": "Irrigation Equipment",
    "source_country": "IT",
    "country": "Italy",
    "state": "Emilia-Romagna",
    "city": "Gragnano Trebbiense"
  },
  {
    "source_id": "ChIJcQG6ul7df0cR3VxKiu5OPBs",
    "name": "Scova Impianti Srl",
    "category": "Scova Impianti Srl",
    "formatted_address": "4,5(64)",
    "phone_number": "+39059923202",
    "source_url": "https://www.google.com/maps/place/Scova+Impianti+Srl/data=!4m7!3m6!1s0x477fdd5ebaba0171:0x1b3c4eee8a4a5cdd!8m2!3d44.6018135!4d11.032294!16s%2Fg%2F1tfzwbfb!19sChIJcQG6ul7df0cR3VxKiu5OPBs?authuser=0&hl=tr&rclk=1",
    "website_url": "https://www.scovaimpianti.com/",
    "rating_text": "4,5",
    "stars": null,
    "number_of_reviews": null,
    "price_level": "",
    "open_hours": "",
    "extraction_timestamp": "2025-06-07T16:25:18.356Z",
    "source_name": "google",
    "source_query": "Irrigation Equipment",
    "source_country": "IT",
    "country": "Italy",
    "state": "Emilia-Romagna",
    "city": "Gragnano Trebbiense"
  },
  {
    "source_id": "ChIJtVDkNgRFgEcRqc6umwWIJuI",
    "name": "Rm Spa",
    "category": "Rm Spa",
    "formatted_address": "4,6(81)",
    "phone_number": "+390521872321",
    "source_url": "https://www.google.com/maps/place/Rm+Spa/data=!4m7!3m6!1s0x4780450436e450b5:0xe22688059baecea9!8m2!3d44.9105406!4d10.2583785!16s%2Fg%2F12hl93byl!19sChIJtVDkNgRFgEcRqc6umwWIJuI?authuser=0&hl=tr&rclk=1",
    "website_url": "http://www.rmirrigation.com/",
    "rating_text": "4,6",
    "stars": null,
    "number_of_reviews": null,
    "price_level": "",
    "open_hours": "",
    "extraction_timestamp": "2025-06-07T16:25:18.357Z",
    "source_name": "google",
    "source_query": "Irrigation Equipment",
    "source_country": "IT",
    "country": "Italy",
    "state": "Emilia-Romagna",
    "city": "Gragnano Trebbiense"
  },
  {
    "source_id": "ChIJlfKaqSlRfksRNvergECjVi8",
    "name": "Mannino Sistemi Trattamento Acqua",
    "category": "Mannino Sistemi Trattamento Acqua",
    "formatted_address": "4,8(16)",
    "phone_number": "+393505784936",
    "source_url": "https://www.google.com/maps/place/Mannino+Sistemi+Trattamento+Acqua/data=!4m7!3m6!1s0x4b7e5129a99af295:0x2f56a34080abf736!8m2!3d45.0422201!4d9.6981487!16s%2Fg%2F11q3q46xvv!19sChIJlfKaqSlRfksRNvergECjVi8?authuser=0&hl=tr&rclk=1",
    "website_url": "http://manninodepurazione.it/",
    "rating_text": "4,8",
    "stars": null,
    "number_of_reviews": null,
    "price_level": "",
    "open_hours": "",
    "extraction_timestamp": "2025-06-07T16:25:18.358Z",
    "source_name": "google",
    "source_query": "Irrigation Equipment",
    "source_country": "IT",
    "country": "Italy",
    "state": "Emilia-Romagna",
    "city": "Gragnano Trebbiense"
  },
  {
    "source_id": "ChIJJ6V6lMDgf0cRkL2jf5B3MwQ",
    "name": "Scova Engineering Spa",
    "category": "Scova Engineering Spa",
    "formatted_address": "5,0(2)",
    "phone_number": "+39059702012",
    "source_url": "https://www.google.com/maps/place/Scova+Engineering+Spa/data=!4m7!3m6!1s0x477fe0c0947aa527:0x43377907fa3bd90!8m2!3d44.5304758!4d10.9796265!16s%2Fg%2F1tql3mky!19sChIJJ6V6lMDgf0cRkL2jf5B3MwQ?authuser=0&hl=tr&rclk=1",
    "website_url": "https://www.scova-engineering.it/",
    "rating_text": "5,0",
    "stars": null,
    "number_of_reviews": null,
    "price_level": "",
    "open_hours": "",
    "extraction_timestamp": "2025-06-07T16:25:18.359Z",
    "source_name": "google",
    "source_query": "Irrigation Equipment",
    "source_country": "IT",
    "country": "Italy",
    "state": "Emilia-Romagna",
    "city": "Gragnano Trebbiense"
  },
  {
    "source_id": "ChIJ9V7VUGIbEQ4Rd0H8gwcDqwk",
    "name": "Mannino Sistemi Trattamento Acqua",
    "category": "Mannino Sistemi Trattamento Acqua",
    "formatted_address": "3,7(3)",
    "phone_number": "+393505784936",
    "source_url": "https://www.google.com/maps/place/Mannino+Sistemi+Trattamento+Acqua/data=!4m7!3m6!1s0xe111b6250d55ef5:0x9ab030783fc4177!8m2!3d45.0422201!4d9.6981487!16s%2Fg%2F11s33q_spp!19sChIJ9V7VUGIbEQ4Rd0H8gwcDqwk?authuser=0&hl=tr&rclk=1",
    "website_url": "http://www.manninodepurazione.it/",
    "rating_text": "3,7",
    "stars": null,
    "number_of_reviews": null,
    "price_level": "",
    "open_hours": "",
    "extraction_timestamp": "2025-06-07T16:25:18.360Z",
    "source_name": "google",
    "source_query": "Irrigation Equipment",
    "source_country": "IT",
    "country": "Italy",
    "state": "Emilia-Romagna",
    "city": "Gragnano Trebbiense"
  },
  {
    "source_id": "ChIJURNsXunRgEcRmae-SVNqONs",
    "name": "IDROPAVESE SAS DI VARESI GIAMPAOLO E VARESI MARA",
    "category": "IDROPAVESE SAS DI VARESI GIAMPAOLO E VARESI MARA",
    "formatted_address": "4,2(17)",
    "phone_number": "+390523882596",
    "source_url": "https://www.google.com/maps/place/IDROPAVESE+SAS+DI+VARESI+GIAMPAOLO+E+VARESI+MARA/data=!4m7!3m6!1s0x4780d1e95e6c1351:0xdb386a5349bea799!8m2!3d45.0733425!4d9.4455294!16s%2Fg%2F11b6hssh7j!19sChIJURNsXunRgEcRmae-SVNqONs?authuser=0&hl=tr&rclk=1",
    "website_url": "http://www.idropavese.it/",
    "rating_text": "4,2",
    "stars": null,
    "number_of_reviews": null,
    "price_level": "",
    "open_hours": "",
    "extraction_timestamp": "2025-06-07T16:25:18.361Z",
    "source_name": "google",
    "source_query": "Irrigation Equipment",
    "source_country": "IT",
    "country": "Italy",
    "state": "Emilia-Romagna",
    "city": "Gragnano Trebbiense"
  },
  {
    "source_id": "ChIJC0LYzsXngEcR8g_5HSSzAko",
    "name": "Pulitecno",
    "category": "Pulitecno",
    "formatted_address": "5,0(5)",
    "phone_number": "+390523577811",
    "source_url": "https://www.google.com/maps/place/Pulitecno/data=!4m7!3m6!1s0x4780e7c5ced8420b:0x4a02b3241df90ff2!8m2!3d45.0483093!4d9.7294483!16s%2Fg%2F11fxwb60cv!19sChIJC0LYzsXngEcR8g_5HSSzAko?authuser=0&hl=tr&rclk=1",
    "website_url": "http://www.pulitecnosrl.it/",
    "rating_text": "5,0",
    "stars": null,
    "number_of_reviews": null,
    "price_level": "",
    "open_hours": "",
    "extraction_timestamp": "2025-06-07T16:25:18.362Z",
    "source_name": "google",
    "source_query": "Irrigation Equipment",
    "source_country": "IT",
    "country": "Italy",
    "state": "Emilia-Romagna",
    "city": "Gragnano Trebbiense"
  },
  {
    "source_id": "ChIJISlyN8fVfkcRP1ghb3uyg-o",
    "name": "Import Irrigation Systems S.R.L.",
    "category": "Import Irrigation Systems S.R.L.",
    "formatted_address": "Üretici ·  · Via Salvo d'Acquisto, 5Kapalı ⋅ Açılış zamanı: Pzt 08:30 · +39 049 559 1020",
    "phone_number": "+390495591020",
    "source_url": "https://www.google.com/maps/place/Import+Irrigation+Systems+S.R.L./data=!4m7!3m6!1s0x477ed5c737722921:0xea83b27b6f21583f!8m2!3d45.5362842!4d11.825368!16s%2Fg%2F1tsjchn3!19sChIJISlyN8fVfkcRP1ghb3uyg-o?authuser=0&hl=tr&rclk=1",
    "website_url": "http://www.importirrigation.com/",
    "rating_text": "",
    "stars": null,
    "number_of_reviews": null,
    "price_level": "",
    "open_hours": "",
    "extraction_timestamp": "2025-06-07T16:25:18.364Z",
    "source_name": "google",
    "source_query": "Irrigation Equipment",
    "source_country": "IT",
    "country": "Italy",
    "state": "Emilia-Romagna",
    "city": "Gragnano Trebbiense"
  },
  {
    "source_id": "ChIJS5MUhybdgEcR5VM0wd-wyo4",
    "name": "Assistenza impianti trattamento acqua Piacenza",
    "category": "Assistenza impianti trattamento acqua Piacenza",
    "formatted_address": "",
    "phone_number": "+393247707944",
    "source_url": "https://www.google.com/maps/place/Assistenza+impianti+trattamento+acqua+Piacenza/data=!4m7!3m6!1s0x4780dd268714934b:0x8ecab0dfc13453e5!8m2!3d45.0422201!4d9.6981487!16s%2Fg%2F11j4p_1f6m!19sChIJS5MUhybdgEcR5VM0wd-wyo4?authuser=0&hl=tr&rclk=1",
    "website_url": "",
    "rating_text": "",
    "stars": null,
    "number_of_reviews": null,
    "price_level": "",
    "open_hours": "",
    "extraction_timestamp": "2025-06-07T16:25:18.365Z",
    "source_name": "google",
    "source_query": "Irrigation Equipment",
    "source_country": "IT",
    "country": "Italy",
    "state": "Emilia-Romagna",
    "city": "Gragnano Trebbiense"
  },
  {
    "source_id": "ChIJJ6V6lMDgf0cR1SpFsfjDuHg",
    "name": "Ocmis Irrigazione Spa",
    "category": "Ocmis Irrigazione Spa",
    "formatted_address": "3,5(31)",
    "phone_number": "+39059702150",
    "source_url": "https://www.google.com/maps/place/Ocmis+Irrigazione+Spa/data=!4m7!3m6!1s0x477fe0c0947aa527:0x78b8c3f8b1452ad5!8m2!3d44.530494!4d10.9794578!16s%2Fg%2F1vd3tn19!19sChIJJ6V6lMDgf0cR1SpFsfjDuHg?authuser=0&hl=tr&rclk=1",
    "website_url": "http://www.ocmis-irrigazione.it/",
    "rating_text": "3,5",
    "stars": null,
    "number_of_reviews": null,
    "price_level": "",
    "open_hours": "",
    "extraction_timestamp": "2025-06-07T16:25:18.366Z",
    "source_name": "google",
    "source_query": "Irrigation Equipment",
    "source_country": "IT",
    "country": "Italy",
    "state": "Emilia-Romagna",
    "city": "Gragnano Trebbiense"
  },
  {
    "source_id": "ChIJh3Nd8G0sfkcR_m7VewEmxXM",
    "name": "Irrigarden",
    "category": "Irrigarden",
    "formatted_address": "4,7(158)",
    "phone_number": "+39051782013",
    "source_url": "https://www.google.com/maps/place/Irrigarden/data=!4m7!3m6!1s0x477e2c6df05d7387:0x73c526017bd56efe!8m2!3d44.5096266!4d11.4390897!16s%2Fg%2F1vgw_l7w!19sChIJh3Nd8G0sfkcR_m7VewEmxXM?authuser=0&hl=tr&rclk=1",
    "website_url": "https://www.irrigarden-bo.it/",
    "rating_text": "4,7",
    "stars": null,
    "number_of_reviews": null,
    "price_level": "",
    "open_hours": "",
    "extraction_timestamp": "2025-06-07T16:25:18.367Z",
    "source_name": "google",
    "source_query": "Irrigation Equipment",
    "source_country": "IT",
    "country": "Italy",
    "state": "Emilia-Romagna",
    "city": "Gragnano Trebbiense"
  },
  {
    "source_id": "ChIJrRSbeibFgEcRf6eDORL9znA",
    "name": "Brandazza Pesca",
    "category": "Brandazza Pesca",
    "formatted_address": "4,5(1.079)",
    "phone_number": "+390523787128",
    "source_url": "https://www.google.com/maps/place/Brandazza+Pesca/data=!4m7!3m6!1s0x4780c5267a9b14ad:0x70cefd123983a77f!8m2!3d45.0159095!4d9.567967!16s%2Fg%2F11grbtzm8g!19sChIJrRSbeibFgEcRf6eDORL9znA?authuser=0&hl=tr&rclk=1",
    "website_url": "https://www.brandazza.it/",
    "rating_text": "4,5",
    "stars": null,
    "number_of_reviews": null,
    "price_level": "",
    "open_hours": "",
    "extraction_timestamp": "2025-06-07T16:25:18.370Z",
    "source_name": "google",
    "source_query": "Irrigation Equipment",
    "source_country": "IT",
    "country": "Italy",
    "state": "Emilia-Romagna",
    "city": "Gragnano Trebbiense"
  },
  {
    "source_id": "ChIJP4ZNSAV720MRKzxQGw-onx0",
    "name": "Mannino Sistemi Trattamento",
    "category": "Mannino Sistemi Trattamento",
    "formatted_address": "",
    "phone_number": "+393505784936",
    "source_url": "https://www.google.com/maps/place/Mannino+Sistemi+Trattamento/data=!4m7!3m6!1s0x43db7b05484d863f:0x1d9fa80f1b503c2b!8m2!3d44.4355116!4d10.9767761!16s%2Fg%2F11q4bd04zw!19sChIJP4ZNSAV720MRKzxQGw-onx0?authuser=0&hl=tr&rclk=1",
    "website_url": "http://manninodepurazione.it/",
    "rating_text": "",
    "stars": null,
    "number_of_reviews": null,
    "price_level": "",
    "open_hours": "",
    "extraction_timestamp": "2025-06-07T16:25:18.371Z",
    "source_name": "google",
    "source_query": "Irrigation Equipment",
    "source_country": "IT",
    "country": "Italy",
    "state": "Emilia-Romagna",
    "city": "Gragnano Trebbiense"
  },
  {
    "source_id": "ChIJ-Z_RHvbnf0cRry0jCm7Q5GQ",
    "name": "Scova Impianti",
    "category": "Scova Impianti",
    "formatted_address": "4,0(4)",
    "phone_number": "+39059925910",
    "source_url": "https://www.google.com/maps/place/Scova+Impianti/data=!4m7!3m6!1s0x477fe7f61ed19ff9:0x64e4d06e0a232daf!8m2!3d44.6018937!4d11.0315223!16s%2Fg%2F1td6wznv!19sChIJ-Z_RHvbnf0cRry0jCm7Q5GQ?authuser=0&hl=tr&rclk=1",
    "website_url": "https://scovaimpianti.com/",
    "rating_text": "4,0",
    "stars": null,
    "number_of_reviews": null,
    "price_level": "",
    "open_hours": "",
    "extraction_timestamp": "2025-06-07T16:25:18.372Z",
    "source_name": "google",
    "source_query": "Irrigation Equipment",
    "source_country": "IT",
    "country": "Italy",
    "state": "Emilia-Romagna",
    "city": "Gragnano Trebbiense"
  },
  {
    "source_id": "ChIJo35coqrhf0cRTLWyfHFEKxU",
    "name": "Irtec (S.R.L.)",
    "category": "Irtec (S.R.L.)",
    "formatted_address": "4,5(2)",
    "phone_number": "+39059702150",
    "source_url": "https://www.google.com/maps/place/Irtec+%28S.R.L.%29/data=!4m7!3m6!1s0x477fe1aaa25c7ea3:0x152b44717cb2b54c!8m2!3d44.5304847!4d10.9796055!16s%2Fg%2F1tgn8gft!19sChIJo35coqrhf0cRTLWyfHFEKxU?authuser=0&hl=tr&rclk=1",
    "website_url": "",
    "rating_text": "4,5",
    "stars": null,
    "number_of_reviews": null,
    "price_level": "",
    "open_hours": "",
    "extraction_timestamp": "2025-06-07T16:25:18.373Z",
    "source_name": "google",
    "source_query": "Irrigation Equipment",
    "source_country": "IT",
    "country": "Italy",
    "state": "Emilia-Romagna",
    "city": "Gragnano Trebbiense"
  },
  {
    "source_id": "ChIJkYmJKarcgEcRypXKQgrMaDs",
    "name": "Errebi Idropulitrici",
    "category": "Errebi Idropulitrici",
    "formatted_address": "5,0(5)",
    "phone_number": "+390523769257",
    "source_url": "https://www.google.com/maps/place/Errebi+Idropulitrici/data=!4m7!3m6!1s0x4780dcaa29898991:0x3b68cc0a42ca95ca!8m2!3d45.0495714!4d9.6069156!16s%2Fg%2F11cjpc_lx4!19sChIJkYmJKarcgEcRypXKQgrMaDs?authuser=0&hl=tr&rclk=1",
    "website_url": "",
    "rating_text": "5,0",
    "stars": null,
    "number_of_reviews": null,
    "price_level": "",
    "open_hours": "",
    "extraction_timestamp": "2025-06-07T16:25:18.374Z",
    "source_name": "google",
    "source_query": "Irrigation Equipment",
    "source_country": "IT",
    "country": "Italy",
    "state": "Emilia-Romagna",
    "city": "Gragnano Trebbiense"
  },
  {
    "source_id": "ChIJ8S_H450fgEcRen1BwvkupIc",
    "name": "Agro-system Snc di Bassoli - Piscine e Macchine giardino - Reggio Emilia",
    "category": "Agro-system Snc di Bassoli - Piscine e Macchine giardino - Reggio Emilia",
    "formatted_address": "4,6(88)",
    "phone_number": "+390522954100",
    "source_url": "https://www.google.com/maps/place/Agro-system+Snc+di+Bassoli+-+Piscine+e+Macchine+giardino+-+Reggio+Emilia/data=!4m7!3m6!1s0x47801f9de3c72ff1:0x87a42ef9c2417d7a!8m2!3d44.797091!4d10.686568!16s%2Fg%2F1tfb5f45!19sChIJ8S_H450fgEcRen1BwvkupIc?authuser=0&hl=tr&rclk=1",
    "website_url": "https://agrosystem.info/",
    "rating_text": "4,6",
    "stars": null,
    "number_of_reviews": null,
    "price_level": "",
    "open_hours": "",
    "extraction_timestamp": "2025-06-07T16:25:18.375Z",
    "source_name": "google",
    "source_query": "Irrigation Equipment",
    "source_country": "IT",
    "country": "Italy",
    "state": "Emilia-Romagna",
    "city": "Gragnano Trebbiense"
  },
  {
    "source_id": "ChIJkZNIBCPdgEcR8lGWPEt6YFI",
    "name": "Eli",
    "category": "Eli",
    "formatted_address": "4,6(15)",
    "phone_number": "+390523489862",
    "source_url": "https://www.google.com/maps/place/Eli/data=!4m7!3m6!1s0x4780dd2304489391:0x52607a4b3c9651f2!8m2!3d45.0568157!4d9.6615652!16s%2Fg%2F1pty1hzpt!19sChIJkZNIBCPdgEcR8lGWPEt6YFI?authuser=0&hl=tr&rclk=1",
    "website_url": "https://www.eliprodottiindustriali.com/",
    "rating_text": "4,6",
    "stars": null,
    "number_of_reviews": null,
    "price_level": "",
    "open_hours": "",
    "extraction_timestamp": "2025-06-07T16:25:18.376Z",
    "source_name": "google",
    "source_query": "Irrigation Equipment",
    "source_country": "IT",
    "country": "Italy",
    "state": "Emilia-Romagna",
    "city": "Gragnano Trebbiense"
  },
  {
    "source_id": "ChIJ9UosqzHbASoR02d0Tw_sUAk",
    "name": "TRI italia srl",
    "category": "TRI italia srl",
    "formatted_address": "",
    "phone_number": "+393492227322",
    "source_url": "https://www.google.com/maps/place/TRI+italia+srl/data=!4m7!3m6!1s0x2a01db31ab2c4af5:0x950ec0f4f7467d3!8m2!3d41.29085!4d12.71216!16s%2Fg%2F11wqp8w6f4!19sChIJ9UosqzHbASoR02d0Tw_sUAk?authuser=0&hl=tr&rclk=1",
    "website_url": "",
    "rating_text": "",
    "stars": null,
    "number_of_reviews": null,
    "price_level": "",
    "open_hours": "",
    "extraction_timestamp": "2025-06-07T16:25:18.377Z",
    "source_name": "google",
    "source_query": "Irrigation Equipment",
    "source_country": "IT",
    "country": "Italy",
    "state": "Emilia-Romagna",
    "city": "Gragnano Trebbiense"
  },
  {
    "source_id": "ChIJSaPB0L_BgEcR3OdIXHXfmmU",
    "name": "EQ S.r.l.",
    "category": "EQ S.r.l.",
    "formatted_address": "1,0(2)",
    "phone_number": "+390523953064",
    "source_url": "https://www.google.com/maps/place/EQ+S.r.l./data=!4m7!3m6!1s0x4780c1bfd0c1a349:0x659adf755c48e7dc!8m2!3d41.29085!4d12.71216!16s%2Fg%2F11f5jqn6sf!19sChIJSaPB0L_BgEcR3OdIXHXfmmU?authuser=0&hl=tr&rclk=1",
    "website_url": "",
    "rating_text": "1,0",
    "stars": null,
    "number_of_reviews": null,
    "price_level": "",
    "open_hours": "",
    "extraction_timestamp": "2025-06-07T16:25:18.378Z",
    "source_name": "google",
    "source_query": "Irrigation Equipment",
    "source_country": "IT",
    "country": "Italy",
    "state": "Emilia-Romagna",
    "city": "Gragnano Trebbiense"
  },
  {
    "source_id": "ChIJ95zYLsNjhkcR-iwCfTiBgjg",
    "name": "GardenArt",
    "category": "GardenArt",
    "formatted_address": "5,0(13)",
    "phone_number": "+393516518516",
    "source_url": "https://www.google.com/maps/place/GardenArt/data=!4m7!3m6!1s0x478663c32ed89cf7:0x388281387d022cfa!8m2!3d45.6927628!4d8.7630617!16s%2Fg%2F11lgm77z70!19sChIJ95zYLsNjhkcR-iwCfTiBgjg?authuser=0&hl=tr&rclk=1",
    "website_url": "",
    "rating_text": "5,0",
    "stars": null,
    "number_of_reviews": null,
    "price_level": "",
    "open_hours": "",
    "extraction_timestamp": "2025-06-07T16:25:18.379Z",
    "source_name": "google",
    "source_query": "Irrigation Equipment",
    "source_country": "IT",
    "country": "Italy",
    "state": "Emilia-Romagna",
    "city": "Gragnano Trebbiense"
  },
  {
    "source_id": "ChIJy3C5wcXngEcRQ2h427KDOfA",
    "name": "SPAZIO - ingrosso | Condizionatori Caldaie Arredo bagno Sanitari Pavimenti |",
    "category": "SPAZIO - ingrosso | Condizionatori Caldaie Arredo bagno Sanitari Pavimenti |",
    "formatted_address": "4,4(73)",
    "phone_number": "+390523576311",
    "source_url": "https://www.google.com/maps/place/SPAZIO+-+ingrosso+%7C+Condizionatori+Caldaie+Arredo+bagno+Sanitari+Pavimenti+%7C/data=!4m7!3m6!1s0x4780e7c5c1b970cb:0xf03983b2db786843!8m2!3d45.0478441!4d9.7314002!16s%2Fg%2F1tp06z2w!19sChIJy3C5wcXngEcRQ2h427KDOfA?authuser=0&hl=tr&rclk=1",
    "website_url": "http://www.spaziospa.com/",
    "rating_text": "4,4",
    "stars": null,
    "number_of_reviews": null,
    "price_level": "",
    "open_hours": "",
    "extraction_timestamp": "2025-06-07T16:25:18.381Z",
    "source_name": "google",
    "source_query": "Irrigation Equipment",
    "source_country": "IT",
    "country": "Italy",
    "state": "Emilia-Romagna",
    "city": "Gragnano Trebbiense"
  },
  {
    "source_id": "ChIJa-ocOUIhh0cR9b-kW3mwV8U",
    "name": "Simed - Idraulica e Termoidraulica",
    "category": "Simed - Idraulica e Termoidraulica",
    "formatted_address": "5,0(2)",
    "phone_number": "+390382815044",
    "source_url": "https://www.google.com/maps/place/Simed+-+Idraulica+e+Termoidraulica/data=!4m7!3m6!1s0x47872142391cea6b:0xc557b0795ba4bff5!8m2!3d45.1732706!4d9.0011505!16s%2Fg%2F11vm0wd34c!19sChIJa-ocOUIhh0cR9b-kW3mwV8U?authuser=0&hl=tr&rclk=1",
    "website_url": "https://www.simedsrl.it/termoidraulica/",
    "rating_text": "5,0",
    "stars": null,
    "number_of_reviews": null,
    "price_level": "",
    "open_hours": "",
    "extraction_timestamp": "2025-06-07T16:25:18.382Z",
    "source_name": "google",
    "source_query": "Irrigation Equipment",
    "source_country": "IT",
    "country": "Italy",
    "state": "Emilia-Romagna",
    "city": "Gragnano Trebbiense"
  },
  {
    "source_id": "ChIJSxfpK8zqhkcRwRAGuxBBlZ4",
    "name": "R.b. Irrigazione",
    "category": "R.b. Irrigazione",
    "formatted_address": "4,8(12)",
    "phone_number": "+39029382939",
    "source_url": "https://www.google.com/maps/place/R.b.+Irrigazione/data=!4m7!3m6!1s0x4786eacc2be9174b:0x9e954110bb0610c1!8m2!3d45.5380147!4d9.0814219!16s%2Fg%2F11fnwhnh03!19sChIJSxfpK8zqhkcRwRAGuxBBlZ4?authuser=0&hl=tr&rclk=1",
    "website_url": "https://rbirrigazione.it/",
    "rating_text": "4,8",
    "stars": null,
    "number_of_reviews": null,
    "price_level": "",
    "open_hours": "",
    "extraction_timestamp": "2025-06-07T16:25:18.383Z",
    "source_name": "google",
    "source_query": "Irrigation Equipment",
    "source_country": "IT",
    "country": "Italy",
    "state": "Emilia-Romagna",
    "city": "Gragnano Trebbiense"
  },
  {
    "source_id": "ChIJ_fqpfYGegUcRxC01KIHe9mw",
    "name": "Green Pool srl",
    "category": "Green Pool srl",
    "formatted_address": "4,8(19)",
    "phone_number": "+390303364626",
    "source_url": "https://www.google.com/maps/place/Green+Pool+srl/data=!4m7!3m6!1s0x47819e817da9fafd:0x6cf6de8128352dc4!8m2!3d45.5128917!4d10.2900648!16s%2Fg%2F1vn_xtv9!19sChIJ_fqpfYGegUcRxC01KIHe9mw?authuser=0&hl=tr&rclk=1",
    "website_url": "http://www.greenpoolsrl.it/",
    "rating_text": "4,8",
    "stars": null,
    "number_of_reviews": null,
    "price_level": "",
    "open_hours": "",
    "extraction_timestamp": "2025-06-07T16:25:18.384Z",
    "source_name": "google",
    "source_query": "Irrigation Equipment",
    "source_country": "IT",
    "country": "Italy",
    "state": "Emilia-Romagna",
    "city": "Gragnano Trebbiense"
  },
  {
    "source_id": "ChIJP-CISQ3-gEcRXwl1yi9NW2Q",
    "name": "SIIP - Società Impianti di irrigazione a pioggia",
    "category": "SIIP - Società Impianti di irrigazione a pioggia",
    "formatted_address": "5,0(2)",
    "phone_number": "+393356863605",
    "source_url": "https://www.google.com/maps/place/SIIP+-+Societ%C3%A0+Impianti+di+irrigazione+a+pioggia/data=!4m7!3m6!1s0x4780fe0d4988e03f:0x645b4d2fca75095f!8m2!3d45.1417827!4d10.0200624!16s%2Fg%2F1vqtfn9y!19sChIJP-CISQ3-gEcRXwl1yi9NW2Q?authuser=0&hl=tr&rclk=1",
    "website_url": "https://www.impiantiirrigazionicremona.com/",
    "rating_text": "5,0",
    "stars": null,
    "number_of_reviews": null,
    "price_level": "",
    "open_hours": "",
    "extraction_timestamp": "2025-06-07T16:25:18.385Z",
    "source_name": "google",
    "source_query": "Irrigation Equipment",
    "source_country": "IT",
    "country": "Italy",
    "state": "Emilia-Romagna",
    "city": "Gragnano Trebbiense"
  },
  {
    "source_id": "ChIJd9DYVlDtgEcRr1d7CrVIliM",
    "name": "RIVENDITA AGRARIA CRISTALLI di B.G.",
    "category": "RIVENDITA AGRARIA CRISTALLI di B.G.",
    "formatted_address": "4,9(27)",
    "phone_number": "+390523859163",
    "source_url": "https://www.google.com/maps/place/RIVENDITA+AGRARIA+CRISTALLI+di+B.G./data=!4m7!3m6!1s0x4780ed5056d8d077:0x239648b50a7b57af!8m2!3d44.9137014!4d9.7877159!16s%2Fg%2F11p61lb0nt!19sChIJd9DYVlDtgEcRr1d7CrVIliM?authuser=0&hl=tr&rclk=1",
    "website_url": "https://www.facebook.com/agrariacristalli",
    "rating_text": "4,9",
    "stars": null,
    "number_of_reviews": null,
    "price_level": "",
    "open_hours": "",
    "extraction_timestamp": "2025-06-07T16:25:18.387Z",
    "source_name": "google",
    "source_query": "Irrigation Equipment",
    "source_country": "IT",
    "country": "Italy",
    "state": "Emilia-Romagna",
    "city": "Gragnano Trebbiense"
  },
  {
    "source_id": "ChIJo_vsDda8hkcRkIWOT9__vnM",
    "name": "Acquapiù piscine e irrigazione",
    "category": "Acquapiù piscine e irrigazione",
    "formatted_address": "4,7(266)",
    "phone_number": "+390312740974",
    "source_url": "https://www.google.com/maps/place/Acquapi%C3%B9+piscine+e+irrigazione/data=!4m7!3m6!1s0x4786bcd60decfba3:0x73beffdf4f8e8590!8m2!3d45.6833123!4d9.1887251!16s%2Fg%2F1tmqf27z!19sChIJo_vsDda8hkcRkIWOT9__vnM?authuser=0&hl=tr&rclk=1",
    "website_url": "https://www.acquapiu.com/",
    "rating_text": "4,7",
    "stars": null,
    "number_of_reviews": null,
    "price_level": "",
    "open_hours": "",
    "extraction_timestamp": "2025-06-07T16:25:18.388Z",
    "source_name": "google",
    "source_query": "Irrigation Equipment",
    "source_country": "IT",
    "country": "Italy",
    "state": "Emilia-Romagna",
    "city": "Gragnano Trebbiense"
  },
  {
    "source_id": "ChIJbfsL195A0xIRK_A_kGpSAfM",
    "name": "Casarino Di Pappalardo Antonella",
    "category": "Casarino Di Pappalardo Antonella",
    "formatted_address": "4,6(57)",
    "phone_number": "+390106518227",
    "source_url": "https://www.google.com/maps/place/Casarino+Di+Pappalardo+Antonella/data=!4m7!3m6!1s0x12d340ded70bfb6d:0xf301526a903ff02b!8m2!3d44.4160849!4d8.8769488!16s%2Fg%2F113hmy7w8!19sChIJbfsL195A0xIRK_A_kGpSAfM?authuser=0&hl=tr&rclk=1",
    "website_url": "",
    "rating_text": "4,6",
    "stars": null,
    "number_of_reviews": null,
    "price_level": "",
    "open_hours": "",
    "extraction_timestamp": "2025-06-07T16:25:18.388Z",
    "source_name": "google",
    "source_query": "Irrigation Equipment",
    "source_country": "IT",
    "country": "Italy",
    "state": "Emilia-Romagna",
    "city": "Gragnano Trebbiense"
  }
]
