[
  {
    "source_id": "ChIJKycT0cklgEcRf9eSDXEGluw",
    "name": "Saer Elettropompe Spa",
    "category": "Saer Elettropompe Spa",
    "formatted_address": "4,7(43)",
    "phone_number": "+390522830941",
    "source_url": "https://www.google.com/maps/place/Saer+Elettropompe+Spa/data=!4m7!3m6!1s0x478025c9d113272b:0xec9606710d92d77f!8m2!3d44.9213265!4d10.6581267!16s%2Fg%2F1tj31zr6!19sChIJKycT0cklgEcRf9eSDXEGluw?authuser=0&hl=tr&rclk=1",
    "website_url": "http://www.saerelettropompe.com/",
    "rating_text": "4,7",
    "stars": null,
    "number_of_reviews": null,
    "price_level": "",
    "open_hours": "",
    "extraction_timestamp": "2025-06-07T15:54:56.460Z",
    "source_name": "google",
    "source_query": "Irrigation Equipment",
    "source_country": "IT",
    "country": "Italy",
    "state": "Emilia-Romagna",
    "city": "Guastalla"
  },
  {
    "source_id": "ChIJj8nUhj4kgEcRy8HJk69hn04",
    "name": "Euroclamp S.R.L.",
    "category": "Euroclamp S.R.L.",
    "formatted_address": "4,2(39)",
    "phone_number": "+390522832081",
    "source_url": "https://www.google.com/maps/place/Euroclamp+S.R.L./data=!4m7!3m6!1s0x4780243e86d4c98f:0x4e9f61af93c9c1cb!8m2!3d44.8993434!4d10.654448!16s%2Fg%2F1tdrd6nd!19sChIJj8nUhj4kgEcRy8HJk69hn04?authuser=0&hl=tr&rclk=1",
    "website_url": "http://euroclampsrl.com/",
    "rating_text": "4,2",
    "stars": null,
    "number_of_reviews": null,
    "price_level": "",
    "open_hours": "",
    "extraction_timestamp": "2025-06-07T15:54:56.461Z",
    "source_name": "google",
    "source_query": "Irrigation Equipment",
    "source_country": "IT",
    "country": "Italy",
    "state": "Emilia-Romagna",
    "city": "Guastalla"
  },
  {
    "source_id": "ChIJzcFQMxQkgEcRn-wZrxhX9_E",
    "name": "Omv Officine Meccaniche",
    "category": "Omv Officine Meccaniche",
    "formatted_address": "4,3(26)",
    "phone_number": "+390522831361",
    "source_url": "https://www.google.com/maps/place/Omv+Officine+Meccaniche/data=!4m7!3m6!1s0x478024143350c1cd:0xf1f75718af19ec9f!8m2!3d44.8935027!4d10.6517664!16s%2Fg%2F1td5q3gq!19sChIJzcFQMxQkgEcRn-wZrxhX9_E?authuser=0&hl=tr&rclk=1",
    "website_url": "http://www.omve.it/",
    "rating_text": "4,3",
    "stars": null,
    "number_of_reviews": null,
    "price_level": "",
    "open_hours": "",
    "extraction_timestamp": "2025-06-07T15:54:56.461Z",
    "source_name": "google",
    "source_query": "Irrigation Equipment",
    "source_country": "IT",
    "country": "Italy",
    "state": "Emilia-Romagna",
    "city": "Guastalla"
  },
  {
    "source_id": "ChIJtzLXV34mgEcR9sDfnfgzOxg",
    "name": "Sime Idromeccanica S.R.L.",
    "category": "Sime Idromeccanica S.R.L.",
    "formatted_address": "4,8(22)",
    "phone_number": "+390522824724",
    "source_url": "https://www.google.com/maps/place/Sime+Idromeccanica+S.R.L./data=!4m7!3m6!1s0x4780267e57d732b7:0x183b33f89ddfc0f6!8m2!3d44.8931121!4d10.6571392!16s%2Fg%2F1tx1s13m!19sChIJtzLXV34mgEcR9sDfnfgzOxg?authuser=0&hl=tr&rclk=1",
    "website_url": "",
    "rating_text": "4,8",
    "stars": null,
    "number_of_reviews": null,
    "price_level": "",
    "open_hours": "",
    "extraction_timestamp": "2025-06-07T15:54:56.461Z",
    "source_name": "google",
    "source_query": "Irrigation Equipment",
    "source_country": "IT",
    "country": "Italy",
    "state": "Emilia-Romagna",
    "city": "Guastalla"
  },
  {
    "source_id": "ChIJ69PdR1EvgEcRzaszzDo7sjQ",
    "name": "Nodolini s.n.c.",
    "category": "Nodolini s.n.c.",
    "formatted_address": "5,0(8)",
    "phone_number": "+390522977491",
    "source_url": "https://www.google.com/maps/place/Nodolini+s.n.c./data=!4m7!3m6!1s0x47802f5147ddd3eb:0x34b23b3acc33abcd!8m2!3d44.9541974!4d10.6879499!16s%2Fg%2F11b6j0n4vm!19sChIJ69PdR1EvgEcRzaszzDo7sjQ?authuser=0&hl=tr&rclk=1",
    "website_url": "http://www.nodolini.com/",
    "rating_text": "5,0",
    "stars": null,
    "number_of_reviews": null,
    "price_level": "",
    "open_hours": "",
    "extraction_timestamp": "2025-06-07T15:54:56.462Z",
    "source_name": "google",
    "source_query": "Irrigation Equipment",
    "source_country": "IT",
    "country": "Italy",
    "state": "Emilia-Romagna",
    "city": "Guastalla"
  },
  {
    "source_id": "ChIJR0cLXhQkgEcRi9oI9GALzlg",
    "name": "IRRILAND",
    "category": "IRRILAND",
    "formatted_address": "4,0(4)",
    "phone_number": "+390522831544",
    "source_url": "https://www.google.com/maps/place/IRRILAND/data=!4m7!3m6!1s0x478024145e0b4747:0x58ce0b60f408da8b!8m2!3d44.891987!4d10.650983!16s%2Fg%2F1tczjb0h!19sChIJR0cLXhQkgEcRi9oI9GALzlg?authuser=0&hl=tr&rclk=1",
    "website_url": "http://www.irriland.it/",
    "rating_text": "4,0",
    "stars": null,
    "number_of_reviews": null,
    "price_level": "",
    "open_hours": "",
    "extraction_timestamp": "2025-06-07T15:54:56.462Z",
    "source_name": "google",
    "source_query": "Irrigation Equipment",
    "source_country": "IT",
    "country": "Italy",
    "state": "Emilia-Romagna",
    "city": "Guastalla"
  }
]
