[
  {
    "source_id": "ChIJD5eUz5NKKxMRiXFKArkq8n8",
    "name": "S.I.G.E.A. di Bittini Vittorio e C. snc - irrigazione, giardinaggio, agricoltura, fontane",
    "category": "S.I.G.E.A. di Bittini Vittorio e C. snc - irrigazione, giardinaggio, agricoltura, fontane",
    "formatted_address": "S.I.G.E.A. di Bittini Vittorio e C. snc - irrigazione, giardinaggio, agricoltura, fontane",
    "phone_number": "+390542642326",
    "source_url": "https://www.google.com/maps/place/S.I.G.E.A.+di+Bittini+Vittorio+e+C.+snc+-+irrigazione,+giardinaggio,+agricoltura,+fontane/data=!4m7!3m6!1s0x132b4a93cf94970f:0x7ff22ab9024a7189!8m2!3d44.3736772!4d11.7277152!16s%2Fg%2F1tdlqxq3!19sChIJD5eUz5NKKxMRiXFKArkq8n8?authuser=0&hl=tr&rclk=1",
    "website_url": "",
    "rating_text": "4,7",
    "stars": null,
    "number_of_reviews": null,
    "price_level": "",
    "open_hours": "",
    "extraction_timestamp": "2025-06-07T16:05:10.452Z",
    "source_name": "google",
    "source_query": "Irrigation Equipment",
    "source_country": "IT",
    "country": "Italy",
    "state": "Emilia-Romagna",
    "city": "Imola"
  },
  {
    "source_id": "ChIJX_hA-jdLKxMRIVTiwkz2Lqc",
    "name": "Romagna Impianti S.R.L.",
    "category": "Romagna Impianti S.R.L.",
    "formatted_address": "4,4(33)",
    "phone_number": "+390542735211",
    "source_url": "https://www.google.com/maps/place/Romagna+Impianti+S.R.L./data=!4m7!3m6!1s0x132b4b37fa40f85f:0xa72ef64cc2e25421!8m2!3d44.3876043!4d11.7444613!16s%2Fg%2F11k8lywqyc!19sChIJX_hA-jdLKxMRIVTiwkz2Lqc?authuser=0&hl=tr&rclk=1",
    "website_url": "https://www.romagnaimpianti.net/",
    "rating_text": "4,4",
    "stars": null,
    "number_of_reviews": null,
    "price_level": "",
    "open_hours": "",
    "extraction_timestamp": "2025-06-07T16:05:10.453Z",
    "source_name": "google",
    "source_query": "Irrigation Equipment",
    "source_country": "IT",
    "country": "Italy",
    "state": "Emilia-Romagna",
    "city": "Imola"
  },
  {
    "source_id": "ChIJJZ6bnCYgfkcRAJlIqmbsRJ0",
    "name": "O.R.M.A. S.r.l.",
    "category": "O.R.M.A. S.r.l.",
    "formatted_address": "4,3(16)",
    "phone_number": "+39054255095",
    "source_url": "https://www.google.com/maps/place/O.R.M.A.+S.r.l./data=!4m7!3m6!1s0x477e20269c9b9e25:0x9d44ec66aa489900!8m2!3d44.4221829!4d11.7101008!16s%2Fg%2F1tjl4rb7!19sChIJJZ6bnCYgfkcRAJlIqmbsRJ0?authuser=0&hl=tr&rclk=1",
    "website_url": "http://www.ormasrl.info/",
    "rating_text": "4,3",
    "stars": null,
    "number_of_reviews": null,
    "price_level": "",
    "open_hours": "",
    "extraction_timestamp": "2025-06-07T16:05:10.455Z",
    "source_name": "google",
    "source_query": "Irrigation Equipment",
    "source_country": "IT",
    "country": "Italy",
    "state": "Emilia-Romagna",
    "city": "Imola"
  },
  {
    "source_id": "ChIJmaLwB5pKKxMR4DMracMVOxM",
    "name": "Agriflor S.N.C. Di Cernera E Garavini",
    "category": "Agriflor S.N.C. Di Cernera E Garavini",
    "formatted_address": "5,0(52)",
    "phone_number": "+39051857296",
    "source_url": "https://www.google.com/maps/place/Agriflor+S.N.C.+Di+Cernera+E+Garavini/data=!4m7!3m6!1s0x132b4a9a07f0a299:0x133b15c3692b33e0!8m2!3d44.3728346!4d11.7180482!16s%2Fg%2F11mbpgfq2b!19sChIJmaLwB5pKKxMR4DMracMVOxM?authuser=0&hl=tr&rclk=1",
    "website_url": "http://www.agriflor.eu/",
    "rating_text": "5,0",
    "stars": null,
    "number_of_reviews": null,
    "price_level": "",
    "open_hours": "",
    "extraction_timestamp": "2025-06-07T16:05:10.456Z",
    "source_name": "google",
    "source_query": "Irrigation Equipment",
    "source_country": "IT",
    "country": "Italy",
    "state": "Emilia-Romagna",
    "city": "Imola"
  },
  {
    "source_id": "ChIJ7eRFVpZKKxMRoa-GB8plGL8",
    "name": "STS SISTEMI - Aria Compressa e Impianti Verniciatura",
    "category": "STS SISTEMI - Aria Compressa e Impianti Verniciatura",
    "formatted_address": "5,0(5)",
    "phone_number": "+390542641113",
    "source_url": "https://www.google.com/maps/place/STS+SISTEMI+-+Aria+Compressa+e+Impianti+Verniciatura/data=!4m7!3m6!1s0x132b4a965645e4ed:0xbf1865ca0786afa1!8m2!3d44.376825!4d11.7211954!16s%2Fg%2F1tl6mfnj!19sChIJ7eRFVpZKKxMRoa-GB8plGL8?authuser=0&hl=tr&rclk=1",
    "website_url": "http://www.stssistemi.it/",
    "rating_text": "5,0",
    "stars": null,
    "number_of_reviews": null,
    "price_level": "",
    "open_hours": "",
    "extraction_timestamp": "2025-06-07T16:05:10.457Z",
    "source_name": "google",
    "source_query": "Irrigation Equipment",
    "source_country": "IT",
    "country": "Italy",
    "state": "Emilia-Romagna",
    "city": "Imola"
  },
  {
    "source_id": "ChIJhZ6VmoA2KxMRihahY_0X8jQ",
    "name": "C.T.A. Benini Srl",
    "category": "C.T.A. Benini Srl",
    "formatted_address": "4,5(31)",
    "phone_number": "+390542690494",
    "source_url": "https://www.google.com/maps/place/C.T.A.+Benini+Srl/data=!4m7!3m6!1s0x132b36809a959e85:0x34f217fd63a1168a!8m2!3d44.3279038!4d11.6655518!16s%2Fg%2F1tfy4mx5!19sChIJhZ6VmoA2KxMRihahY_0X8jQ?authuser=0&hl=tr&rclk=1",
    "website_url": "http://www.depurazioneacquaimola.com/",
    "rating_text": "4,5",
    "stars": null,
    "number_of_reviews": null,
    "price_level": "",
    "open_hours": "",
    "extraction_timestamp": "2025-06-07T16:05:10.459Z",
    "source_name": "google",
    "source_query": "Irrigation Equipment",
    "source_country": "IT",
    "country": "Italy",
    "state": "Emilia-Romagna",
    "city": "Imola"
  },
  {
    "source_id": "ChIJoz6uBiFLKxMRE5cdsr8oCqA",
    "name": "OBI Imola",
    "category": "OBI Imola",
    "formatted_address": "3,9(1.472)",
    "phone_number": "+390542658911",
    "source_url": "https://www.google.com/maps/place/OBI+Imola/data=!4m7!3m6!1s0x132b4b2106ae3ea3:0xa00a28bfb21d9713!8m2!3d44.3437248!4d11.7412579!16s%2Fg%2F1v7hx8nb!19sChIJoz6uBiFLKxMRE5cdsr8oCqA?authuser=0&hl=tr&rclk=1",
    "website_url": "https://www.obi-italia.it/negozio/imola?wt__mc=gp.it003_Imola%E2%80%A6",
    "rating_text": "3,9",
    "stars": null,
    "number_of_reviews": null,
    "price_level": "",
    "open_hours": "",
    "extraction_timestamp": "2025-06-07T16:05:10.461Z",
    "source_name": "google",
    "source_query": "Irrigation Equipment",
    "source_country": "IT",
    "country": "Italy",
    "state": "Emilia-Romagna",
    "city": "Imola"
  },
  {
    "source_id": "ChIJ2XlU0PRKKxMRHTSf4d8SGj4",
    "name": "Idroltec S.a.S.",
    "category": "Idroltec S.a.S.",
    "formatted_address": "4,0(8)",
    "phone_number": "",
    "source_url": "https://www.google.com/maps/place/Idroltec+S.a.S./data=!4m7!3m6!1s0x132b4af4d05479d9:0x3e1a12dfe19f341d!8m2!3d44.3700572!4d11.7234749!16s%2Fg%2F1tf2hn_b!19sChIJ2XlU0PRKKxMRHTSf4d8SGj4?authuser=0&hl=tr&rclk=1",
    "website_url": "http://www.idroltecsrl.com/",
    "rating_text": "4,0",
    "stars": null,
    "number_of_reviews": null,
    "price_level": "",
    "open_hours": "",
    "extraction_timestamp": "2025-06-07T16:05:10.462Z",
    "source_name": "google",
    "source_query": "Irrigation Equipment",
    "source_country": "IT",
    "country": "Italy",
    "state": "Emilia-Romagna",
    "city": "Imola"
  },
  {
    "source_id": "ChIJD5eUz5NKKxMRCh3SVJQpIoQ",
    "name": "Cila Ciicai Magazzino Imola",
    "category": "Cila Ciicai Magazzino Imola",
    "formatted_address": "4,1(18)",
    "phone_number": "+390542643552",
    "source_url": "https://www.google.com/maps/place/Cila+Ciicai+Magazzino+Imola/data=!4m7!3m6!1s0x132b4a93cf94970f:0x8422299454d21d0a!8m2!3d44.3676393!4d11.7215408!16s%2Fg%2F1v_x6phx!19sChIJD5eUz5NKKxMRCh3SVJQpIoQ?authuser=0&hl=tr&rclk=1",
    "website_url": "https://www.cilaciicai.it/",
    "rating_text": "4,1",
    "stars": null,
    "number_of_reviews": null,
    "price_level": "",
    "open_hours": "",
    "extraction_timestamp": "2025-06-07T16:05:10.463Z",
    "source_name": "google",
    "source_query": "Irrigation Equipment",
    "source_country": "IT",
    "country": "Italy",
    "state": "Emilia-Romagna",
    "city": "Imola"
  },
  {
    "source_id": "ChIJ8X264YpKKxMRmndcdzWOJg8",
    "name": "Giacometti Impianti S.R.L.",
    "category": "Giacometti Impianti S.R.L.",
    "formatted_address": "4,2(21)",
    "phone_number": "+390542640992",
    "source_url": "https://www.google.com/maps/place/Giacometti+Impianti+S.R.L./data=!4m7!3m6!1s0x132b4a8ae1ba7df1:0xf268e35775c779a!8m2!3d44.3613967!4d11.7256751!16s%2Fg%2F1tdpj9yp!19sChIJ8X264YpKKxMRmndcdzWOJg8?authuser=0&hl=tr&rclk=1",
    "website_url": "http://www.giacomettiimpianti.it/",
    "rating_text": "4,2",
    "stars": null,
    "number_of_reviews": null,
    "price_level": "",
    "open_hours": "",
    "extraction_timestamp": "2025-06-07T16:05:10.465Z",
    "source_name": "google",
    "source_query": "Irrigation Equipment",
    "source_country": "IT",
    "country": "Italy",
    "state": "Emilia-Romagna",
    "city": "Imola"
  },
  {
    "source_id": "ChIJA4wJJIdKKxMRqTj0snuyXFQ",
    "name": "Eco Solutions Edilizia Eco-sostenibile",
    "category": "Eco Solutions Edilizia Eco-sostenibile",
    "formatted_address": "3,0(2)",
    "phone_number": "+393404739963",
    "source_url": "https://www.google.com/maps/place/Eco+Solutions+Edilizia+Eco-sostenibile/data=!4m7!3m6!1s0x132b4a8724098c03:0x545cb27bb2f438a9!8m2!3d44.3627021!4d11.7138569!16s%2Fg%2F11g69hrr48!19sChIJA4wJJIdKKxMRqTj0snuyXFQ?authuser=0&hl=tr&rclk=1",
    "website_url": "https://ecosolutionsgroup.it/",
    "rating_text": "3,0",
    "stars": null,
    "number_of_reviews": null,
    "price_level": "",
    "open_hours": "",
    "extraction_timestamp": "2025-06-07T16:05:10.466Z",
    "source_name": "google",
    "source_query": "Irrigation Equipment",
    "source_country": "IT",
    "country": "Italy",
    "state": "Emilia-Romagna",
    "city": "Imola"
  },
  {
    "source_id": "ChIJXcmXqoBKKxMRet3xv-aKY-o",
    "name": "Verde & Acqua Giardini e Piscine Bio.design",
    "category": "Verde & Acqua Giardini e Piscine Bio.design",
    "formatted_address": "3,7(20)",
    "phone_number": "+393409083809",
    "source_url": "https://www.google.com/maps/place/Verde+%26+Acqua+Giardini+e+Piscine+Bio.design/data=!4m7!3m6!1s0x132b4a80aa97c95d:0xea638ae6bff1dd7a!8m2!3d44.3654743!4d11.701556!16s%2Fg%2F11b7bslsvv!19sChIJXcmXqoBKKxMRet3xv-aKY-o?authuser=0&hl=tr&rclk=1",
    "website_url": "http://www.verde-acqua.com/",
    "rating_text": "3,7",
    "stars": null,
    "number_of_reviews": null,
    "price_level": "",
    "open_hours": "",
    "extraction_timestamp": "2025-06-07T16:05:10.467Z",
    "source_name": "google",
    "source_query": "Irrigation Equipment",
    "source_country": "IT",
    "country": "Italy",
    "state": "Emilia-Romagna",
    "city": "Imola"
  },
  {
    "source_id": "ChIJ8SfM6mFKKxMRuEA_00oRK38",
    "name": "C.e.m.i. Imola S.r.l.",
    "category": "C.e.m.i. Imola S.r.l.",
    "formatted_address": "4,4(67)",
    "phone_number": "+390542641742",
    "source_url": "https://www.google.com/maps/place/C.e.m.i.+Imola+S.r.l./data=!4m7!3m6!1s0x132b4a61eacc27f1:0x7f2b114ad33f40b8!8m2!3d44.3578297!4d11.7238834!16s%2Fg%2F1tfgrj42!19sChIJ8SfM6mFKKxMRuEA_00oRK38?authuser=0&hl=tr&rclk=1",
    "website_url": "https://cemiimola.wixsite.com/ilmiosito",
    "rating_text": "4,4",
    "stars": null,
    "number_of_reviews": null,
    "price_level": "",
    "open_hours": "",
    "extraction_timestamp": "2025-06-07T16:05:10.468Z",
    "source_name": "google",
    "source_query": "Irrigation Equipment",
    "source_country": "IT",
    "country": "Italy",
    "state": "Emilia-Romagna",
    "city": "Imola"
  },
  {
    "source_id": "ChIJ0ZNyFi01KxMRXCWkESOb4XE",
    "name": "Gruppo Clima",
    "category": "Gruppo Clima",
    "formatted_address": "4,8(268)",
    "phone_number": "+39054244367",
    "source_url": "https://www.google.com/maps/place/Gruppo+Clima/data=!4m7!3m6!1s0x132b352d167293d1:0x71e19b2311a4255c!8m2!3d44.3576737!4d11.7248434!16s%2Fg%2F11mv3j6q4h!19sChIJ0ZNyFi01KxMRXCWkESOb4XE?authuser=0&hl=tr&rclk=1",
    "website_url": "http://www.gruppoclima.it/?utm_source=localsearch&utm_medium=web&utm_campaign=gmb-bo",
    "rating_text": "4,8",
    "stars": null,
    "number_of_reviews": null,
    "price_level": "",
    "open_hours": "",
    "extraction_timestamp": "2025-06-07T16:05:10.469Z",
    "source_name": "google",
    "source_query": "Irrigation Equipment",
    "source_country": "IT",
    "country": "Italy",
    "state": "Emilia-Romagna",
    "city": "Imola"
  },
  {
    "source_id": "ChIJcd9XkgNMKxMRd7Ha9HIF9Ug",
    "name": "Daives Di Guerrini Davide",
    "category": "Daives Di Guerrini Davide",
    "formatted_address": "4,6(81)",
    "phone_number": "+39054233055",
    "source_url": "https://www.google.com/maps/place/Daives+Di+Guerrini+Davide/data=!4m7!3m6!1s0x132b4c039257df71:0x48f50572f4dab177!8m2!3d44.335767!4d11.7599463!16s%2Fg%2F12hp85p0q!19sChIJcd9XkgNMKxMRd7Ha9HIF9Ug?authuser=0&hl=tr&rclk=1",
    "website_url": "http://www.daives.it/",
    "rating_text": "4,6",
    "stars": null,
    "number_of_reviews": null,
    "price_level": "",
    "open_hours": "",
    "extraction_timestamp": "2025-06-07T16:05:10.470Z",
    "source_name": "google",
    "source_query": "Irrigation Equipment",
    "source_country": "IT",
    "country": "Italy",
    "state": "Emilia-Romagna",
    "city": "Imola"
  },
  {
    "source_id": "ChIJ0wckTIdKKxMR65HxTswAEYQ",
    "name": "Cooperativa Ceramica d'Imola",
    "category": "Cooperativa Ceramica d'Imola",
    "formatted_address": "4,4(282)",
    "phone_number": "+390542601501",
    "source_url": "https://www.google.com/maps/place/Cooperativa+Ceramica+d%27Imola/data=!4m7!3m6!1s0x132b4a874c2407d3:0x841100cc4ef191eb!8m2!3d44.3602346!4d11.7129228!16s%2Fg%2F1tf2pglr!19sChIJ0wckTIdKKxMR65HxTswAEYQ?authuser=0&hl=tr&rclk=1",
    "website_url": "https://www.ccimola.com/",
    "rating_text": "4,4",
    "stars": null,
    "number_of_reviews": null,
    "price_level": "",
    "open_hours": "",
    "extraction_timestamp": "2025-06-07T16:05:10.471Z",
    "source_name": "google",
    "source_query": "Irrigation Equipment",
    "source_country": "IT",
    "country": "Italy",
    "state": "Emilia-Romagna",
    "city": "Imola"
  },
  {
    "source_id": "ChIJcVYJyOxKKxMRVqKtxwFBF2E",
    "name": "F.P. SpA Persici Magazzino Imola BO",
    "category": "F.P. SpA Persici Magazzino Imola BO",
    "formatted_address": "4,5(26)",
    "phone_number": "+390542640627",
    "source_url": "https://www.google.com/maps/place/F.P.+SpA+Persici+Magazzino+Imola+BO/data=!4m7!3m6!1s0x132b4aecc8095671:0x61174101c7ada256!8m2!3d44.3601611!4d11.7245072!16s%2Fg%2F11c1q49yk5!19sChIJcVYJyOxKKxMRVqKtxwFBF2E?authuser=0&hl=tr&rclk=1",
    "website_url": "http://www.persici.it/",
    "rating_text": "4,5",
    "stars": null,
    "number_of_reviews": null,
    "price_level": "",
    "open_hours": "",
    "extraction_timestamp": "2025-06-07T16:05:10.472Z",
    "source_name": "google",
    "source_query": "Irrigation Equipment",
    "source_country": "IT",
    "country": "Italy",
    "state": "Emilia-Romagna",
    "city": "Imola"
  },
  {
    "source_id": "ChIJXeoupHlKKxMRicMnt5790_Y",
    "name": "Igienica Di Ceccaroni Ivano",
    "category": "Igienica Di Ceccaroni Ivano",
    "formatted_address": "4,3(18)",
    "phone_number": "+39054224341",
    "source_url": "https://www.google.com/maps/place/Igienica+Di+Ceccaroni+Ivano/data=!4m7!3m6!1s0x132b4a79a42eea5d:0xf6d3fd9eb727c389!8m2!3d44.3528672!4d11.7106833!16s%2Fg%2F1tk69tdh!19sChIJXeoupHlKKxMRicMnt5790_Y?authuser=0&hl=tr&rclk=1",
    "website_url": "",
    "rating_text": "4,3",
    "stars": null,
    "number_of_reviews": null,
    "price_level": "",
    "open_hours": "",
    "extraction_timestamp": "2025-06-07T16:05:10.473Z",
    "source_name": "google",
    "source_query": "Irrigation Equipment",
    "source_country": "IT",
    "country": "Italy",
    "state": "Emilia-Romagna",
    "city": "Imola"
  },
  {
    "source_id": "ChIJaydwl-pKKxMR5sdU8cfE8WY",
    "name": "Fratelli Ballanti Srl",
    "category": "Fratelli Ballanti Srl",
    "formatted_address": "4,3(68)",
    "phone_number": "+390542641181",
    "source_url": "https://www.google.com/maps/place/Fratelli+Ballanti+Srl/data=!4m7!3m6!1s0x132b4aea9770276b:0x66f1c4c7f154c7e6!8m2!3d44.3765929!4d11.7311496!16s%2Fg%2F1vgrctmt!19sChIJaydwl-pKKxMR5sdU8cfE8WY?authuser=0&hl=tr&rclk=1",
    "website_url": "http://www.ballanti.com/",
    "rating_text": "4,3",
    "stars": null,
    "number_of_reviews": null,
    "price_level": "",
    "open_hours": "",
    "extraction_timestamp": "2025-06-07T16:05:10.474Z",
    "source_name": "google",
    "source_query": "Irrigation Equipment",
    "source_country": "IT",
    "country": "Italy",
    "state": "Emilia-Romagna",
    "city": "Imola"
  },
  {
    "source_id": "ChIJd-HcFKBLKxMRi2Md0EjsiN8",
    "name": "ECOIMP S.R.L.S",
    "category": "ECOIMP S.R.L.S",
    "formatted_address": "5,0(1)",
    "phone_number": "+393279804853",
    "source_url": "https://www.google.com/maps/place/ECOIMP+S.R.L.S/data=!4m7!3m6!1s0x132b4ba014dce177:0xdf88ec48d01d638b!8m2!3d44.369799!4d11.745762!16s%2Fg%2F11l325vl3c!19sChIJd-HcFKBLKxMRi2Md0EjsiN8?authuser=0&hl=tr&rclk=1",
    "website_url": "",
    "rating_text": "5,0",
    "stars": null,
    "number_of_reviews": null,
    "price_level": "",
    "open_hours": "",
    "extraction_timestamp": "2025-06-07T16:05:10.475Z",
    "source_name": "google",
    "source_query": "Irrigation Equipment",
    "source_country": "IT",
    "country": "Italy",
    "state": "Emilia-Romagna",
    "city": "Imola"
  },
  {
    "source_id": "ChIJjeYeGZ9LKxMRrTrifSLAhwI",
    "name": "Action Imola",
    "category": "Action Imola",
    "formatted_address": "4,2(229)",
    "phone_number": "",
    "source_url": "https://www.google.com/maps/place/Action+Imola/data=!4m7!3m6!1s0x132b4b9f191ee68d:0x287c0227de23aad!8m2!3d44.3703185!4d11.7274689!16s%2Fg%2F11sjhs4mjg!19sChIJjeYeGZ9LKxMRrTrifSLAhwI?authuser=0&hl=tr&rclk=1",
    "website_url": "https://www.action.com/it-it/negozi/imola/?utm_campaign=localbusiness&utm_source=google&utm_medium=organic&utm_content=D049",
    "rating_text": "4,2",
    "stars": null,
    "number_of_reviews": null,
    "price_level": "",
    "open_hours": "",
    "extraction_timestamp": "2025-06-07T16:05:10.476Z",
    "source_name": "google",
    "source_query": "Irrigation Equipment",
    "source_country": "IT",
    "country": "Italy",
    "state": "Emilia-Romagna",
    "city": "Imola"
  },
  {
    "source_id": "ChIJQyWMfHhKKxMRKhK_3RS55dg",
    "name": "Central Hardware Borriello and Daniele C. Snc",
    "category": "Central Hardware Borriello and Daniele C. Snc",
    "formatted_address": "4,6(412)",
    "phone_number": "+39054227204",
    "source_url": "https://www.google.com/maps/place/Central+Hardware+Borriello+and+Daniele+C.+Snc/data=!4m7!3m6!1s0x132b4a787c8c2543:0xd8e5b914ddbf122a!8m2!3d44.3501976!4d11.7187774!16s%2Fg%2F1trzm5tt!19sChIJQyWMfHhKKxMRKhK_3RS55dg?authuser=0&hl=tr&rclk=1",
    "website_url": "http://www.ferramentacentrale.it/",
    "rating_text": "4,6",
    "stars": null,
    "number_of_reviews": null,
    "price_level": "",
    "open_hours": "",
    "extraction_timestamp": "2025-06-07T16:05:10.476Z",
    "source_name": "google",
    "source_query": "Irrigation Equipment",
    "source_country": "IT",
    "country": "Italy",
    "state": "Emilia-Romagna",
    "city": "Imola"
  },
  {
    "source_id": "ChIJK2YI52FKKxMRxpENKie_rqI",
    "name": "RIGHI ELETTROSERVIZI SPA Imola (BO)",
    "category": "RIGHI ELETTROSERVIZI SPA Imola (BO)",
    "formatted_address": "5,0(3)",
    "phone_number": "+390542640245",
    "source_url": "https://www.google.com/maps/place/RIGHI+ELETTROSERVIZI+SPA+Imola+%28BO%29/data=!4m7!3m6!1s0x132b4a61e708662b:0xa2aebf272a0d91c6!8m2!3d44.3582411!4d11.7251418!16s%2Fg%2F11h0zddpf8!19sChIJK2YI52FKKxMRxpENKie_rqI?authuser=0&hl=tr&rclk=1",
    "website_url": "http://www.seisistemi.net/",
    "rating_text": "5,0",
    "stars": null,
    "number_of_reviews": null,
    "price_level": "",
    "open_hours": "",
    "extraction_timestamp": "2025-06-07T16:05:10.477Z",
    "source_name": "google",
    "source_query": "Irrigation Equipment",
    "source_country": "IT",
    "country": "Italy",
    "state": "Emilia-Romagna",
    "city": "Imola"
  },
  {
    "source_id": "ChIJj7p79zMzKxMRxzB_tpcRXKE",
    "name": "F.lli Farne' Srl",
    "category": "F.lli Farne' Srl",
    "formatted_address": "4,7(97)",
    "phone_number": "+39051941145",
    "source_url": "https://www.google.com/maps/place/F.lli+Farne%27+Srl/data=!4m7!3m6!1s0x132b3333f77bba8f:0xa15c1197b67f30c7!8m2!3d44.4060269!4d11.5874732!16s%2Fg%2F1vx88btc!19sChIJj7p79zMzKxMRxzB_tpcRXKE?authuser=0&hl=tr&rclk=1",
    "website_url": "https://fratellifarnesrl.it/",
    "rating_text": "4,7",
    "stars": null,
    "number_of_reviews": null,
    "price_level": "",
    "open_hours": "",
    "extraction_timestamp": "2025-06-07T16:05:10.478Z",
    "source_name": "google",
    "source_query": "Irrigation Equipment",
    "source_country": "IT",
    "country": "Italy",
    "state": "Emilia-Romagna",
    "city": "Imola"
  },
  {
    "source_id": "ChIJtbNt4fhLKxMRrcnd3s6lOh0",
    "name": "Gruppo Ciicai - magazzino di Imola",
    "category": "Gruppo Ciicai - magazzino di Imola",
    "formatted_address": "4,1(8)",
    "phone_number": "+390542641311",
    "source_url": "https://www.google.com/maps/place/Gruppo+Ciicai+-+magazzino+di+Imola/data=!4m7!3m6!1s0x132b4bf8e16db3b5:0x1d3aa5cededdc9ad!8m2!3d44.3645063!4d11.7233934!16s%2Fg%2F11g4bm0wlr!19sChIJtbNt4fhLKxMRrcnd3s6lOh0?authuser=0&hl=tr&rclk=1",
    "website_url": "https://www.ciicai.com/magazzini/imola?utm_source=google&utm_medium=gmb&utm_campaign=m_imola",
    "rating_text": "4,1",
    "stars": null,
    "number_of_reviews": null,
    "price_level": "",
    "open_hours": "",
    "extraction_timestamp": "2025-06-07T16:05:10.480Z",
    "source_name": "google",
    "source_query": "Irrigation Equipment",
    "source_country": "IT",
    "country": "Italy",
    "state": "Emilia-Romagna",
    "city": "Imola"
  },
  {
    "source_id": "ChIJIbHqatdLKxMRBOsoYOoKmQ0",
    "name": "Benfatto Srls di Andrea Vezzani - Manutenzioni e Riparazioni Domestiche",
    "category": "Benfatto Srls di Andrea Vezzani - Manutenzioni e Riparazioni Domestiche",
    "formatted_address": "5,0(22)",
    "phone_number": "+393371293210",
    "source_url": "https://www.google.com/maps/place/Benfatto+Srls+di+Andrea+Vezzani+-+Manutenzioni+e+Riparazioni+Domestiche/data=!4m7!3m6!1s0x132b4bd76aeab121:0xd990aea6028eb04!8m2!3d44.3524577!4d11.7265266!16s%2Fg%2F11lty3zfpz!19sChIJIbHqatdLKxMRBOsoYOoKmQ0?authuser=0&hl=tr&rclk=1",
    "website_url": "",
    "rating_text": "5,0",
    "stars": null,
    "number_of_reviews": null,
    "price_level": "",
    "open_hours": "",
    "extraction_timestamp": "2025-06-07T16:05:10.481Z",
    "source_name": "google",
    "source_query": "Irrigation Equipment",
    "source_country": "IT",
    "country": "Italy",
    "state": "Emilia-Romagna",
    "city": "Imola"
  },
  {
    "source_id": "ChIJl2iTVJ1KKxMRrZfnlc50iS8",
    "name": "Gollini",
    "category": "Gollini",
    "formatted_address": "4,6(35)",
    "phone_number": "+39054240388",
    "source_url": "https://www.google.com/maps/place/Gollini/data=!4m7!3m6!1s0x132b4a9d54936897:0x2f8974ce95e797ad!8m2!3d44.3690315!4d11.7062099!16s%2Fg%2F1hc3lz34w!19sChIJl2iTVJ1KKxMRrZfnlc50iS8?authuser=0&hl=tr&rclk=1",
    "website_url": "https://www.gollinisrl.it/",
    "rating_text": "4,6",
    "stars": null,
    "number_of_reviews": null,
    "price_level": "",
    "open_hours": "",
    "extraction_timestamp": "2025-06-07T16:05:10.482Z",
    "source_name": "google",
    "source_query": "Irrigation Equipment",
    "source_country": "IT",
    "country": "Italy",
    "state": "Emilia-Romagna",
    "city": "Imola"
  },
  {
    "source_id": "ChIJJeMKMXpKKxMRR4d6DufrFL0",
    "name": "Ferramenta Imolese Di Ronchi Mirco E C. Snc",
    "category": "Ferramenta Imolese Di Ronchi Mirco E C. Snc",
    "formatted_address": "4,8(99)",
    "phone_number": "+39054223218",
    "source_url": "https://www.google.com/maps/place/Ferramenta+Imolese+Di+Ronchi+Mirco+E+C.+Snc/data=!4m7!3m6!1s0x132b4a7a310ae325:0xbd14ebe70e7a8747!8m2!3d44.3523988!4d11.7134506!16s%2Fg%2F1tcynsgz!19sChIJJeMKMXpKKxMRR4d6DufrFL0?authuser=0&hl=tr&rclk=1",
    "website_url": "",
    "rating_text": "4,8",
    "stars": null,
    "number_of_reviews": null,
    "price_level": "",
    "open_hours": "",
    "extraction_timestamp": "2025-06-07T16:05:10.483Z",
    "source_name": "google",
    "source_query": "Irrigation Equipment",
    "source_country": "IT",
    "country": "Italy",
    "state": "Emilia-Romagna",
    "city": "Imola"
  },
  {
    "source_id": "ChIJC47e82VKKxMR-9_E8bOk1Ig",
    "name": "Marangoni s.r.l.",
    "category": "Marangoni s.r.l.",
    "formatted_address": "4,4(368)",
    "phone_number": "+39054223009",
    "source_url": "https://www.google.com/maps/place/Marangoni+s.r.l./data=!4m7!3m6!1s0x132b4a65f3de8e0b:0x88d4a4b3f1c4dffb!8m2!3d44.3497736!4d11.7227546!16s%2Fg%2F11bxlh10c8!19sChIJC47e82VKKxMR-9_E8bOk1Ig?authuser=0&hl=tr&rclk=1",
    "website_url": "http://www.marangonisrl.com/",
    "rating_text": "4,4",
    "stars": null,
    "number_of_reviews": null,
    "price_level": "",
    "open_hours": "",
    "extraction_timestamp": "2025-06-07T16:05:10.484Z",
    "source_name": "google",
    "source_query": "Irrigation Equipment",
    "source_country": "IT",
    "country": "Italy",
    "state": "Emilia-Romagna",
    "city": "Imola"
  },
  {
    "source_id": "ChIJffxWGHpKKxMRQ3nVqKjM2Jg",
    "name": "Sportime s.n.c.",
    "category": "Sportime s.n.c.",
    "formatted_address": "4,6(115)",
    "phone_number": "+39054232486",
    "source_url": "https://www.google.com/maps/place/Sportime+s.n.c./data=!4m7!3m6!1s0x132b4a7a1856fc7d:0x98d8cca8a8d57943!8m2!3d44.3523251!4d11.7112909!16s%2Fg%2F1tp6lqxy!19sChIJffxWGHpKKxMRQ3nVqKjM2Jg?authuser=0&hl=tr&rclk=1",
    "website_url": "http://www.sportimeimola.it/",
    "rating_text": "4,6",
    "stars": null,
    "number_of_reviews": null,
    "price_level": "",
    "open_hours": "",
    "extraction_timestamp": "2025-06-07T16:05:10.485Z",
    "source_name": "google",
    "source_query": "Irrigation Equipment",
    "source_country": "IT",
    "country": "Italy",
    "state": "Emilia-Romagna",
    "city": "Imola"
  },
  {
    "source_id": "ChIJ26SKmIJKKxMRzRco2QjGIM4",
    "name": "Cambielli S.p.A.",
    "category": "Cambielli S.p.A.",
    "formatted_address": "4,0(11)",
    "phone_number": "+390542627565",
    "source_url": "https://www.google.com/maps/place/Cambielli+S.p.A./data=!4m7!3m6!1s0x132b4a82988aa4db:0xce20c608d92817cd!8m2!3d44.3696918!4d11.7077977!16s%2Fg%2F1tg2gmbv!19sChIJ26SKmIJKKxMRzRco2QjGIM4?authuser=0&hl=tr&rclk=1",
    "website_url": "https://www.cambielli.it/",
    "rating_text": "4,0",
    "stars": null,
    "number_of_reviews": null,
    "price_level": "",
    "open_hours": "",
    "extraction_timestamp": "2025-06-07T16:05:10.486Z",
    "source_name": "google",
    "source_query": "Irrigation Equipment",
    "source_country": "IT",
    "country": "Italy",
    "state": "Emilia-Romagna",
    "city": "Imola"
  },
  {
    "source_id": "ChIJF4jfI59xjg8RG6gdKM0hdeY",
    "name": "De Falco Impianti",
    "category": "De Falco Impianti",
    "formatted_address": "4,9(27)",
    "phone_number": "+393497347994",
    "source_url": "https://www.google.com/maps/place/De+Falco+Impianti/data=!4m7!3m6!1s0xf8e719f23df8817:0xe67521cd281da81b!8m2!3d44.424989!4d11.7551346!16s%2Fg%2F11y1t0g68s!19sChIJF4jfI59xjg8RG6gdKM0hdeY?authuser=0&hl=tr&rclk=1",
    "website_url": "https://www.facebook.com/profile.php?id=100095676095624",
    "rating_text": "4,9",
    "stars": null,
    "number_of_reviews": null,
    "price_level": "",
    "open_hours": "",
    "extraction_timestamp": "2025-06-07T16:05:10.487Z",
    "source_name": "google",
    "source_query": "Irrigation Equipment",
    "source_country": "IT",
    "country": "Italy",
    "state": "Emilia-Romagna",
    "city": "Imola"
  }
]
