[
  {
    "source_id": "ChIJtVDkNgRFgEcRqc6umwWIJuI",
    "name": "Rm Spa",
    "category": "Rm Spa",
    "formatted_address": "4,6(81)",
    "phone_number": "+390521872321",
    "source_url": "https://www.google.com/maps/place/Rm+Spa/data=!4m7!3m6!1s0x4780450436e450b5:0xe22688059baecea9!8m2!3d44.9105406!4d10.2583785!16s%2Fg%2F12hl93byl!19sChIJtVDkNgRFgEcRqc6umwWIJuI?authuser=0&hl=tr&rclk=1",
    "website_url": "http://www.rmirrigation.com/",
    "rating_text": "4,6",
    "stars": null,
    "number_of_reviews": null,
    "price_level": "",
    "open_hours": "",
    "extraction_timestamp": "2025-06-07T16:20:04.050Z",
    "source_name": "google",
    "source_query": "Irrigation Equipment",
    "source_country": "IT",
    "country": "Italy",
    "state": "Emilia-Romagna",
    "city": "Langhirano"
  },
  {
    "source_id": "ChIJUei1pEFzgEcRQXziEy6eefc",
    "name": "Idrosystem",
    "category": "Idrosystem",
    "formatted_address": "5,0(5)",
    "phone_number": "+393206930681",
    "source_url": "https://www.google.com/maps/place/Idrosystem/data=!4m7!3m6!1s0x47807341a4b5e851:0xf7799e2e13e27c41!8m2!3d44.6251292!4d10.2741241!16s%2Fg%2F11byl2cggm!19sChIJUei1pEFzgEcRQXziEy6eefc?authuser=0&hl=tr&rclk=1",
    "website_url": "http://www.idrosystemparma.com/",
    "rating_text": "5,0",
    "stars": null,
    "number_of_reviews": null,
    "price_level": "",
    "open_hours": "",
    "extraction_timestamp": "2025-06-07T16:20:04.050Z",
    "source_name": "google",
    "source_query": "Irrigation Equipment",
    "source_country": "IT",
    "country": "Italy",
    "state": "Emilia-Romagna",
    "city": "Langhirano"
  },
  {
    "source_id": "ChIJxz6KOFtzgEcRnGc2jUL30hs",
    "name": "DELTACLIMA",
    "category": "DELTACLIMA",
    "formatted_address": "3,7(22)",
    "phone_number": "+390521861295",
    "source_url": "https://www.google.com/maps/place/DELTACLIMA/data=!4m7!3m6!1s0x4780735b388a3ec7:0x1bd2f7428d36679c!8m2!3d44.6195187!4d10.2736723!16s%2Fg%2F1tdmjb56!19sChIJxz6KOFtzgEcRnGc2jUL30hs?authuser=0&hl=tr&rclk=1",
    "website_url": "http://deltaclimasas.it/",
    "rating_text": "3,7",
    "stars": null,
    "number_of_reviews": null,
    "price_level": "",
    "open_hours": "",
    "extraction_timestamp": "2025-06-07T16:20:04.050Z",
    "source_name": "google",
    "source_query": "Irrigation Equipment",
    "source_country": "IT",
    "country": "Italy",
    "state": "Emilia-Romagna",
    "city": "Langhirano"
  },
  {
    "source_id": "ChIJyVy8DT5zgEcRiaEF4b1O-KQ",
    "name": "Agrizoo (S.R.L.)",
    "category": "Agrizoo (S.R.L.)",
    "formatted_address": "4,7(190)",
    "phone_number": "+390521861424",
    "source_url": "https://www.google.com/maps/place/Agrizoo+%28S.R.L.%29/data=!4m7!3m6!1s0x4780733e0dbc5cc9:0xa4f84ebde105a189!8m2!3d44.6350488!4d10.2730899!16s%2Fg%2F1hbpwqfr_!19sChIJyVy8DT5zgEcRiaEF4b1O-KQ?authuser=0&hl=tr&rclk=1",
    "website_url": "",
    "rating_text": "4,7",
    "stars": null,
    "number_of_reviews": null,
    "price_level": "",
    "open_hours": "",
    "extraction_timestamp": "2025-06-07T16:20:04.051Z",
    "source_name": "google",
    "source_query": "Irrigation Equipment",
    "source_country": "IT",
    "country": "Italy",
    "state": "Emilia-Romagna",
    "city": "Langhirano"
  },
  {
    "source_id": "ChIJTyLcgKB0gEcRzNFMTml_094",
    "name": "RF Forniture s.r.l. (Ravasini Ferramenta)",
    "category": "RF Forniture s.r.l. (Ravasini Ferramenta)",
    "formatted_address": "4,6(187)",
    "phone_number": "+390521857103",
    "source_url": "https://www.google.com/maps/place/RF+Forniture+s.r.l.+%28Ravasini+Ferramenta%29/data=!4m7!3m6!1s0x478074a080dc224f:0xded37f694e4cd1cc!8m2!3d44.6113128!4d10.2665004!16s%2Fg%2F1tfg1ynx!19sChIJTyLcgKB0gEcRzNFMTml_094?authuser=0&hl=tr&rclk=1",
    "website_url": "https://rfforniture.com/",
    "rating_text": "4,6",
    "stars": null,
    "number_of_reviews": null,
    "price_level": "",
    "open_hours": "",
    "extraction_timestamp": "2025-06-07T16:20:04.062Z",
    "source_name": "google",
    "source_query": "Irrigation Equipment",
    "source_country": "IT",
    "country": "Italy",
    "state": "Emilia-Romagna",
    "city": "Langhirano"
  },
  {
    "source_id": "ChIJYcuWEZp0gEcR38Mx1wFaF0E",
    "name": "Breschi Impianti Srl",
    "category": "Breschi Impianti Srl",
    "formatted_address": "3,7(12)",
    "phone_number": "+390521857286",
    "source_url": "https://www.google.com/maps/place/Breschi+Impianti+Srl/data=!4m7!3m6!1s0x4780749a1196cb61:0x41175a01d731c3df!8m2!3d44.6051989!4d10.2549331!16s%2Fg%2F12hmfs46n!19sChIJYcuWEZp0gEcR38Mx1wFaF0E?authuser=0&hl=tr&rclk=1",
    "website_url": "",
    "rating_text": "3,7",
    "stars": null,
    "number_of_reviews": null,
    "price_level": "",
    "open_hours": "",
    "extraction_timestamp": "2025-06-07T16:20:04.063Z",
    "source_name": "google",
    "source_query": "Irrigation Equipment",
    "source_country": "IT",
    "country": "Italy",
    "state": "Emilia-Romagna",
    "city": "Langhirano"
  }
]
