[
  {
    "source_id": "ChIJf64CGZEZfkcRzc63XU2dLZg",
    "name": "Tecnoagri Srl Di Malpassi Graziano",
    "category": "Tecnoagri Srl Di Malpassi Graziano",
    "formatted_address": "4,9(20)",
    "phone_number": "+39054585023",
    "source_url": "https://www.google.com/maps/place/Tecnoagri+Srl+Di+Malpassi+Graziano/data=!4m7!3m6!1s0x477e19911902ae7f:0x982d9d4d5db7cecd!8m2!3d44.5087519!4d11.8326322!16s%2Fg%2F1vkxl2xx!19sChIJf64CGZEZfkcRzc63XU2dLZg?authuser=0&hl=tr&rclk=1",
    "website_url": "https://www.tecnoagri.it/",
    "rating_text": "4,9",
    "stars": null,
    "number_of_reviews": null,
    "price_level": "",
    "open_hours": "",
    "extraction_timestamp": "2025-06-07T16:04:51.735Z",
    "source_name": "google",
    "source_query": "Irrigation Equipment",
    "source_country": "IT",
    "country": "Italy",
    "state": "Emilia-Romagna",
    "city": "Lavezzola"
  },
  {
    "source_id": "ChIJRbg0mdcQfkcRVJjz9zklgHQ",
    "name": "Plastekno",
    "category": "Plastekno",
    "formatted_address": "4,1(8)",
    "phone_number": "+39054586260",
    "source_url": "https://www.google.com/maps/place/Plastekno/data=!4m7!3m6!1s0x477e10d79934b845:0x74802539f7f39854!8m2!3d44.564981!4d11.8827946!16s%2Fg%2F1hc33f49b!19sChIJRbg0mdcQfkcRVJjz9zklgHQ?authuser=0&hl=tr&rclk=1",
    "website_url": "http://www.plastekno.it/",
    "rating_text": "4,1",
    "stars": null,
    "number_of_reviews": null,
    "price_level": "",
    "open_hours": "",
    "extraction_timestamp": "2025-06-07T16:04:51.735Z",
    "source_name": "google",
    "source_query": "Irrigation Equipment",
    "source_country": "IT",
    "country": "Italy",
    "state": "Emilia-Romagna",
    "city": "Lavezzola"
  },
  {
    "source_id": "ChIJz-A054MRfkcRSBqAb6cjQxE",
    "name": "Salvaclima installazione e manutenzione caldaie e climatizzatori Termotek, Motan e Italtherm",
    "category": "Salvaclima installazione e manutenzione caldaie e climatizzatori Termotek, Motan e Italtherm",
    "formatted_address": "Salvaclima installazione e manutenzione caldaie e climatizzatori Termotek, Motan e Italtherm",
    "phone_number": "+393473257469",
    "source_url": "https://www.google.com/maps/place/Salvaclima+installazione+e+manutenzione+caldaie+e+climatizzatori+Termotek,+Motan+e+Italtherm/data=!4m7!3m6!1s0x477e1183e734e0cf:0x114323a76f801a48!8m2!3d44.412342!4d12.2005092!16s%2Fg%2F11k0_z9h44!19sChIJz-A054MRfkcRSBqAb6cjQxE?authuser=0&hl=tr&rclk=1",
    "website_url": "https://salvaclima.net/",
    "rating_text": "2,3",
    "stars": null,
    "number_of_reviews": null,
    "price_level": "",
    "open_hours": "",
    "extraction_timestamp": "2025-06-07T16:04:51.735Z",
    "source_name": "google",
    "source_query": "Irrigation Equipment",
    "source_country": "IT",
    "country": "Italy",
    "state": "Emilia-Romagna",
    "city": "Lavezzola"
  },
  {
    "source_id": "ChIJQ8fJol1SKxMRShirn3slxH4",
    "name": "Tecnir",
    "category": "Tecnir",
    "formatted_address": "4,4(17)",
    "phone_number": "+390546641026",
    "source_url": "https://www.google.com/maps/place/Tecnir/data=!4m7!3m6!1s0x132b525da2c9c743:0x7ec4257b9fab184a!8m2!3d44.363732!4d11.935557!16s%2Fg%2F1vfps_3m!19sChIJQ8fJol1SKxMRShirn3slxH4?authuser=0&hl=tr&rclk=1",
    "website_url": "https://www.tecnirirrigazione.it/",
    "rating_text": "4,4",
    "stars": null,
    "number_of_reviews": null,
    "price_level": "",
    "open_hours": "",
    "extraction_timestamp": "2025-06-07T16:04:51.736Z",
    "source_name": "google",
    "source_query": "Irrigation Equipment",
    "source_country": "IT",
    "country": "Italy",
    "state": "Emilia-Romagna",
    "city": "Lavezzola"
  },
  {
    "source_id": "ChIJAeXJMdEQfkcRj0co1tBBaFk",
    "name": "Ferramenta Annalisa",
    "category": "Ferramenta Annalisa",
    "formatted_address": "4,3(19)",
    "phone_number": "+39054586315",
    "source_url": "https://www.google.com/maps/place/Ferramenta+Annalisa/data=!4m7!3m6!1s0x477e10d131c9e501:0x596841d0d628478f!8m2!3d44.5593527!4d11.8762445!16s%2Fg%2F1tm67s29!19sChIJAeXJMdEQfkcRj0co1tBBaFk?authuser=0&hl=tr&rclk=1",
    "website_url": "",
    "rating_text": "4,3",
    "stars": null,
    "number_of_reviews": null,
    "price_level": "",
    "open_hours": "",
    "extraction_timestamp": "2025-06-07T16:04:51.736Z",
    "source_name": "google",
    "source_query": "Irrigation Equipment",
    "source_country": "IT",
    "country": "Italy",
    "state": "Emilia-Romagna",
    "city": "Lavezzola"
  }
]
