[
  {
    "source_id": "ChIJtVDkNgRFgEcRqc6umwWIJuI",
    "name": "Rm Spa",
    "category": "Rm Spa",
    "formatted_address": "4,6(81)",
    "phone_number": "+390521872321",
    "source_url": "https://www.google.com/maps/place/Rm+Spa/data=!4m7!3m6!1s0x4780450436e450b5:0xe22688059baecea9!8m2!3d44.9105406!4d10.2583785!16s%2Fg%2F12hl93byl!19sChIJtVDkNgRFgEcRqc6umwWIJuI?authuser=0&hl=tr&rclk=1",
    "website_url": "http://www.rmirrigation.com/",
    "rating_text": "4,6",
    "stars": null,
    "number_of_reviews": null,
    "price_level": "",
    "open_hours": "",
    "extraction_timestamp": "2025-06-07T16:03:12.762Z",
    "source_name": "google",
    "source_query": "Irrigation Equipment",
    "source_country": "IT",
    "country": "Italy",
    "state": "Emilia-Romagna",
    "city": "Lentigione-Sorbolo a Mane"
  },
  {
    "source_id": "ChIJ8S_H450fgEcRen1BwvkupIc",
    "name": "Agro-system Snc di Bassoli - Piscine e Macchine giardino - Reggio Emilia",
    "category": "Agro-system Snc di Bassoli - Piscine e Macchine giardino - Reggio Emilia",
    "formatted_address": "4,6(88)",
    "phone_number": "+390522954100",
    "source_url": "https://www.google.com/maps/place/Agro-system+Snc+di+Bassoli+-+Piscine+e+Macchine+giardino+-+Reggio+Emilia/data=!4m7!3m6!1s0x47801f9de3c72ff1:0x87a42ef9c2417d7a!8m2!3d44.797091!4d10.686568!16s%2Fg%2F1tfb5f45!19sChIJ8S_H450fgEcRen1BwvkupIc?authuser=0&hl=tr&rclk=1",
    "website_url": "https://agrosystem.info/",
    "rating_text": "4,6",
    "stars": null,
    "number_of_reviews": null,
    "price_level": "",
    "open_hours": "",
    "extraction_timestamp": "2025-06-07T16:03:12.762Z",
    "source_name": "google",
    "source_query": "Irrigation Equipment",
    "source_country": "IT",
    "country": "Italy",
    "state": "Emilia-Romagna",
    "city": "Lentigione-Sorbolo a Mane"
  },
  {
    "source_id": "ChIJj8nUhj4kgEcRy8HJk69hn04",
    "name": "Euroclamp S.R.L.",
    "category": "Euroclamp S.R.L.",
    "formatted_address": "4,2(39)",
    "phone_number": "+390522832081",
    "source_url": "https://www.google.com/maps/place/Euroclamp+S.R.L./data=!4m7!3m6!1s0x4780243e86d4c98f:0x4e9f61af93c9c1cb!8m2!3d44.8993434!4d10.654448!16s%2Fg%2F1tdrd6nd!19sChIJj8nUhj4kgEcRy8HJk69hn04?authuser=0&hl=tr&rclk=1",
    "website_url": "http://euroclampsrl.com/",
    "rating_text": "4,2",
    "stars": null,
    "number_of_reviews": null,
    "price_level": "",
    "open_hours": "",
    "extraction_timestamp": "2025-06-07T16:03:12.763Z",
    "source_name": "google",
    "source_query": "Irrigation Equipment",
    "source_country": "IT",
    "country": "Italy",
    "state": "Emilia-Romagna",
    "city": "Lentigione-Sorbolo a Mane"
  },
  {
    "source_id": "ChIJIxW1Lnc-gEcRumb63ek6BJw",
    "name": "Levante Bike",
    "category": "Levante Bike",
    "formatted_address": "4,7(154)",
    "phone_number": "+390522680407",
    "source_url": "https://www.google.com/maps/place/Levante+Bike/data=!4m7!3m6!1s0x47803e772eb51523:0x9c043ae9ddfa66ba!8m2!3d44.8441796!4d10.4563236!16s%2Fg%2F1ptyzwxxs!19sChIJIxW1Lnc-gEcRumb63ek6BJw?authuser=0&hl=tr&rclk=1",
    "website_url": "",
    "rating_text": "4,7",
    "stars": null,
    "number_of_reviews": null,
    "price_level": "",
    "open_hours": "",
    "extraction_timestamp": "2025-06-07T16:03:12.763Z",
    "source_name": "google",
    "source_query": "Irrigation Equipment",
    "source_country": "IT",
    "country": "Italy",
    "state": "Emilia-Romagna",
    "city": "Lentigione-Sorbolo a Mane"
  },
  {
    "source_id": "ChIJy805WcDcgEcRtmGWlwosXQc",
    "name": "IRRIMEC SRL",
    "category": "IRRIMEC SRL",
    "formatted_address": "4,5(90)",
    "phone_number": "+390523760441",
    "source_url": "https://www.google.com/maps/place/IRRIMEC+SRL/data=!4m7!3m6!1s0x4780dcc05939cdcb:0x75d2c0a979661b6!8m2!3d45.0612353!4d9.630829!16s%2Fg%2F1tdgt7d_!19sChIJy805WcDcgEcRtmGWlwosXQc?authuser=0&hl=tr&rclk=1",
    "website_url": "http://www.irrimec.com/",
    "rating_text": "4,5",
    "stars": null,
    "number_of_reviews": null,
    "price_level": "",
    "open_hours": "",
    "extraction_timestamp": "2025-06-07T16:03:12.764Z",
    "source_name": "google",
    "source_query": "Irrigation Equipment",
    "source_country": "IT",
    "country": "Italy",
    "state": "Emilia-Romagna",
    "city": "Lentigione-Sorbolo a Mane"
  },
  {
    "source_id": "ChIJtzLXV34mgEcR9sDfnfgzOxg",
    "name": "Sime Idromeccanica S.R.L.",
    "category": "Sime Idromeccanica S.R.L.",
    "formatted_address": "4,8(22)",
    "phone_number": "+390522824724",
    "source_url": "https://www.google.com/maps/place/Sime+Idromeccanica+S.R.L./data=!4m7!3m6!1s0x4780267e57d732b7:0x183b33f89ddfc0f6!8m2!3d44.8931121!4d10.6571392!16s%2Fg%2F1tx1s13m!19sChIJtzLXV34mgEcR9sDfnfgzOxg?authuser=0&hl=tr&rclk=1",
    "website_url": "",
    "rating_text": "4,8",
    "stars": null,
    "number_of_reviews": null,
    "price_level": "",
    "open_hours": "",
    "extraction_timestamp": "2025-06-07T16:03:12.764Z",
    "source_name": "google",
    "source_query": "Irrigation Equipment",
    "source_country": "IT",
    "country": "Italy",
    "state": "Emilia-Romagna",
    "city": "Lentigione-Sorbolo a Mane"
  },
  {
    "source_id": "ChIJISlyN8fVfkcRP1ghb3uyg-o",
    "name": "Import Irrigation Systems S.R.L.",
    "category": "Import Irrigation Systems S.R.L.",
    "formatted_address": "Üretici ·  · Via Salvo d'Acquisto, 5Kapalı ⋅ Açılış zamanı: Pzt 08:30 · +39 049 559 1020",
    "phone_number": "+390495591020",
    "source_url": "https://www.google.com/maps/place/Import+Irrigation+Systems+S.R.L./data=!4m7!3m6!1s0x477ed5c737722921:0xea83b27b6f21583f!8m2!3d45.5362842!4d11.825368!16s%2Fg%2F1tsjchn3!19sChIJISlyN8fVfkcRP1ghb3uyg-o?authuser=0&hl=tr&rclk=1",
    "website_url": "http://www.importirrigation.com/",
    "rating_text": "",
    "stars": null,
    "number_of_reviews": null,
    "price_level": "",
    "open_hours": "",
    "extraction_timestamp": "2025-06-07T16:03:12.764Z",
    "source_name": "google",
    "source_query": "Irrigation Equipment",
    "source_country": "IT",
    "country": "Italy",
    "state": "Emilia-Romagna",
    "city": "Lentigione-Sorbolo a Mane"
  },
  {
    "source_id": "ChIJJ6V6lMDgf0cR1SpFsfjDuHg",
    "name": "Ocmis Irrigazione Spa",
    "category": "Ocmis Irrigazione Spa",
    "formatted_address": "3,5(31)",
    "phone_number": "+39059702150",
    "source_url": "https://www.google.com/maps/place/Ocmis+Irrigazione+Spa/data=!4m7!3m6!1s0x477fe0c0947aa527:0x78b8c3f8b1452ad5!8m2!3d44.530494!4d10.9794578!16s%2Fg%2F1vd3tn19!19sChIJJ6V6lMDgf0cR1SpFsfjDuHg?authuser=0&hl=tr&rclk=1",
    "website_url": "http://www.ocmis-irrigazione.it/",
    "rating_text": "3,5",
    "stars": null,
    "number_of_reviews": null,
    "price_level": "",
    "open_hours": "",
    "extraction_timestamp": "2025-06-07T16:03:12.765Z",
    "source_name": "google",
    "source_query": "Irrigation Equipment",
    "source_country": "IT",
    "country": "Italy",
    "state": "Emilia-Romagna",
    "city": "Lentigione-Sorbolo a Mane"
  },
  {
    "source_id": "ChIJKcG934w_gEcRzvyG5SIHj78",
    "name": "Erboristeria Anima Verde",
    "category": "Erboristeria Anima Verde",
    "formatted_address": "5,0(9)",
    "phone_number": "+390522680107",
    "source_url": "https://www.google.com/maps/place/Erboristeria+Anima+Verde/data=!4m7!3m6!1s0x47803f8cdfbdc129:0xbf8f0722e586fcce!8m2!3d44.8455789!4d10.4602759!16s%2Fg%2F11ghjrty6q!19sChIJKcG934w_gEcRzvyG5SIHj78?authuser=0&hl=tr&rclk=1",
    "website_url": "",
    "rating_text": "5,0",
    "stars": null,
    "number_of_reviews": null,
    "price_level": "",
    "open_hours": "",
    "extraction_timestamp": "2025-06-07T16:03:12.765Z",
    "source_name": "google",
    "source_query": "Irrigation Equipment",
    "source_country": "IT",
    "country": "Italy",
    "state": "Emilia-Romagna",
    "city": "Lentigione-Sorbolo a Mane"
  },
  {
    "source_id": "ChIJ47vrYT09gEcRh8jIUNjKoyQ",
    "name": "Rainbow Irrigazione Srl",
    "category": "Rainbow Irrigazione Srl",
    "formatted_address": "Tarım Makineleri İmalatçısı ·  · Via Grande, 69+39 0522 969903",
    "phone_number": "+390522969903",
    "source_url": "https://www.google.com/maps/place/Rainbow+Irrigazione+Srl/data=!4m7!3m6!1s0x47803d3d61ebbbe3:0x24a3cad850c8c887!8m2!3d44.8592119!4d10.5548889!16s%2Fg%2F11n8tt08yf!19sChIJ47vrYT09gEcRh8jIUNjKoyQ?authuser=0&hl=tr&rclk=1",
    "website_url": "",
    "rating_text": "",
    "stars": null,
    "number_of_reviews": null,
    "price_level": "",
    "open_hours": "",
    "extraction_timestamp": "2025-06-07T16:03:12.765Z",
    "source_name": "google",
    "source_query": "Irrigation Equipment",
    "source_country": "IT",
    "country": "Italy",
    "state": "Emilia-Romagna",
    "city": "Lentigione-Sorbolo a Mane"
  }
]
