[
  {
    "source_id": "ChIJD3IWyIPYfUcROFZW_I7qKcA",
    "name": "Trasforini Massimo E Eros",
    "category": "Trasforini Massimo E Eros",
    "formatted_address": "5,0(3)",
    "phone_number": "+393392371776",
    "source_url": "https://www.google.com/maps/place/Trasforini+Massimo+E+Eros/data=!4m7!3m6!1s0x477dd883c816720f:0xc029ea8efc565638!8m2!3d44.662402!4d12.2335346!16s%2Fg%2F1ptwr5xf5!19sChIJD3IWyIPYfUcROFZW_I7qKcA?authuser=0&hl=tr&rclk=1",
    "website_url": "",
    "rating_text": "5,0",
    "stars": null,
    "number_of_reviews": null,
    "price_level": "",
    "open_hours": "",
    "extraction_timestamp": "2025-06-07T16:56:43.026Z",
    "source_name": "google",
    "source_query": "Irrigation Equipment",
    "source_country": "IT",
    "country": "Italy",
    "state": "Emilia-Romagna",
    "city": "Lido degli Estensi"
  },
  {
    "source_id": "ChIJeWmY9LLYfUcRw3slqbbc3lQ",
    "name": "multiservizi r 2",
    "category": "multiservizi r 2",
    "formatted_address": "4,9(102)",
    "phone_number": "+393334396631",
    "source_url": "https://www.google.com/maps/place/multiservizi+r+2/data=!4m7!3m6!1s0x477dd8b2f4986979:0x54dedcb6a9257bc3!8m2!3d44.7662544!4d11.8164255!16s%2Fg%2F11b5vs07tk!19sChIJeWmY9LLYfUcRw3slqbbc3lQ?authuser=0&hl=tr&rclk=1",
    "website_url": "",
    "rating_text": "4,9",
    "stars": null,
    "number_of_reviews": null,
    "price_level": "",
    "open_hours": "",
    "extraction_timestamp": "2025-06-07T16:56:43.029Z",
    "source_name": "google",
    "source_query": "Irrigation Equipment",
    "source_country": "IT",
    "country": "Italy",
    "state": "Emilia-Romagna",
    "city": "Lido degli Estensi"
  },
  {
    "source_id": "ChIJ_X7t8A52fkcRG-tf8sDCapQ",
    "name": "Agristore Olea Comacchio Srl",
    "category": "Agristore Olea Comacchio Srl",
    "formatted_address": "4,2(22)",
    "phone_number": "+390533380467",
    "source_url": "https://www.google.com/maps/place/Agristore+Olea+Comacchio+Srl/data=!4m7!3m6!1s0x477e760ef0ed7efd:0x946ac2c0f25feb1b!8m2!3d44.7254637!4d12.2128891!16s%2Fg%2F1td294xr!19sChIJ_X7t8A52fkcRG-tf8sDCapQ?authuser=0&hl=tr&rclk=1",
    "website_url": "",
    "rating_text": "4,2",
    "stars": null,
    "number_of_reviews": null,
    "price_level": "",
    "open_hours": "",
    "extraction_timestamp": "2025-06-07T16:56:43.032Z",
    "source_name": "google",
    "source_query": "Irrigation Equipment",
    "source_country": "IT",
    "country": "Italy",
    "state": "Emilia-Romagna",
    "city": "Lido degli Estensi"
  },
  {
    "source_id": "ChIJJe1bv7HffUcRBfpXNSp2Wy8",
    "name": "Saletti Graziella",
    "category": "Saletti Graziella",
    "formatted_address": "4,3(15)",
    "phone_number": "+390533327571",
    "source_url": "https://www.google.com/maps/place/Saletti+Graziella/data=!4m7!3m6!1s0x477ddfb1bf5bed25:0x2f5b762a3557fa05!8m2!3d44.667477!4d12.2445477!16s%2Fg%2F1hcb48w_c!19sChIJJe1bv7HffUcRBfpXNSp2Wy8?authuser=0&hl=tr&rclk=1",
    "website_url": "",
    "rating_text": "4,3",
    "stars": null,
    "number_of_reviews": null,
    "price_level": "",
    "open_hours": "",
    "extraction_timestamp": "2025-06-07T16:56:43.035Z",
    "source_name": "google",
    "source_query": "Irrigation Equipment",
    "source_country": "IT",
    "country": "Italy",
    "state": "Emilia-Romagna",
    "city": "Lido degli Estensi"
  },
  {
    "source_id": "ChIJA7P8TynefUcRcsqir4JVvVo",
    "name": "Emporio Spina Di Bonazza Eleonora",
    "category": "Emporio Spina Di Bonazza Eleonora",
    "formatted_address": "4,6(39)",
    "phone_number": "+390533330779",
    "source_url": "https://www.google.com/maps/place/Emporio+Spina+Di+Bonazza+Eleonora/data=!4m7!3m6!1s0x477dde294ffcb303:0x5abd5582afa2ca72!8m2!3d44.6442884!4d12.2500333!16s%2Fg%2F1ptyvz58s!19sChIJA7P8TynefUcRcsqir4JVvVo?authuser=0&hl=tr&rclk=1",
    "website_url": "",
    "rating_text": "4,6",
    "stars": null,
    "number_of_reviews": null,
    "price_level": "",
    "open_hours": "",
    "extraction_timestamp": "2025-06-07T16:56:43.037Z",
    "source_name": "google",
    "source_query": "Irrigation Equipment",
    "source_country": "IT",
    "country": "Italy",
    "state": "Emilia-Romagna",
    "city": "Lido degli Estensi"
  },
  {
    "source_id": "ChIJx7QSYGPffUcRQcVCPjWNSNo",
    "name": "Brico Io",
    "category": "Brico Io",
    "formatted_address": "3,8(1.141)",
    "phone_number": "+390533314001",
    "source_url": "https://www.google.com/maps/place/Brico+Io/data=!4m7!3m6!1s0x477ddf636012b4c7:0xda488d353e42c541!8m2!3d44.6909683!4d12.2205895!16s%2Fg%2F11bw1yyw90!19sChIJx7QSYGPffUcRQcVCPjWNSNo?authuser=0&hl=tr&rclk=1",
    "website_url": "",
    "rating_text": "3,8",
    "stars": null,
    "number_of_reviews": null,
    "price_level": "",
    "open_hours": "",
    "extraction_timestamp": "2025-06-07T16:56:43.042Z",
    "source_name": "google",
    "source_query": "Irrigation Equipment",
    "source_country": "IT",
    "country": "Italy",
    "state": "Emilia-Romagna",
    "city": "Lido degli Estensi"
  },
  {
    "source_id": "ChIJPw4AWQ52fkcRVW38zARNhjs",
    "name": "Idros.art & Bozzola Group S.p.A.",
    "category": "Idros.art & Bozzola Group S.p.A.",
    "formatted_address": "3,6(7)",
    "phone_number": "+390533382704",
    "source_url": "https://www.google.com/maps/place/Idros.art+%26+Bozzola+Group+S.p.A./data=!4m7!3m6!1s0x477e760e59000e3f:0x3b864d04ccfc6d55!8m2!3d44.7258787!4d12.2139747!16s%2Fg%2F1pt_bbxch!19sChIJPw4AWQ52fkcRVW38zARNhjs?authuser=0&hl=tr&rclk=1",
    "website_url": "",
    "rating_text": "3,6",
    "stars": null,
    "number_of_reviews": null,
    "price_level": "",
    "open_hours": "",
    "extraction_timestamp": "2025-06-07T16:56:43.043Z",
    "source_name": "google",
    "source_query": "Irrigation Equipment",
    "source_country": "IT",
    "country": "Italy",
    "state": "Emilia-Romagna",
    "city": "Lido degli Estensi"
  },
  {
    "source_id": "ChIJj38fwx_ffUcRa46otqGO5tE",
    "name": "Ferramenta di Paola",
    "category": "Ferramenta di Paola",
    "formatted_address": "5,0(16)",
    "phone_number": "+393933673211",
    "source_url": "https://www.google.com/maps/place/Ferramenta+di+Paola/data=!4m7!3m6!1s0x477ddf1fc31f7f8f:0xd1e68ea1b6a88e6b!8m2!3d44.667154!4d12.2359609!16s%2Fg%2F11q46jj7mr!19sChIJj38fwx_ffUcRa46otqGO5tE?authuser=0&hl=tr&rclk=1",
    "website_url": "",
    "rating_text": "5,0",
    "stars": null,
    "number_of_reviews": null,
    "price_level": "",
    "open_hours": "",
    "extraction_timestamp": "2025-06-07T16:56:43.045Z",
    "source_name": "google",
    "source_query": "Irrigation Equipment",
    "source_country": "IT",
    "country": "Italy",
    "state": "Emilia-Romagna",
    "city": "Lido degli Estensi"
  },
  {
    "source_id": "ChIJVc-vPa3ffUcRICIHGbXEZPs",
    "name": "Areca System Porto Garibaldi",
    "category": "Areca System Porto Garibaldi",
    "formatted_address": "4,0(1)",
    "phone_number": "+390533329067",
    "source_url": "https://www.google.com/maps/place/Areca+System+Porto+Garibaldi/data=!4m7!3m6!1s0x477ddfad3dafcf55:0xfb64c4b519072220!8m2!3d44.6782944!4d12.2397779!16s%2Fg%2F11j8_hfg6q!19sChIJVc-vPa3ffUcRICIHGbXEZPs?authuser=0&hl=tr&rclk=1",
    "website_url": "",
    "rating_text": "4,0",
    "stars": null,
    "number_of_reviews": null,
    "price_level": "",
    "open_hours": "",
    "extraction_timestamp": "2025-06-07T16:56:43.046Z",
    "source_name": "google",
    "source_query": "Irrigation Equipment",
    "source_country": "IT",
    "country": "Italy",
    "state": "Emilia-Romagna",
    "city": "Lido degli Estensi"
  },
  {
    "source_id": "ChIJdXHW7-B1fkcRntY3aiJd4i0",
    "name": "Green Style Giardinaggio",
    "category": "Green Style Giardinaggio",
    "formatted_address": "Bahçe ürünleri satış merkezi ·  · SS 309 Romea, Km 23Kapalı ⋅ Açılış zamanı: Paz 08:30 · +39 333 228 0876",
    "phone_number": "+393332280876",
    "source_url": "https://www.google.com/maps/place/Green+Style+Giardinaggio/data=!4m7!3m6!1s0x477e75e0efd67175:0x2de25d226a37d69e!8m2!3d44.6606709!4d12.2316785!16s%2Fg%2F11v092lw27!19sChIJdXHW7-B1fkcRntY3aiJd4i0?authuser=0&hl=tr&rclk=1",
    "website_url": "",
    "rating_text": "",
    "stars": null,
    "number_of_reviews": null,
    "price_level": "",
    "open_hours": "",
    "extraction_timestamp": "2025-06-07T16:56:43.048Z",
    "source_name": "google",
    "source_query": "Irrigation Equipment",
    "source_country": "IT",
    "country": "Italy",
    "state": "Emilia-Romagna",
    "city": "Lido degli Estensi"
  },
  {
    "source_id": "ChIJX1_sUK7ffUcRPgi4DBgf0wA",
    "name": "Ferramenta MAX di Mangherini Massimo",
    "category": "Ferramenta MAX di Mangherini Massimo",
    "formatted_address": "4,4(17)",
    "phone_number": "+390533327125",
    "source_url": "https://www.google.com/maps/place/Ferramenta+MAX+di+Mangherini+Massimo/data=!4m7!3m6!1s0x477ddfae50ec5f5f:0xd31f180cb8083e!8m2!3d44.6707974!4d12.2451125!16s%2Fg%2F1hc3wth6d!19sChIJX1_sUK7ffUcRPgi4DBgf0wA?authuser=0&hl=tr&rclk=1",
    "website_url": "",
    "rating_text": "4,4",
    "stars": null,
    "number_of_reviews": null,
    "price_level": "",
    "open_hours": "",
    "extraction_timestamp": "2025-06-07T16:56:43.049Z",
    "source_name": "google",
    "source_query": "Irrigation Equipment",
    "source_country": "IT",
    "country": "Italy",
    "state": "Emilia-Romagna",
    "city": "Lido degli Estensi"
  },
  {
    "source_id": "ChIJ48cYQKDffUcRhCNTSRvTElA",
    "name": "Ferramenta Fantinuoli Roberto",
    "category": "Ferramenta Fantinuoli Roberto",
    "formatted_address": "4,5(45)",
    "phone_number": "+390533327129",
    "source_url": "https://www.google.com/maps/place/Ferramenta+Fantinuoli+Roberto/data=!4m7!3m6!1s0x477ddfa04018c7e3:0x5012d31b49532384!8m2!3d44.6779967!4d12.236912!16s%2Fg%2F1tph0k_3!19sChIJ48cYQKDffUcRhCNTSRvTElA?authuser=0&hl=tr&rclk=1",
    "website_url": "",
    "rating_text": "4,5",
    "stars": null,
    "number_of_reviews": null,
    "price_level": "",
    "open_hours": "",
    "extraction_timestamp": "2025-06-07T16:56:43.052Z",
    "source_name": "google",
    "source_query": "Irrigation Equipment",
    "source_country": "IT",
    "country": "Italy",
    "state": "Emilia-Romagna",
    "city": "Lido degli Estensi"
  }
]
