[
  {
    "source_id": "ChIJxfETo96GPAwRsAOtiMvcngk",
    "name": "C.A.M. TERMOIDRAULICA DI BISANZIO VALENTINO",
    "category": "C.A.M. TERMOIDRAULICA DI BISANZIO VALENTINO",
    "formatted_address": "4,9(28)",
    "phone_number": "+393337443743",
    "source_url": "https://www.google.com/maps/place/C.A.M.+TERMOIDRAULICA+DI+BISANZIO+VALENTINO/data=!4m7!3m6!1s0xc3c86dea313f1c5:0x99edccb88ad03b0!8m2!3d44.4093072!4d12.3086297!16s%2Fg%2F11khc3twj5!19sChIJxfETo96GPAwRsAOtiMvcngk?authuser=0&hl=tr&rclk=1",
    "website_url": "https://camtermoidraulica.it/",
    "rating_text": "4,9",
    "stars": null,
    "number_of_reviews": null,
    "price_level": "",
    "open_hours": "",
    "extraction_timestamp": "2025-06-07T15:53:25.600Z",
    "source_name": "google",
    "source_query": "Irrigation Equipment",
    "source_country": "IT",
    "country": "Italy",
    "state": "Emilia-Romagna",
    "city": "Lido Adriano"
  },
  {
    "source_id": "ChIJHXWOWrbwfUcRARoFK26aQO8",
    "name": "Argon elettricità-unieurocity",
    "category": "Argon elettricità-unieurocity",
    "formatted_address": "4,2(72)",
    "phone_number": "+390544494536",
    "source_url": "https://www.google.com/maps/place/Argon+elettricit%C3%A0-unieurocity/data=!4m7!3m6!1s0x477df0b65a8e751d:0xef409a6e2b051a01!8m2!3d44.4147058!4d12.3089726!16s%2Fg%2F11b7rn8lbn!19sChIJHXWOWrbwfUcRARoFK26aQO8?authuser=0&hl=tr&rclk=1",
    "website_url": "https://www.unieuro.it/online/negozi/Unieuro-Lido-Adriano",
    "rating_text": "4,2",
    "stars": null,
    "number_of_reviews": null,
    "price_level": "",
    "open_hours": "",
    "extraction_timestamp": "2025-06-07T15:53:25.602Z",
    "source_name": "google",
    "source_query": "Irrigation Equipment",
    "source_country": "IT",
    "country": "Italy",
    "state": "Emilia-Romagna",
    "city": "Lido Adriano"
  },
  {
    "source_id": "ChIJzzLRS7TwfUcR_58FlriutJk",
    "name": "Ferramenta Lido Adriano",
    "category": "Ferramenta Lido Adriano",
    "formatted_address": "4,3(127)",
    "phone_number": "+390544495143",
    "source_url": "https://www.google.com/maps/place/Ferramenta+Lido+Adriano/data=!4m7!3m6!1s0x477df0b44bd132cf:0x99b4aeb896059fff!8m2!3d44.4120419!4d12.3069431!16s%2Fg%2F11bzs2kzyk!19sChIJzzLRS7TwfUcR_58FlriutJk?authuser=0&hl=tr&rclk=1",
    "website_url": "https://www.prolocolidoadriano.it/dettaglio.asp?id=187",
    "rating_text": "4,3",
    "stars": null,
    "number_of_reviews": null,
    "price_level": "",
    "open_hours": "",
    "extraction_timestamp": "2025-06-07T15:53:25.616Z",
    "source_name": "google",
    "source_query": "Irrigation Equipment",
    "source_country": "IT",
    "country": "Italy",
    "state": "Emilia-Romagna",
    "city": "Lido Adriano"
  },
  {
    "source_id": "ChIJTZDJb7TwfUcRs7N0j7mzHGc",
    "name": "Termotecnica Lidi Srl",
    "category": "Termotecnica Lidi Srl",
    "formatted_address": "4,1(37)",
    "phone_number": "+390544526338",
    "source_url": "https://www.google.com/maps/place/Termotecnica+Lidi+Srl/data=!4m7!3m6!1s0x477df0b46fc9904d:0x671cb3b98f74b3b3!8m2!3d44.4121559!4d12.3049558!16s%2Fg%2F1wn32hrw!19sChIJTZDJb7TwfUcRs7N0j7mzHGc?authuser=0&hl=tr&rclk=1",
    "website_url": "http://www.termotecnicalidi.it/",
    "rating_text": "4,1",
    "stars": null,
    "number_of_reviews": null,
    "price_level": "",
    "open_hours": "",
    "extraction_timestamp": "2025-06-07T15:53:25.618Z",
    "source_name": "google",
    "source_query": "Irrigation Equipment",
    "source_country": "IT",
    "country": "Italy",
    "state": "Emilia-Romagna",
    "city": "Lido Adriano"
  }
]
