[
  {
    "source_id": "ChIJkQmckkDYKhMR621xMctqD_s",
    "name": "TSM - Tonioni Srl",
    "category": "TSM - Tonioni Srl",
    "formatted_address": "5,0(1)",
    "phone_number": "+390516544172",
    "source_url": "https://www.google.com/maps/place/TSM+-+Tonioni+Srl/data=!4m7!3m6!1s0x132ad840929c0991:0xfb0f6acb31716deb!8m2!3d44.2682296!4d11.3170308!16s%2Fg%2F1td27kqj!19sChIJkQmckkDYKhMR621xMctqD_s?authuser=0&hl=tr&rclk=1",
    "website_url": "http://www.tonioni.com/",
    "rating_text": "5,0",
    "stars": null,
    "number_of_reviews": null,
    "price_level": "",
    "open_hours": "",
    "extraction_timestamp": "2025-06-07T16:46:03.411Z",
    "source_name": "google",
    "source_query": "Irrigation Equipment",
    "source_country": "IT",
    "country": "Italy",
    "state": "Emilia-Romagna",
    "city": "Loiano"
  },
  {
    "source_id": "ChIJ_SYf2IMsfkcRVw9xVhrnjyI",
    "name": "Irrigazione Bragaglia",
    "category": "Irrigazione Bragaglia",
    "formatted_address": "4,7(30)",
    "phone_number": "+39051534865",
    "source_url": "https://www.google.com/maps/place/Irrigazione+Bragaglia/data=!4m7!3m6!1s0x477e2c83d81f26fd:0x228fe71a56710f57!8m2!3d44.5053735!4d11.412403!16s%2Fg%2F1vp6z0gf!19sChIJ_SYf2IMsfkcRVw9xVhrnjyI?authuser=0&hl=tr&rclk=1",
    "website_url": "http://www.irrigazionebragaglia.it/",
    "rating_text": "4,7",
    "stars": null,
    "number_of_reviews": null,
    "price_level": "",
    "open_hours": "",
    "extraction_timestamp": "2025-06-07T16:46:03.411Z",
    "source_name": "google",
    "source_query": "Irrigation Equipment",
    "source_country": "IT",
    "country": "Italy",
    "state": "Emilia-Romagna",
    "city": "Loiano"
  },
  {
    "source_id": "ChIJh3Nd8G0sfkcR_m7VewEmxXM",
    "name": "Irrigarden",
    "category": "Irrigarden",
    "formatted_address": "4,7(158)",
    "phone_number": "+39051782013",
    "source_url": "https://www.google.com/maps/place/Irrigarden/data=!4m7!3m6!1s0x477e2c6df05d7387:0x73c526017bd56efe!8m2!3d44.5096266!4d11.4390897!16s%2Fg%2F1vgw_l7w!19sChIJh3Nd8G0sfkcR_m7VewEmxXM?authuser=0&hl=tr&rclk=1",
    "website_url": "https://www.irrigarden-bo.it/",
    "rating_text": "4,7",
    "stars": null,
    "number_of_reviews": null,
    "price_level": "",
    "open_hours": "",
    "extraction_timestamp": "2025-06-07T16:46:03.412Z",
    "source_name": "google",
    "source_query": "Irrigation Equipment",
    "source_country": "IT",
    "country": "Italy",
    "state": "Emilia-Romagna",
    "city": "Loiano"
  },
  {
    "source_id": "ChIJtVDkNgRFgEcRqc6umwWIJuI",
    "name": "Rm Spa",
    "category": "Rm Spa",
    "formatted_address": "4,6(81)",
    "phone_number": "+390521872321",
    "source_url": "https://www.google.com/maps/place/Rm+Spa/data=!4m7!3m6!1s0x4780450436e450b5:0xe22688059baecea9!8m2!3d44.9105406!4d10.2583785!16s%2Fg%2F12hl93byl!19sChIJtVDkNgRFgEcRqc6umwWIJuI?authuser=0&hl=tr&rclk=1",
    "website_url": "http://www.rmirrigation.com/",
    "rating_text": "4,6",
    "stars": null,
    "number_of_reviews": null,
    "price_level": "",
    "open_hours": "",
    "extraction_timestamp": "2025-06-07T16:46:03.412Z",
    "source_name": "google",
    "source_query": "Irrigation Equipment",
    "source_country": "IT",
    "country": "Italy",
    "state": "Emilia-Romagna",
    "city": "Loiano"
  },
  {
    "source_id": "ChIJyXgg68QrfkcRAaJCOMJ3PxY",
    "name": "hidrisistem",
    "category": "hidrisistem",
    "formatted_address": "5,0(1)",
    "phone_number": "+39366448310824",
    "source_url": "https://www.google.com/maps/place/hidrisistem/data=!4m7!3m6!1s0x477e2bc4eb2078c9:0x163f77c23842a201!8m2!3d44.496029!4d11.402638!16s%2Fg%2F11w_zjhjy3!19sChIJyXgg68QrfkcRAaJCOMJ3PxY?authuser=0&hl=tr&rclk=1",
    "website_url": "",
    "rating_text": "5,0",
    "stars": null,
    "number_of_reviews": null,
    "price_level": "",
    "open_hours": "",
    "extraction_timestamp": "2025-06-07T16:46:03.412Z",
    "source_name": "google",
    "source_query": "Irrigation Equipment",
    "source_country": "IT",
    "country": "Italy",
    "state": "Emilia-Romagna",
    "city": "Loiano"
  },
  {
    "source_id": "ChIJSSMzGN4pfkcRxNrEMhpqts8",
    "name": "Hydro Ware srl",
    "category": "Hydro Ware srl",
    "formatted_address": "4,5(2)",
    "phone_number": "+390510404329",
    "source_url": "https://www.google.com/maps/place/Hydro+Ware+srl/data=!4m7!3m6!1s0x477e29de18332349:0xcfb66a1a32c4dac4!8m2!3d44.4442053!4d11.4850842!16s%2Fg%2F11h55y8w7d!19sChIJSSMzGN4pfkcRxNrEMhpqts8?authuser=0&hl=tr&rclk=1",
    "website_url": "http://www.hydroware.it/it/",
    "rating_text": "4,5",
    "stars": null,
    "number_of_reviews": null,
    "price_level": "",
    "open_hours": "",
    "extraction_timestamp": "2025-06-07T16:46:03.413Z",
    "source_name": "google",
    "source_query": "Irrigation Equipment",
    "source_country": "IT",
    "country": "Italy",
    "state": "Emilia-Romagna",
    "city": "Loiano"
  },
  {
    "source_id": "ChIJScs3qWvYKhMR2aE-KUZT8h0",
    "name": "Coop",
    "category": "Coop",
    "formatted_address": "3,3(27)",
    "phone_number": "+390518906960",
    "source_url": "https://www.google.com/maps/place/Coop/data=!4m7!3m6!1s0x132ad86ba937cb49:0x1df25346293ea1d9!8m2!3d44.268368!4d11.3218997!16s%2Fg%2F1q62l73nc!19sChIJScs3qWvYKhMR2aE-KUZT8h0?authuser=0&hl=tr&rclk=1",
    "website_url": "http://www.e-coop.it/punti-vendita-dettaglio?id=4105",
    "rating_text": "3,3",
    "stars": null,
    "number_of_reviews": null,
    "price_level": "",
    "open_hours": "",
    "extraction_timestamp": "2025-06-07T16:46:03.413Z",
    "source_name": "google",
    "source_query": "Irrigation Equipment",
    "source_country": "IT",
    "country": "Italy",
    "state": "Emilia-Romagna",
    "city": "Loiano"
  },
  {
    "source_id": "ChIJDevHJGvYKhMR7T6gmG3tE8k",
    "name": "CONAD CITY",
    "category": "CONAD CITY",
    "formatted_address": "4,5(175)",
    "phone_number": "+390516544310",
    "source_url": "https://www.google.com/maps/place/CONAD+CITY/data=!4m7!3m6!1s0x132ad86b24c7eb0d:0xc913ed6d98a03eed!8m2!3d44.267918!4d11.323912!16s%2Fg%2F1tl1f39z!19sChIJDevHJGvYKhMR7T6gmG3tE8k?authuser=0&hl=tr&rclk=1",
    "website_url": "https://www.conad.it/ricerca-negozi/conad-city-via-roma-8-3-40050-loiano--005877",
    "rating_text": "4,5",
    "stars": null,
    "number_of_reviews": null,
    "price_level": "",
    "open_hours": "",
    "extraction_timestamp": "2025-06-07T16:46:03.413Z",
    "source_name": "google",
    "source_query": "Irrigation Equipment",
    "source_country": "IT",
    "country": "Italy",
    "state": "Emilia-Romagna",
    "city": "Loiano"
  }
]
