[
  {
    "source_id": "ChIJy805WcDcgEcRtmGWlwosXQc",
    "name": "IRRIMEC SRL",
    "category": "IRRIMEC SRL",
    "formatted_address": "4,5(90)",
    "phone_number": "+390523760441",
    "source_url": "https://www.google.com/maps/place/IRRIMEC+SRL/data=!4m7!3m6!1s0x4780dcc05939cdcb:0x75d2c0a979661b6!8m2!3d45.0612353!4d9.630829!16s%2Fg%2F1tdgt7d_!19sChIJy805WcDcgEcRtmGWlwosXQc?authuser=0&hl=tr&rclk=1",
    "website_url": "",
    "rating_text": "4,5",
    "stars": null,
    "number_of_reviews": null,
    "price_level": "",
    "open_hours": "",
    "extraction_timestamp": "2025-06-07T16:37:51.299Z",
    "source_name": "google",
    "source_query": "Irrigation Equipment",
    "source_country": "IT",
    "country": "Italy",
    "state": "Emilia-Romagna",
    "city": "Lugagnano Val d'Arda"
  },
  {
    "source_id": "ChIJoZbdML6NgEcRcTACtuKyPT4",
    "name": "Quarantelli S.N.C",
    "category": "Quarantelli S.N.C",
    "formatted_address": "4,7(61)",
    "phone_number": "+390523891228",
    "source_url": "https://www.google.com/maps/place/Quarantelli+S.N.C/data=!4m7!3m6!1s0x47808dbe30dd96a1:0x3e3db2e2b6023071!8m2!3d44.8268993!4d9.8365811!16s%2Fg%2F1hc7c5my9!19sChIJoZbdML6NgEcRcTACtuKyPT4?authuser=0&hl=tr&rclk=1",
    "website_url": "",
    "rating_text": "4,7",
    "stars": null,
    "number_of_reviews": null,
    "price_level": "",
    "open_hours": "",
    "extraction_timestamp": "2025-06-07T16:37:51.302Z",
    "source_name": "google",
    "source_query": "Irrigation Equipment",
    "source_country": "IT",
    "country": "Italy",
    "state": "Emilia-Romagna",
    "city": "Lugagnano Val d'Arda"
  },
  {
    "source_id": "ChIJNV4wLb6NgEcRtBQ4lsIsIFQ",
    "name": "Frazzani Giovanni",
    "category": "Frazzani Giovanni",
    "formatted_address": "3,7(55)",
    "phone_number": "+390523891218",
    "source_url": "https://www.google.com/maps/place/Frazzani+Giovanni/data=!4m7!3m6!1s0x47808dbe2d305e35:0x54202cc2963814b4!8m2!3d44.8251644!4d9.83321!16s%2Fg%2F1v1sk1xm!19sChIJNV4wLb6NgEcRtBQ4lsIsIFQ?authuser=0&hl=tr&rclk=1",
    "website_url": "",
    "rating_text": "3,7",
    "stars": null,
    "number_of_reviews": null,
    "price_level": "",
    "open_hours": "",
    "extraction_timestamp": "2025-06-07T16:37:51.304Z",
    "source_name": "google",
    "source_query": "Irrigation Equipment",
    "source_country": "IT",
    "country": "Italy",
    "state": "Emilia-Romagna",
    "city": "Lugagnano Val d'Arda"
  },
  {
    "source_id": "ChIJtVDkNgRFgEcRqc6umwWIJuI",
    "name": "Rm Spa",
    "category": "Rm Spa",
    "formatted_address": "4,6(81)",
    "phone_number": "+390521872321",
    "source_url": "https://www.google.com/maps/place/Rm+Spa/data=!4m7!3m6!1s0x4780450436e450b5:0xe22688059baecea9!8m2!3d44.9105406!4d10.2583785!16s%2Fg%2F12hl93byl!19sChIJtVDkNgRFgEcRqc6umwWIJuI?authuser=0&hl=tr&rclk=1",
    "website_url": "",
    "rating_text": "4,6",
    "stars": null,
    "number_of_reviews": null,
    "price_level": "",
    "open_hours": "",
    "extraction_timestamp": "2025-06-07T16:37:51.305Z",
    "source_name": "google",
    "source_query": "Irrigation Equipment",
    "source_country": "IT",
    "country": "Italy",
    "state": "Emilia-Romagna",
    "city": "Lugagnano Val d'Arda"
  },
  {
    "source_id": "ChIJV5ecYJWNgEcRb7F9L71svgQ",
    "name": "Bragoli Ferramenta",
    "category": "Bragoli Ferramenta",
    "formatted_address": "4,5(57)",
    "phone_number": "+390523891247",
    "source_url": "https://www.google.com/maps/place/Bragoli+Ferramenta/data=!4m7!3m6!1s0x47808d95609c9757:0x4be6cbd2f7db16f!8m2!3d44.8206781!4d9.8272905!16s%2Fg%2F11g6j91c7b!19sChIJV5ecYJWNgEcRb7F9L71svgQ?authuser=0&hl=tr&rclk=1",
    "website_url": "",
    "rating_text": "4,5",
    "stars": null,
    "number_of_reviews": null,
    "price_level": "",
    "open_hours": "",
    "extraction_timestamp": "2025-06-07T16:37:51.307Z",
    "source_name": "google",
    "source_query": "Irrigation Equipment",
    "source_country": "IT",
    "country": "Italy",
    "state": "Emilia-Romagna",
    "city": "Lugagnano Val d'Arda"
  }
]
