[
  {
    "source_id": "ChIJu07AB0rif0cRnS0vXUM4l0M",
    "name": "IDROPLAST",
    "category": "IDROPLAST",
    "formatted_address": "4,1(66)",
    "phone_number": "+390536946864",
    "source_url": "https://www.google.com/maps/place/IDROPLAST/data=!4m7!3m6!1s0x477fe24a07c04ebb:0x439738435d2f2d9d!8m2!3d44.5278928!4d10.8902028!16s%2Fg%2F11b6jh694_!19sChIJu07AB0rif0cRnS0vXUM4l0M?authuser=0&hl=tr&rclk=1",
    "website_url": "",
    "rating_text": "4,1",
    "stars": null,
    "number_of_reviews": null,
    "price_level": "",
    "open_hours": "",
    "extraction_timestamp": "2025-06-07T15:59:04.233Z",
    "source_name": "google",
    "source_query": "Irrigation Equipment",
    "source_country": "IT",
    "country": "Italy",
    "state": "Emilia-Romagna",
    "city": "Maranello"
  },
  {
    "source_id": "ChIJcQG6ul7df0cR3VxKiu5OPBs",
    "name": "Scova Impianti Srl",
    "category": "Scova Impianti Srl",
    "formatted_address": "4,5(64)",
    "phone_number": "+39059923202",
    "source_url": "https://www.google.com/maps/place/Scova+Impianti+Srl/data=!4m7!3m6!1s0x477fdd5ebaba0171:0x1b3c4eee8a4a5cdd!8m2!3d44.6018135!4d11.032294!16s%2Fg%2F1tfzwbfb!19sChIJcQG6ul7df0cR3VxKiu5OPBs?authuser=0&hl=tr&rclk=1",
    "website_url": "https://www.scovaimpianti.com/",
    "rating_text": "4,5",
    "stars": null,
    "number_of_reviews": null,
    "price_level": "",
    "open_hours": "",
    "extraction_timestamp": "2025-06-07T15:59:04.236Z",
    "source_name": "google",
    "source_query": "Irrigation Equipment",
    "source_country": "IT",
    "country": "Italy",
    "state": "Emilia-Romagna",
    "city": "Maranello"
  },
  {
    "source_id": "ChIJJ6V6lMDgf0cR1SpFsfjDuHg",
    "name": "Ocmis Irrigazione Spa",
    "category": "Ocmis Irrigazione Spa",
    "formatted_address": "3,5(31)",
    "phone_number": "+39059702150",
    "source_url": "https://www.google.com/maps/place/Ocmis+Irrigazione+Spa/data=!4m7!3m6!1s0x477fe0c0947aa527:0x78b8c3f8b1452ad5!8m2!3d44.530494!4d10.9794578!16s%2Fg%2F1vd3tn19!19sChIJJ6V6lMDgf0cR1SpFsfjDuHg?authuser=0&hl=tr&rclk=1",
    "website_url": "http://www.ocmis-irrigazione.it/",
    "rating_text": "3,5",
    "stars": null,
    "number_of_reviews": null,
    "price_level": "",
    "open_hours": "",
    "extraction_timestamp": "2025-06-07T15:59:04.238Z",
    "source_name": "google",
    "source_query": "Irrigation Equipment",
    "source_country": "IT",
    "country": "Italy",
    "state": "Emilia-Romagna",
    "city": "Maranello"
  },
  {
    "source_id": "ChIJaYiPh6Ljf0cRZpMmCYlMhPQ",
    "name": "Tagliati (S.R.L.)",
    "category": "Tagliati (S.R.L.)",
    "formatted_address": "4,4(97)",
    "phone_number": "+390536940114",
    "source_url": "https://www.google.com/maps/place/Tagliati+%28S.R.L.%29/data=!4m7!3m6!1s0x477fe3a2878f8869:0xf4844c8909269366!8m2!3d44.536663!4d10.8744535!16s%2Fg%2F11b6j87htk!19sChIJaYiPh6Ljf0cRZpMmCYlMhPQ?authuser=0&hl=tr&rclk=1",
    "website_url": "https://www.facebook.com/tagliatisrl/",
    "rating_text": "4,4",
    "stars": null,
    "number_of_reviews": null,
    "price_level": "",
    "open_hours": "",
    "extraction_timestamp": "2025-06-07T15:59:04.240Z",
    "source_name": "google",
    "source_query": "Irrigation Equipment",
    "source_country": "IT",
    "country": "Italy",
    "state": "Emilia-Romagna",
    "city": "Maranello"
  },
  {
    "source_id": "ChIJE_3jOnMtfkcRkxtTFj3Ym9E",
    "name": "Irrigation Scarabelli Srl",
    "category": "Irrigation Scarabelli Srl",
    "formatted_address": "4,5(23)",
    "phone_number": "+39051763363",
    "source_url": "https://www.google.com/maps/place/Irrigation+Scarabelli+Srl/data=!4m7!3m6!1s0x477e2d733ae3fd13:0xd19bd83d16531b93!8m2!3d44.5426053!4d11.4189136!16s%2Fg%2F11gzdz6vf!19sChIJE_3jOnMtfkcRkxtTFj3Ym9E?authuser=0&hl=tr&rclk=1",
    "website_url": "",
    "rating_text": "4,5",
    "stars": null,
    "number_of_reviews": null,
    "price_level": "",
    "open_hours": "",
    "extraction_timestamp": "2025-06-07T15:59:04.242Z",
    "source_name": "google",
    "source_query": "Irrigation Equipment",
    "source_country": "IT",
    "country": "Italy",
    "state": "Emilia-Romagna",
    "city": "Maranello"
  },
  {
    "source_id": "ChIJs29sE3Pjf0cRQykUVUXAUC4",
    "name": "Adesital S.P.A.",
    "category": "Adesital S.P.A.",
    "formatted_address": "4,7(10)",
    "phone_number": "+390536927511",
    "source_url": "https://www.google.com/maps/place/Adesital+S.P.A./data=!4m7!3m6!1s0x477fe373136c6fb3:0x2e50c04555142943!8m2!3d44.5397414!4d10.8591898!16s%2Fg%2F1tj499w9!19sChIJs29sE3Pjf0cRQykUVUXAUC4?authuser=0&hl=tr&rclk=1",
    "website_url": "http://www.adesital.it/",
    "rating_text": "4,7",
    "stars": null,
    "number_of_reviews": null,
    "price_level": "",
    "open_hours": "",
    "extraction_timestamp": "2025-06-07T15:59:04.243Z",
    "source_name": "google",
    "source_query": "Irrigation Equipment",
    "source_country": "IT",
    "country": "Italy",
    "state": "Emilia-Romagna",
    "city": "Maranello"
  },
  {
    "source_id": "ChIJl8ngOgbjf0cRHSqvRBhvK_k",
    "name": "Com-Fer",
    "category": "Com-Fer",
    "formatted_address": "4,4(156)",
    "phone_number": "+390536941466",
    "source_url": "https://www.google.com/maps/place/Com-Fer/data=!4m7!3m6!1s0x477fe3063ae0c997:0xf92b6f1844af2a1d!8m2!3d44.5288672!4d10.8586146!16s%2Fg%2F11cn64c3w5!19sChIJl8ngOgbjf0cRHSqvRBhvK_k?authuser=0&hl=tr&rclk=1",
    "website_url": "http://www.com-fer.it/",
    "rating_text": "4,4",
    "stars": null,
    "number_of_reviews": null,
    "price_level": "",
    "open_hours": "",
    "extraction_timestamp": "2025-06-07T15:59:04.245Z",
    "source_name": "google",
    "source_query": "Irrigation Equipment",
    "source_country": "IT",
    "country": "Italy",
    "state": "Emilia-Romagna",
    "city": "Maranello"
  },
  {
    "source_id": "ChIJZeHsmdDjf0cRKRCSo7VOV2w",
    "name": "Gieffe Srl",
    "category": "Gieffe Srl",
    "formatted_address": "4,2(42)",
    "phone_number": "+390536948732",
    "source_url": "https://www.google.com/maps/place/Gieffe+Srl/data=!4m7!3m6!1s0x477fe3d099ece165:0x6c574eb5a3921029!8m2!3d44.5261653!4d10.8958951!16s%2Fg%2F1tmqq66y!19sChIJZeHsmdDjf0cRKRCSo7VOV2w?authuser=0&hl=tr&rclk=1",
    "website_url": "http://www.gieffebagni.it/",
    "rating_text": "4,2",
    "stars": null,
    "number_of_reviews": null,
    "price_level": "",
    "open_hours": "",
    "extraction_timestamp": "2025-06-07T15:59:04.247Z",
    "source_name": "google",
    "source_query": "Irrigation Equipment",
    "source_country": "IT",
    "country": "Italy",
    "state": "Emilia-Romagna",
    "city": "Maranello"
  },
  {
    "source_id": "ChIJhT-kpAXff0cRKJQqKYwIulA",
    "name": "Irrigo",
    "category": "Irrigo",
    "formatted_address": "4,7(36)",
    "phone_number": "+393473096499",
    "source_url": "https://www.google.com/maps/place/Irrigo/data=!4m7!3m6!1s0x477fdf05a4a43f85:0x50ba088c292a9428!8m2!3d44.5018172!4d11.005272!16s%2Fg%2F11hdjcp5pk!19sChIJhT-kpAXff0cRKJQqKYwIulA?authuser=0&hl=tr&rclk=1",
    "website_url": "https://www.irrigovignola.it/",
    "rating_text": "4,7",
    "stars": null,
    "number_of_reviews": null,
    "price_level": "",
    "open_hours": "",
    "extraction_timestamp": "2025-06-07T15:59:04.248Z",
    "source_name": "google",
    "source_query": "Irrigation Equipment",
    "source_country": "IT",
    "country": "Italy",
    "state": "Emilia-Romagna",
    "city": "Maranello"
  },
  {
    "source_id": "ChIJHQGz6dXof0cRPD2igQWHtxo",
    "name": "Hidrostar",
    "category": "Hidrostar",
    "formatted_address": "4,8(33)",
    "phone_number": "+39059251056",
    "source_url": "https://www.google.com/maps/place/Hidrostar/data=!4m7!3m6!1s0x477fe8d5e9b3011d:0x1ab7870581a23d3c!8m2!3d44.6584919!4d10.9641811!16s%2Fg%2F1tf9rp0c!19sChIJHQGz6dXof0cRPD2igQWHtxo?authuser=0&hl=tr&rclk=1",
    "website_url": "http://www.hidrostar.it/",
    "rating_text": "4,8",
    "stars": null,
    "number_of_reviews": null,
    "price_level": "",
    "open_hours": "",
    "extraction_timestamp": "2025-06-07T15:59:04.250Z",
    "source_name": "google",
    "source_query": "Irrigation Equipment",
    "source_country": "IT",
    "country": "Italy",
    "state": "Emilia-Romagna",
    "city": "Maranello"
  },
  {
    "source_id": "ChIJGeEwVsbkf0cR3ksmb3EcMy4",
    "name": "Acquality",
    "category": "Acquality",
    "formatted_address": "4,2(5)",
    "phone_number": "+390536585052",
    "source_url": "https://www.google.com/maps/place/Acquality/data=!4m7!3m6!1s0x477fe4c65630e119:0x2e331c716f264bde!8m2!3d44.5308116!4d10.8756761!16s%2Fg%2F11b70dr4hg!19sChIJGeEwVsbkf0cR3ksmb3EcMy4?authuser=0&hl=tr&rclk=1",
    "website_url": "http://www.beredalrubinetto.it/",
    "rating_text": "4,2",
    "stars": null,
    "number_of_reviews": null,
    "price_level": "",
    "open_hours": "",
    "extraction_timestamp": "2025-06-07T15:59:04.251Z",
    "source_name": "google",
    "source_query": "Irrigation Equipment",
    "source_country": "IT",
    "country": "Italy",
    "state": "Emilia-Romagna",
    "city": "Maranello"
  },
  {
    "source_id": "ChIJnVsXND3IzIcRDGT4I_lUE4Y",
    "name": "Progetto Natura",
    "category": "Progetto Natura",
    "formatted_address": "5,0(6)",
    "phone_number": "+393333408683",
    "source_url": "https://www.google.com/maps/place/Progetto+Natura/data=!4m7!3m6!1s0x87ccc83d34175b9d:0x861354f923f8640c!8m2!3d44.6561431!4d10.9305582!16s%2Fg%2F11x1bp2n6h!19sChIJnVsXND3IzIcRDGT4I_lUE4Y?authuser=0&hl=tr&rclk=1",
    "website_url": "https://www.facebook.com/gianelligiuliani.2025",
    "rating_text": "5,0",
    "stars": null,
    "number_of_reviews": null,
    "price_level": "",
    "open_hours": "",
    "extraction_timestamp": "2025-06-07T15:59:04.253Z",
    "source_name": "google",
    "source_query": "Irrigation Equipment",
    "source_country": "IT",
    "country": "Italy",
    "state": "Emilia-Romagna",
    "city": "Maranello"
  }
]
