[
  {
    "source_id": "ChIJJ6V6lMDgf0cR1SpFsfjDuHg",
    "name": "Ocmis Irrigazione Spa",
    "category": "Ocmis Irrigazione Spa",
    "formatted_address": "3,5(31)",
    "phone_number": "+39059702150",
    "source_url": "https://www.google.com/maps/place/Ocmis+Irrigazione+Spa/data=!4m7!3m6!1s0x477fe0c0947aa527:0x78b8c3f8b1452ad5!8m2!3d44.530494!4d10.9794578!16s%2Fg%2F1vd3tn19!19sChIJJ6V6lMDgf0cR1SpFsfjDuHg?authuser=0&hl=tr&rclk=1",
    "website_url": "http://www.ocmis-irrigazione.it/",
    "rating_text": "3,5",
    "stars": null,
    "number_of_reviews": null,
    "price_level": "",
    "open_hours": "",
    "extraction_timestamp": "2025-06-07T15:55:44.205Z",
    "source_name": "google",
    "source_query": "Irrigation Equipment",
    "source_country": "IT",
    "country": "Italy",
    "state": "Emilia-Romagna",
    "city": "Marano sul Panaro"
  },
  {
    "source_id": "ChIJcQG6ul7df0cR3VxKiu5OPBs",
    "name": "Scova Impianti Srl",
    "category": "Scova Impianti Srl",
    "formatted_address": "4,5(64)",
    "phone_number": "+39059923202",
    "source_url": "https://www.google.com/maps/place/Scova+Impianti+Srl/data=!4m7!3m6!1s0x477fdd5ebaba0171:0x1b3c4eee8a4a5cdd!8m2!3d44.6018135!4d11.032294!16s%2Fg%2F1tfzwbfb!19sChIJcQG6ul7df0cR3VxKiu5OPBs?authuser=0&hl=tr&rclk=1",
    "website_url": "https://www.scovaimpianti.com/",
    "rating_text": "4,5",
    "stars": null,
    "number_of_reviews": null,
    "price_level": "",
    "open_hours": "",
    "extraction_timestamp": "2025-06-07T15:55:44.206Z",
    "source_name": "google",
    "source_query": "Irrigation Equipment",
    "source_country": "IT",
    "country": "Italy",
    "state": "Emilia-Romagna",
    "city": "Marano sul Panaro"
  },
  {
    "source_id": "ChIJhT-kpAXff0cRKJQqKYwIulA",
    "name": "Irrigo",
    "category": "Irrigo",
    "formatted_address": "4,7(36)",
    "phone_number": "+393473096499",
    "source_url": "https://www.google.com/maps/place/Irrigo/data=!4m7!3m6!1s0x477fdf05a4a43f85:0x50ba088c292a9428!8m2!3d44.5018172!4d11.005272!16s%2Fg%2F11hdjcp5pk!19sChIJhT-kpAXff0cRKJQqKYwIulA?authuser=0&hl=tr&rclk=1",
    "website_url": "https://www.irrigovignola.it/",
    "rating_text": "4,7",
    "stars": null,
    "number_of_reviews": null,
    "price_level": "",
    "open_hours": "",
    "extraction_timestamp": "2025-06-07T15:55:44.207Z",
    "source_name": "google",
    "source_query": "Irrigation Equipment",
    "source_country": "IT",
    "country": "Italy",
    "state": "Emilia-Romagna",
    "city": "Marano sul Panaro"
  },
  {
    "source_id": "ChIJP4tulhq1KhMR62-MrBCSuyQ",
    "name": "Giardinaggio Rai e Lele",
    "category": "Giardinaggio Rai e Lele",
    "formatted_address": "4,3(18)",
    "phone_number": "+39059744334",
    "source_url": "https://www.google.com/maps/place/Giardinaggio+Rai+e+Lele/data=!4m7!3m6!1s0x132ab51a966e8b3f:0x24bb9210ac8c6feb!8m2!3d44.4472471!4d10.9451758!16s%2Fg%2F11b6h_7h4c!19sChIJP4tulhq1KhMR62-MrBCSuyQ?authuser=0&hl=tr&rclk=1",
    "website_url": "http://www.raielele.it/",
    "rating_text": "4,3",
    "stars": null,
    "number_of_reviews": null,
    "price_level": "",
    "open_hours": "",
    "extraction_timestamp": "2025-06-07T15:55:44.209Z",
    "source_name": "google",
    "source_query": "Irrigation Equipment",
    "source_country": "IT",
    "country": "Italy",
    "state": "Emilia-Romagna",
    "city": "Marano sul Panaro"
  },
  {
    "source_id": "ChIJJS-yqFe1KhMRAC0IwOwxFyA",
    "name": "Ferramenta Bm Srls",
    "category": "Ferramenta Bm Srls",
    "formatted_address": "4,7(26)",
    "phone_number": "+39059744344",
    "source_url": "https://www.google.com/maps/place/Ferramenta+Bm+Srls/data=!4m7!3m6!1s0x132ab557a8b22f25:0x201731ecc0082d00!8m2!3d44.4586584!4d10.9718337!16s%2Fg%2F11fjqj3sdh!19sChIJJS-yqFe1KhMRAC0IwOwxFyA?authuser=0&hl=tr&rclk=1",
    "website_url": "",
    "rating_text": "4,7",
    "stars": null,
    "number_of_reviews": null,
    "price_level": "",
    "open_hours": "",
    "extraction_timestamp": "2025-06-07T15:55:44.210Z",
    "source_name": "google",
    "source_query": "Irrigation Equipment",
    "source_country": "IT",
    "country": "Italy",
    "state": "Emilia-Romagna",
    "city": "Marano sul Panaro"
  },
  {
    "source_id": "ChIJNUxWclu1KhMRFxC5E3yoCDk",
    "name": "Ferramenta G&G",
    "category": "Ferramenta G&G",
    "formatted_address": "4,3(29)",
    "phone_number": "+39059705216",
    "source_url": "https://www.google.com/maps/place/Ferramenta+G%26G/data=!4m7!3m6!1s0x132ab55b72564c35:0x3908a87c13b91017!8m2!3d44.4560706!4d10.9711499!16s%2Fg%2F11b6hrv8k5!19sChIJNUxWclu1KhMRFxC5E3yoCDk?authuser=0&hl=tr&rclk=1",
    "website_url": "",
    "rating_text": "4,3",
    "stars": null,
    "number_of_reviews": null,
    "price_level": "",
    "open_hours": "",
    "extraction_timestamp": "2025-06-07T15:55:44.211Z",
    "source_name": "google",
    "source_query": "Irrigation Equipment",
    "source_country": "IT",
    "country": "Italy",
    "state": "Emilia-Romagna",
    "city": "Marano sul Panaro"
  },
  {
    "source_id": "ChIJHQGz6dXof0cRPD2igQWHtxo",
    "name": "Hidrostar",
    "category": "Hidrostar",
    "formatted_address": "4,8(33)",
    "phone_number": "+39059251056",
    "source_url": "https://www.google.com/maps/place/Hidrostar/data=!4m7!3m6!1s0x477fe8d5e9b3011d:0x1ab7870581a23d3c!8m2!3d44.6584919!4d10.9641811!16s%2Fg%2F1tf9rp0c!19sChIJHQGz6dXof0cRPD2igQWHtxo?authuser=0&hl=tr&rclk=1",
    "website_url": "http://www.hidrostar.it/",
    "rating_text": "4,8",
    "stars": null,
    "number_of_reviews": null,
    "price_level": "",
    "open_hours": "",
    "extraction_timestamp": "2025-06-07T15:55:44.212Z",
    "source_name": "google",
    "source_query": "Irrigation Equipment",
    "source_country": "IT",
    "country": "Italy",
    "state": "Emilia-Romagna",
    "city": "Marano sul Panaro"
  },
  {
    "source_id": "ChIJJQUlTz7uf0cRhh0eTtimBH0",
    "name": "Lesigarden s.r.l.",
    "category": "Lesigarden s.r.l.",
    "formatted_address": "4,6(203)",
    "phone_number": "+39059849593",
    "source_url": "https://www.google.com/maps/place/Lesigarden+s.r.l./data=!4m7!3m6!1s0x477fee3e4f250525:0x7d04a6d84e1e1d86!8m2!3d44.6824711!4d10.8956117!16s%2Fg%2F1tgx0w9z!19sChIJJQUlTz7uf0cRhh0eTtimBH0?authuser=0&hl=tr&rclk=1",
    "website_url": "https://lesigarden.it/",
    "rating_text": "4,6",
    "stars": null,
    "number_of_reviews": null,
    "price_level": "",
    "open_hours": "",
    "extraction_timestamp": "2025-06-07T15:55:44.213Z",
    "source_name": "google",
    "source_query": "Irrigation Equipment",
    "source_country": "IT",
    "country": "Italy",
    "state": "Emilia-Romagna",
    "city": "Marano sul Panaro"
  },
  {
    "source_id": "ChIJtVDkNgRFgEcRqc6umwWIJuI",
    "name": "Rm Spa",
    "category": "Rm Spa",
    "formatted_address": "4,6(81)",
    "phone_number": "+390521872321",
    "source_url": "https://www.google.com/maps/place/Rm+Spa/data=!4m7!3m6!1s0x4780450436e450b5:0xe22688059baecea9!8m2!3d44.9105406!4d10.2583785!16s%2Fg%2F12hl93byl!19sChIJtVDkNgRFgEcRqc6umwWIJuI?authuser=0&hl=tr&rclk=1",
    "website_url": "http://www.rmirrigation.com/",
    "rating_text": "4,6",
    "stars": null,
    "number_of_reviews": null,
    "price_level": "",
    "open_hours": "",
    "extraction_timestamp": "2025-06-07T15:55:44.214Z",
    "source_name": "google",
    "source_query": "Irrigation Equipment",
    "source_country": "IT",
    "country": "Italy",
    "state": "Emilia-Romagna",
    "city": "Marano sul Panaro"
  },
  {
    "source_id": "ChIJh3Nd8G0sfkcR_m7VewEmxXM",
    "name": "Irrigarden",
    "category": "Irrigarden",
    "formatted_address": "4,7(158)",
    "phone_number": "+39051782013",
    "source_url": "https://www.google.com/maps/place/Irrigarden/data=!4m7!3m6!1s0x477e2c6df05d7387:0x73c526017bd56efe!8m2!3d44.5096266!4d11.4390897!16s%2Fg%2F1vgw_l7w!19sChIJh3Nd8G0sfkcR_m7VewEmxXM?authuser=0&hl=tr&rclk=1",
    "website_url": "https://www.irrigarden-bo.it/",
    "rating_text": "4,7",
    "stars": null,
    "number_of_reviews": null,
    "price_level": "",
    "open_hours": "",
    "extraction_timestamp": "2025-06-07T15:55:44.215Z",
    "source_name": "google",
    "source_query": "Irrigation Equipment",
    "source_country": "IT",
    "country": "Italy",
    "state": "Emilia-Romagna",
    "city": "Marano sul Panaro"
  },
  {
    "source_id": "ChIJ7X35kma1KhMRf7gAyiKOIWY",
    "name": "Elettrica Soro di Soro Alessandro",
    "category": "Elettrica Soro di Soro Alessandro",
    "formatted_address": "5,0(12)",
    "phone_number": "+393278917115",
    "source_url": "https://www.google.com/maps/place/Elettrica+Soro+di+Soro+Alessandro/data=!4m7!3m6!1s0x132ab56692f97ded:0x66218e22ca00b87f!8m2!3d44.4623833!4d10.9720239!16s%2Fg%2F11fb0p2qmx!19sChIJ7X35kma1KhMRf7gAyiKOIWY?authuser=0&hl=tr&rclk=1",
    "website_url": "http://elettricasoro.com/",
    "rating_text": "5,0",
    "stars": null,
    "number_of_reviews": null,
    "price_level": "",
    "open_hours": "",
    "extraction_timestamp": "2025-06-07T15:55:44.216Z",
    "source_name": "google",
    "source_query": "Irrigation Equipment",
    "source_country": "IT",
    "country": "Italy",
    "state": "Emilia-Romagna",
    "city": "Marano sul Panaro"
  },
  {
    "source_id": "ChIJ-Z_RHvbnf0cRry0jCm7Q5GQ",
    "name": "Scova Impianti",
    "category": "Scova Impianti",
    "formatted_address": "4,0(4)",
    "phone_number": "+39059925910",
    "source_url": "https://www.google.com/maps/place/Scova+Impianti/data=!4m7!3m6!1s0x477fe7f61ed19ff9:0x64e4d06e0a232daf!8m2!3d44.6018937!4d11.0315223!16s%2Fg%2F1td6wznv!19sChIJ-Z_RHvbnf0cRry0jCm7Q5GQ?authuser=0&hl=tr&rclk=1",
    "website_url": "https://scovaimpianti.com/",
    "rating_text": "4,0",
    "stars": null,
    "number_of_reviews": null,
    "price_level": "",
    "open_hours": "",
    "extraction_timestamp": "2025-06-07T15:55:44.217Z",
    "source_name": "google",
    "source_query": "Irrigation Equipment",
    "source_country": "IT",
    "country": "Italy",
    "state": "Emilia-Romagna",
    "city": "Marano sul Panaro"
  },
  {
    "source_id": "ChIJAUxJ7j3df0cRV576jjhogAg",
    "name": "Aldrovandi Srl Sistemi Irrigazione",
    "category": "Aldrovandi Srl Sistemi Irrigazione",
    "formatted_address": "Sulama Ekipmanları Tedarikçisi · Via Giuseppe Verdi, 34Kalıcı olarak kapalı · +39 059 927676",
    "phone_number": "+39059927676",
    "source_url": "https://www.google.com/maps/place/Aldrovandi+Srl+Sistemi+Irrigazione/data=!4m7!3m6!1s0x477fdd3dee494c01:0x88068388efa9e57!8m2!3d44.59442!4d11.0592496!16s%2Fg%2F12hkr2kns!19sChIJAUxJ7j3df0cRV576jjhogAg?authuser=0&hl=tr&rclk=1",
    "website_url": "",
    "rating_text": "",
    "stars": null,
    "number_of_reviews": null,
    "price_level": "",
    "open_hours": "",
    "extraction_timestamp": "2025-06-07T15:55:44.218Z",
    "source_name": "google",
    "source_query": "Irrigation Equipment",
    "source_country": "IT",
    "country": "Italy",
    "state": "Emilia-Romagna",
    "city": "Marano sul Panaro"
  }
]
