[
  {
    "source_id": "ChIJUQVnGNnlfUcRX06L3qPFVoQ",
    "name": "Ampio di Chen Sumei",
    "category": "Ampio di Chen Sumei",
    "formatted_address": "2,9(14)",
    "phone_number": "",
    "source_url": "https://www.google.com/maps/place/Ampio+di+Chen+Sumei/data=!4m7!3m6!1s0x477de5d918670551:0x8456c5a3de8b4e5f!8m2!3d44.4862995!4d12.2823692!16s%2Fg%2F11rvk11s1n!19sChIJUQVnGNnlfUcRX06L3qPFVoQ?authuser=0&hl=tr&rclk=1",
    "website_url": "",
    "rating_text": "2,9",
    "stars": null,
    "number_of_reviews": null,
    "price_level": "",
    "open_hours": "",
    "extraction_timestamp": "2025-06-07T16:35:31.458Z",
    "source_name": "google",
    "source_query": "Irrigation Equipment",
    "source_country": "IT",
    "country": "Italy",
    "state": "Emilia-Romagna",
    "city": "Marina di Ravenna"
  },
  {
    "source_id": "ChIJsZlTlfX7fUcREm5oLvkUK-8",
    "name": "Nd Ferramenta a Marina di Ravenna",
    "category": "Nd Ferramenta a Marina di Ravenna",
    "formatted_address": "5,0(2)",
    "phone_number": "+390544472973",
    "source_url": "https://www.google.com/maps/place/Nd+Ferramenta+a+Marina+di+Ravenna/data=!4m7!3m6!1s0x477dfbf5955399b1:0xef2b14f92e686e12!8m2!3d44.4858003!4d12.2817851!16s%2Fg%2F11m5nl6tcj!19sChIJsZlTlfX7fUcREm5oLvkUK-8?authuser=0&hl=tr&rclk=1",
    "website_url": "",
    "rating_text": "5,0",
    "stars": null,
    "number_of_reviews": null,
    "price_level": "",
    "open_hours": "",
    "extraction_timestamp": "2025-06-07T16:35:31.463Z",
    "source_name": "google",
    "source_query": "Irrigation Equipment",
    "source_country": "IT",
    "country": "Italy",
    "state": "Emilia-Romagna",
    "city": "Marina di Ravenna"
  },
  {
    "source_id": "ChIJN9idQi3lfUcRIDyj6B3BjDo",
    "name": "Beach Tribe",
    "category": "Beach Tribe",
    "formatted_address": "4,3(26)",
    "phone_number": "+390544531153",
    "source_url": "https://www.google.com/maps/place/Beach+Tribe/data=!4m7!3m6!1s0x477de52d429dd837:0x3a8cc11de8a33c20!8m2!3d44.4873445!4d12.282267!16s%2Fg%2F1tfcxn5_!19sChIJN9idQi3lfUcRIDyj6B3BjDo?authuser=0&hl=tr&rclk=1",
    "website_url": "",
    "rating_text": "4,3",
    "stars": null,
    "number_of_reviews": null,
    "price_level": "",
    "open_hours": "",
    "extraction_timestamp": "2025-06-07T16:35:31.465Z",
    "source_name": "google",
    "source_query": "Irrigation Equipment",
    "source_country": "IT",
    "country": "Italy",
    "state": "Emilia-Romagna",
    "city": "Marina di Ravenna"
  },
  {
    "source_id": "ChIJi7qmgNz7fUcRb1p3xZzBUZ0",
    "name": "Gairsa Srl",
    "category": "Gairsa Srl",
    "formatted_address": "4,2(22)",
    "phone_number": "+390544421024",
    "source_url": "https://www.google.com/maps/place/Gairsa+Srl/data=!4m7!3m6!1s0x477dfbdc80a6ba8b:0x9d51c19cc5775a6f!8m2!3d44.4245561!4d12.2251123!16s%2Fg%2F1pzx3z5lm!19sChIJi7qmgNz7fUcRb1p3xZzBUZ0?authuser=0&hl=tr&rclk=1",
    "website_url": "",
    "rating_text": "4,2",
    "stars": null,
    "number_of_reviews": null,
    "price_level": "",
    "open_hours": "",
    "extraction_timestamp": "2025-06-07T16:35:31.467Z",
    "source_name": "google",
    "source_query": "Irrigation Equipment",
    "source_country": "IT",
    "country": "Italy",
    "state": "Emilia-Romagna",
    "city": "Marina di Ravenna"
  },
  {
    "source_id": "ChIJ3U7vZAv8fUcRKsjqNovawKI",
    "name": "Laghi Daniele",
    "category": "Laghi Daniele",
    "formatted_address": "4,5(83)",
    "phone_number": "+390544453102",
    "source_url": "https://www.google.com/maps/place/Laghi+Daniele/data=!4m7!3m6!1s0x477dfc0b64ef4edd:0xa2c0da8b36eac82a!8m2!3d44.437728!4d12.195777!16s%2Fg%2F11bxd806wz!19sChIJ3U7vZAv8fUcRKsjqNovawKI?authuser=0&hl=tr&rclk=1",
    "website_url": "",
    "rating_text": "4,5",
    "stars": null,
    "number_of_reviews": null,
    "price_level": "",
    "open_hours": "",
    "extraction_timestamp": "2025-06-07T16:35:31.469Z",
    "source_name": "google",
    "source_query": "Irrigation Equipment",
    "source_country": "IT",
    "country": "Italy",
    "state": "Emilia-Romagna",
    "city": "Marina di Ravenna"
  },
  {
    "source_id": "ChIJG4PqEIH-fUcR-S6aEJn9fVA",
    "name": "T.V.R. Attrezzature per La Pulizia Industriale",
    "category": "T.V.R. Attrezzature per La Pulizia Industriale",
    "formatted_address": "5,0(3)",
    "phone_number": "+393483509812",
    "source_url": "https://www.google.com/maps/place/T.V.R.+Attrezzature+per+La+Pulizia+Industriale/data=!4m7!3m6!1s0x477dfe8110ea831b:0x507dfd99109a2ef9!8m2!3d44.4205046!4d12.1518033!16s%2Fg%2F11b6hv6f30!19sChIJG4PqEIH-fUcR-S6aEJn9fVA?authuser=0&hl=tr&rclk=1",
    "website_url": "",
    "rating_text": "5,0",
    "stars": null,
    "number_of_reviews": null,
    "price_level": "",
    "open_hours": "",
    "extraction_timestamp": "2025-06-07T16:35:31.471Z",
    "source_name": "google",
    "source_query": "Irrigation Equipment",
    "source_country": "IT",
    "country": "Italy",
    "state": "Emilia-Romagna",
    "city": "Marina di Ravenna"
  },
  {
    "source_id": "ChIJPVMEA4P-fUcRVktdNSLKnAk",
    "name": "Idrometal S.r.l.",
    "category": "Idrometal S.r.l.",
    "formatted_address": "5,0(1)",
    "phone_number": "+390544200899",
    "source_url": "https://www.google.com/maps/place/Idrometal+S.r.l./data=!4m7!3m6!1s0x477dfe830304533d:0x99cca22355d4b56!8m2!3d44.4230188!4d12.1565164!16s%2Fg%2F11fzff25sv!19sChIJPVMEA4P-fUcRVktdNSLKnAk?authuser=0&hl=tr&rclk=1",
    "website_url": "",
    "rating_text": "5,0",
    "stars": null,
    "number_of_reviews": null,
    "price_level": "",
    "open_hours": "",
    "extraction_timestamp": "2025-06-07T16:35:31.473Z",
    "source_name": "google",
    "source_query": "Irrigation Equipment",
    "source_country": "IT",
    "country": "Italy",
    "state": "Emilia-Romagna",
    "city": "Marina di Ravenna"
  },
  {
    "source_id": "ChIJg6MB8kz5fUcRL7ggkV6R0dE",
    "name": "Aquasana Ravenna - Depurazione e Trattamento Acqua",
    "category": "Aquasana Ravenna - Depurazione e Trattamento Acqua",
    "formatted_address": "5,0(2)",
    "phone_number": "+39800909222",
    "source_url": "https://www.google.com/maps/place/Aquasana+Ravenna+-+Depurazione+e+Trattamento+Acqua/data=!4m7!3m6!1s0x477df94cf201a383:0xd1d1915e9120b82f!8m2!3d44.4088072!4d12.1913671!16s%2Fg%2F11dxhy_pfp!19sChIJg6MB8kz5fUcRL7ggkV6R0dE?authuser=0&hl=tr&rclk=1",
    "website_url": "",
    "rating_text": "5,0",
    "stars": null,
    "number_of_reviews": null,
    "price_level": "",
    "open_hours": "",
    "extraction_timestamp": "2025-06-07T16:35:31.475Z",
    "source_name": "google",
    "source_query": "Irrigation Equipment",
    "source_country": "IT",
    "country": "Italy",
    "state": "Emilia-Romagna",
    "city": "Marina di Ravenna"
  },
  {
    "source_id": "ChIJy4AVn9C-LBMRn6nsnuZl82A",
    "name": "Ramilli Irrigazioni S.R.L.",
    "category": "Ramilli Irrigazioni S.R.L.",
    "formatted_address": "4,3(52)",
    "phone_number": "+390541945335",
    "source_url": "https://www.google.com/maps/place/Ramilli+Irrigazioni+S.R.L./data=!4m7!3m6!1s0x132cbed09f1580cb:0x60f365e69eeca99f!8m2!3d44.0923156!4d12.3843691!16s%2Fg%2F1ts2ls1r!19sChIJy4AVn9C-LBMRn6nsnuZl82A?authuser=0&hl=tr&rclk=1",
    "website_url": "",
    "rating_text": "4,3",
    "stars": null,
    "number_of_reviews": null,
    "price_level": "",
    "open_hours": "",
    "extraction_timestamp": "2025-06-07T16:35:31.476Z",
    "source_name": "google",
    "source_query": "Irrigation Equipment",
    "source_country": "IT",
    "country": "Italy",
    "state": "Emilia-Romagna",
    "city": "Marina di Ravenna"
  },
  {
    "source_id": "ChIJWVpc_UsIfkcRhoP4-y30Q4s",
    "name": "Fitos",
    "category": "Fitos",
    "formatted_address": "4,5(11)",
    "phone_number": "+393392709525",
    "source_url": "https://www.google.com/maps/place/Fitos/data=!4m7!3m6!1s0x477e084bfd5c5a59:0x8b43f42dfbf88386!8m2!3d44.5358562!4d12.1206267!16s%2Fg%2F1tmqkmhp!19sChIJWVpc_UsIfkcRhoP4-y30Q4s?authuser=0&hl=tr&rclk=1",
    "website_url": "",
    "rating_text": "4,5",
    "stars": null,
    "number_of_reviews": null,
    "price_level": "",
    "open_hours": "",
    "extraction_timestamp": "2025-06-07T16:35:31.477Z",
    "source_name": "google",
    "source_query": "Irrigation Equipment",
    "source_country": "IT",
    "country": "Italy",
    "state": "Emilia-Romagna",
    "city": "Marina di Ravenna"
  },
  {
    "source_id": "ChIJh3Nd8G0sfkcR_m7VewEmxXM",
    "name": "Irrigarden",
    "category": "Irrigarden",
    "formatted_address": "4,7(158)",
    "phone_number": "+39051782013",
    "source_url": "https://www.google.com/maps/place/Irrigarden/data=!4m7!3m6!1s0x477e2c6df05d7387:0x73c526017bd56efe!8m2!3d44.5096266!4d11.4390897!16s%2Fg%2F1vgw_l7w!19sChIJh3Nd8G0sfkcR_m7VewEmxXM?authuser=0&hl=tr&rclk=1",
    "website_url": "",
    "rating_text": "4,7",
    "stars": null,
    "number_of_reviews": null,
    "price_level": "",
    "open_hours": "",
    "extraction_timestamp": "2025-06-07T16:35:31.479Z",
    "source_name": "google",
    "source_query": "Irrigation Equipment",
    "source_country": "IT",
    "country": "Italy",
    "state": "Emilia-Romagna",
    "city": "Marina di Ravenna"
  },
  {
    "source_id": "ChIJSVaxVC3lfUcRHPHymQDfMao",
    "name": "Supermercato CRAI",
    "category": "Supermercato CRAI",
    "formatted_address": "3,7(205)",
    "phone_number": "+3904232861",
    "source_url": "https://www.google.com/maps/place/Supermercato+CRAI/data=!4m7!3m6!1s0x477de52d54b15649:0xaa31df0099f2f11c!8m2!3d44.4861643!4d12.2820322!16s%2Fg%2F11crxn593y!19sChIJSVaxVC3lfUcRHPHymQDfMao?authuser=0&hl=tr&rclk=1",
    "website_url": "",
    "rating_text": "3,7",
    "stars": null,
    "number_of_reviews": null,
    "price_level": "",
    "open_hours": "",
    "extraction_timestamp": "2025-06-07T16:35:31.480Z",
    "source_name": "google",
    "source_query": "Irrigation Equipment",
    "source_country": "IT",
    "country": "Italy",
    "state": "Emilia-Romagna",
    "city": "Marina di Ravenna"
  },
  {
    "source_id": "ChIJr6aWSCmxLBMRFUDhIcwlYvI",
    "name": "Erre Ti technology SRL",
    "category": "Erre Ti technology SRL",
    "formatted_address": "5,0(5)",
    "phone_number": "+393470640151",
    "source_url": "https://www.google.com/maps/place/Erre+Ti+technology+SRL/data=!4m7!3m6!1s0x132cb1294896a6af:0xf26225cc21e14015!8m2!3d44.2212285!4d12.3408397!16s%2Fg%2F11b7ff8jlw!19sChIJr6aWSCmxLBMRFUDhIcwlYvI?authuser=0&hl=tr&rclk=1",
    "website_url": "",
    "rating_text": "5,0",
    "stars": null,
    "number_of_reviews": null,
    "price_level": "",
    "open_hours": "",
    "extraction_timestamp": "2025-06-07T16:35:31.482Z",
    "source_name": "google",
    "source_query": "Irrigation Equipment",
    "source_country": "IT",
    "country": "Italy",
    "state": "Emilia-Romagna",
    "city": "Marina di Ravenna"
  },
  {
    "source_id": "ChIJtVDkNgRFgEcRqc6umwWIJuI",
    "name": "Rm Spa",
    "category": "Rm Spa",
    "formatted_address": "4,6(81)",
    "phone_number": "+390521872321",
    "source_url": "https://www.google.com/maps/place/Rm+Spa/data=!4m7!3m6!1s0x4780450436e450b5:0xe22688059baecea9!8m2!3d44.9105406!4d10.2583785!16s%2Fg%2F12hl93byl!19sChIJtVDkNgRFgEcRqc6umwWIJuI?authuser=0&hl=tr&rclk=1",
    "website_url": "",
    "rating_text": "4,6",
    "stars": null,
    "number_of_reviews": null,
    "price_level": "",
    "open_hours": "",
    "extraction_timestamp": "2025-06-07T16:35:31.483Z",
    "source_name": "google",
    "source_query": "Irrigation Equipment",
    "source_country": "IT",
    "country": "Italy",
    "state": "Emilia-Romagna",
    "city": "Marina di Ravenna"
  },
  {
    "source_id": "ChIJgdJc4C3lfUcR9iSVK3FWg80",
    "name": "Minimarket Coop",
    "category": "Minimarket Coop",
    "formatted_address": "3,4(144)",
    "phone_number": "+390544530326",
    "source_url": "https://www.google.com/maps/place/Minimarket+Coop/data=!4m7!3m6!1s0x477de52de05cd281:0xcd8356712b9524f6!8m2!3d44.4903191!4d12.2837963!16s%2Fg%2F11bbrgp028!19sChIJgdJc4C3lfUcR9iSVK3FWg80?authuser=0&hl=tr&rclk=1",
    "website_url": "",
    "rating_text": "3,4",
    "stars": null,
    "number_of_reviews": null,
    "price_level": "",
    "open_hours": "",
    "extraction_timestamp": "2025-06-07T16:35:31.484Z",
    "source_name": "google",
    "source_query": "Irrigation Equipment",
    "source_country": "IT",
    "country": "Italy",
    "state": "Emilia-Romagna",
    "city": "Marina di Ravenna"
  },
  {
    "source_id": "ChIJFbBBIXzlfUcRvAiyK13OQc0",
    "name": "Spiaggia Marina Romea",
    "category": "Spiaggia Marina Romea",
    "formatted_address": "4,4(40)",
    "phone_number": "",
    "source_url": "https://www.google.com/maps/place/Spiaggia+Marina+Romea/data=!4m7!3m6!1s0x477de57c2141b015:0xcd41ce5d2bb208bc!8m2!3d44.5047091!4d12.2825944!16s%2Fg%2F11fjy4l_s6!19sChIJFbBBIXzlfUcRvAiyK13OQc0?authuser=0&hl=tr&rclk=1",
    "website_url": "",
    "rating_text": "4,4",
    "stars": null,
    "number_of_reviews": null,
    "price_level": "",
    "open_hours": "",
    "extraction_timestamp": "2025-06-07T16:35:31.485Z",
    "source_name": "google",
    "source_query": "Irrigation Equipment",
    "source_country": "IT",
    "country": "Italy",
    "state": "Emilia-Romagna",
    "city": "Marina di Ravenna"
  },
  {
    "source_id": "ChIJFW3XPJejLBMRDpQWGwmYqU4",
    "name": "Raggini Irrigazioni e Robot Tosaerba",
    "category": "Raggini Irrigazioni e Robot Tosaerba",
    "formatted_address": "5,0(1)",
    "phone_number": "+393926808947",
    "source_url": "https://www.google.com/maps/place/Raggini+Irrigazioni+e+Robot+Tosaerba/data=!4m7!3m6!1s0x132ca3973cd76d15:0x4ea998091b16940e!8m2!3d44.36369!4d11.8460774!16s%2Fg%2F11dz0bbs9t!19sChIJFW3XPJejLBMRDpQWGwmYqU4?authuser=0&hl=tr&rclk=1",
    "website_url": "",
    "rating_text": "5,0",
    "stars": null,
    "number_of_reviews": null,
    "price_level": "",
    "open_hours": "",
    "extraction_timestamp": "2025-06-07T16:35:31.487Z",
    "source_name": "google",
    "source_query": "Irrigation Equipment",
    "source_country": "IT",
    "country": "Italy",
    "state": "Emilia-Romagna",
    "city": "Marina di Ravenna"
  }
]
