[
  {
    "source_id": "ChIJ_SYf2IMsfkcRVw9xVhrnjyI",
    "name": "Irrigazione Bragaglia",
    "category": "Irrigazione Bragaglia",
    "formatted_address": "4,7(30)",
    "phone_number": "+39051534865",
    "source_url": "https://www.google.com/maps/place/Irrigazione+Bragaglia/data=!4m7!3m6!1s0x477e2c83d81f26fd:0x228fe71a56710f57!8m2!3d44.5053735!4d11.412403!16s%2Fg%2F1vp6z0gf!19sChIJ_SYf2IMsfkcRVw9xVhrnjyI?authuser=0&hl=tr&rclk=1",
    "website_url": "http://www.irrigazionebragaglia.it/",
    "rating_text": "4,7",
    "stars": null,
    "number_of_reviews": null,
    "price_level": "",
    "open_hours": "",
    "extraction_timestamp": "2025-06-07T17:03:48.523Z",
    "source_name": "google",
    "source_query": "Irrigation Equipment",
    "source_country": "IT",
    "country": "Italy",
    "state": "Emilia-Romagna",
    "city": "Marzabotto"
  },
  {
    "source_id": "ChIJE_3jOnMtfkcRkxtTFj3Ym9E",
    "name": "Irrigation Scarabelli Srl",
    "category": "Irrigation Scarabelli Srl",
    "formatted_address": "4,5(23)",
    "phone_number": "+39051763363",
    "source_url": "https://www.google.com/maps/place/Irrigation+Scarabelli+Srl/data=!4m7!3m6!1s0x477e2d733ae3fd13:0xd19bd83d16531b93!8m2!3d44.5426053!4d11.4189136!16s%2Fg%2F11gzdz6vf!19sChIJE_3jOnMtfkcRkxtTFj3Ym9E?authuser=0&hl=tr&rclk=1",
    "website_url": "",
    "rating_text": "4,5",
    "stars": null,
    "number_of_reviews": null,
    "price_level": "",
    "open_hours": "",
    "extraction_timestamp": "2025-06-07T17:03:48.524Z",
    "source_name": "google",
    "source_query": "Irrigation Equipment",
    "source_country": "IT",
    "country": "Italy",
    "state": "Emilia-Romagna",
    "city": "Marzabotto"
  },
  {
    "source_id": "ChIJqdtsqMTaf0cRFSqvzNBB5Tw",
    "name": "Ricchetti Irrigazione Snc Di Alberghini Paolo E C.",
    "category": "Ricchetti Irrigazione Snc Di Alberghini Paolo E C.",
    "formatted_address": "4,9(31)",
    "phone_number": "+39051950115",
    "source_url": "https://www.google.com/maps/place/Ricchetti+Irrigazione+Snc+Di+Alberghini+Paolo+E+C./data=!4m7!3m6!1s0x477fdac4a86cdba9:0x3ce541d0ccaf2a15!8m2!3d44.5883369!4d11.1803569!16s%2Fg%2F1vfn5hgh!19sChIJqdtsqMTaf0cRFSqvzNBB5Tw?authuser=0&hl=tr&rclk=1",
    "website_url": "http://www.ricchetti-irrigatori.it/",
    "rating_text": "4,9",
    "stars": null,
    "number_of_reviews": null,
    "price_level": "",
    "open_hours": "",
    "extraction_timestamp": "2025-06-07T17:03:48.526Z",
    "source_name": "google",
    "source_query": "Irrigation Equipment",
    "source_country": "IT",
    "country": "Italy",
    "state": "Emilia-Romagna",
    "city": "Marzabotto"
  },
  {
    "source_id": "ChIJYz4WPInRKhMRoewSe1-vEs8",
    "name": "Figli di Laffi di Laffi Marco e Gianpietro S.n.c.",
    "category": "Figli di Laffi di Laffi Marco e Gianpietro S.n.c.",
    "formatted_address": "4,7(20)",
    "phone_number": "+393479821876",
    "source_url": "https://www.google.com/maps/place/Figli+di+Laffi+di+Laffi+Marco+e+Gianpietro+S.n.c./data=!4m7!3m6!1s0x132ad1893c163e63:0xcf12af5f7b12eca1!8m2!3d44.3407097!4d11.2047271!16s%2Fg%2F11fjz7188d!19sChIJYz4WPInRKhMRoewSe1-vEs8?authuser=0&hl=tr&rclk=1",
    "website_url": "",
    "rating_text": "4,7",
    "stars": null,
    "number_of_reviews": null,
    "price_level": "",
    "open_hours": "",
    "extraction_timestamp": "2025-06-07T17:03:48.528Z",
    "source_name": "google",
    "source_query": "Irrigation Equipment",
    "source_country": "IT",
    "country": "Italy",
    "state": "Emilia-Romagna",
    "city": "Marzabotto"
  },
  {
    "source_id": "ChIJcQG6ul7df0cR3VxKiu5OPBs",
    "name": "Scova Impianti Srl",
    "category": "Scova Impianti Srl",
    "formatted_address": "4,5(64)",
    "phone_number": "+39059923202",
    "source_url": "https://www.google.com/maps/place/Scova+Impianti+Srl/data=!4m7!3m6!1s0x477fdd5ebaba0171:0x1b3c4eee8a4a5cdd!8m2!3d44.6018135!4d11.032294!16s%2Fg%2F1tfzwbfb!19sChIJcQG6ul7df0cR3VxKiu5OPBs?authuser=0&hl=tr&rclk=1",
    "website_url": "https://www.scovaimpianti.com/",
    "rating_text": "4,5",
    "stars": null,
    "number_of_reviews": null,
    "price_level": "",
    "open_hours": "",
    "extraction_timestamp": "2025-06-07T17:03:48.530Z",
    "source_name": "google",
    "source_query": "Irrigation Equipment",
    "source_country": "IT",
    "country": "Italy",
    "state": "Emilia-Romagna",
    "city": "Marzabotto"
  },
  {
    "source_id": "ChIJh3Nd8G0sfkcR_m7VewEmxXM",
    "name": "Irrigarden",
    "category": "Irrigarden",
    "formatted_address": "4,7(158)",
    "phone_number": "+39051782013",
    "source_url": "https://www.google.com/maps/place/Irrigarden/data=!4m7!3m6!1s0x477e2c6df05d7387:0x73c526017bd56efe!8m2!3d44.5096266!4d11.4390897!16s%2Fg%2F1vgw_l7w!19sChIJh3Nd8G0sfkcR_m7VewEmxXM?authuser=0&hl=tr&rclk=1",
    "website_url": "https://www.irrigarden-bo.it/",
    "rating_text": "4,7",
    "stars": null,
    "number_of_reviews": null,
    "price_level": "",
    "open_hours": "",
    "extraction_timestamp": "2025-06-07T17:03:48.531Z",
    "source_name": "google",
    "source_query": "Irrigation Equipment",
    "source_country": "IT",
    "country": "Italy",
    "state": "Emilia-Romagna",
    "city": "Marzabotto"
  },
  {
    "source_id": "ChIJyXgg68QrfkcRAaJCOMJ3PxY",
    "name": "hidrisistem",
    "category": "hidrisistem",
    "formatted_address": "5,0(1)",
    "phone_number": "+39366448310824",
    "source_url": "https://www.google.com/maps/place/hidrisistem/data=!4m7!3m6!1s0x477e2bc4eb2078c9:0x163f77c23842a201!8m2!3d44.496029!4d11.402638!16s%2Fg%2F11w_zjhjy3!19sChIJyXgg68QrfkcRAaJCOMJ3PxY?authuser=0&hl=tr&rclk=1",
    "website_url": "",
    "rating_text": "5,0",
    "stars": null,
    "number_of_reviews": null,
    "price_level": "",
    "open_hours": "",
    "extraction_timestamp": "2025-06-07T17:03:48.533Z",
    "source_name": "google",
    "source_query": "Irrigation Equipment",
    "source_country": "IT",
    "country": "Italy",
    "state": "Emilia-Romagna",
    "city": "Marzabotto"
  },
  {
    "source_id": "ChIJhT-kpAXff0cRKJQqKYwIulA",
    "name": "Irrigo",
    "category": "Irrigo",
    "formatted_address": "4,7(36)",
    "phone_number": "+393473096499",
    "source_url": "https://www.google.com/maps/place/Irrigo/data=!4m7!3m6!1s0x477fdf05a4a43f85:0x50ba088c292a9428!8m2!3d44.5018172!4d11.005272!16s%2Fg%2F11hdjcp5pk!19sChIJhT-kpAXff0cRKJQqKYwIulA?authuser=0&hl=tr&rclk=1",
    "website_url": "https://www.irrigovignola.it/",
    "rating_text": "4,7",
    "stars": null,
    "number_of_reviews": null,
    "price_level": "",
    "open_hours": "",
    "extraction_timestamp": "2025-06-07T17:03:48.534Z",
    "source_name": "google",
    "source_query": "Irrigation Equipment",
    "source_country": "IT",
    "country": "Italy",
    "state": "Emilia-Romagna",
    "city": "Marzabotto"
  },
  {
    "source_id": "ChIJtVDkNgRFgEcRqc6umwWIJuI",
    "name": "Rm Spa",
    "category": "Rm Spa",
    "formatted_address": "4,6(81)",
    "phone_number": "+390521872321",
    "source_url": "https://www.google.com/maps/place/Rm+Spa/data=!4m7!3m6!1s0x4780450436e450b5:0xe22688059baecea9!8m2!3d44.9105406!4d10.2583785!16s%2Fg%2F12hl93byl!19sChIJtVDkNgRFgEcRqc6umwWIJuI?authuser=0&hl=tr&rclk=1",
    "website_url": "http://www.rmirrigation.com/",
    "rating_text": "4,6",
    "stars": null,
    "number_of_reviews": null,
    "price_level": "",
    "open_hours": "",
    "extraction_timestamp": "2025-06-07T17:03:48.536Z",
    "source_name": "google",
    "source_query": "Irrigation Equipment",
    "source_country": "IT",
    "country": "Italy",
    "state": "Emilia-Romagna",
    "city": "Marzabotto"
  },
  {
    "source_id": "ChIJJ6V6lMDgf0cR1SpFsfjDuHg",
    "name": "Ocmis Irrigazione Spa",
    "category": "Ocmis Irrigazione Spa",
    "formatted_address": "3,5(31)",
    "phone_number": "+39059702150",
    "source_url": "https://www.google.com/maps/place/Ocmis+Irrigazione+Spa/data=!4m7!3m6!1s0x477fe0c0947aa527:0x78b8c3f8b1452ad5!8m2!3d44.530494!4d10.9794578!16s%2Fg%2F1vd3tn19!19sChIJJ6V6lMDgf0cR1SpFsfjDuHg?authuser=0&hl=tr&rclk=1",
    "website_url": "http://www.ocmis-irrigazione.it/",
    "rating_text": "3,5",
    "stars": null,
    "number_of_reviews": null,
    "price_level": "",
    "open_hours": "",
    "extraction_timestamp": "2025-06-07T17:03:48.538Z",
    "source_name": "google",
    "source_query": "Irrigation Equipment",
    "source_country": "IT",
    "country": "Italy",
    "state": "Emilia-Romagna",
    "city": "Marzabotto"
  },
  {
    "source_id": "ChIJj6lqi20sfkcRzOHfxextuA0",
    "name": "La Pioggia",
    "category": "La Pioggia",
    "formatted_address": "4,6(54)",
    "phone_number": "+39051781194",
    "source_url": "https://www.google.com/maps/place/La+Pioggia/data=!4m7!3m6!1s0x477e2c6d8b6aa98f:0xdb86decc5dfe1cc!8m2!3d44.5092215!4d11.4394615!16s%2Fg%2F1tffc0h0!19sChIJj6lqi20sfkcRzOHfxextuA0?authuser=0&hl=tr&rclk=1",
    "website_url": "http://www.lapioggia.it/",
    "rating_text": "4,6",
    "stars": null,
    "number_of_reviews": null,
    "price_level": "",
    "open_hours": "",
    "extraction_timestamp": "2025-06-07T17:03:48.539Z",
    "source_name": "google",
    "source_query": "Irrigation Equipment",
    "source_country": "IT",
    "country": "Italy",
    "state": "Emilia-Romagna",
    "city": "Marzabotto"
  },
  {
    "source_id": "ChIJCXuseTHTf0cRzptQ0pGelFU",
    "name": "Alpe Hydraulic Systems Water Meters",
    "category": "Alpe Hydraulic Systems Water Meters",
    "formatted_address": "Su Hizmeti Sağlayıcısı · Via del Gomito, 23+39 051 326854",
    "phone_number": "+39051326854",
    "source_url": "https://www.google.com/maps/place/Alpe+Hydraulic+Systems+Water+Meters/data=!4m7!3m6!1s0x477fd33179ac7b09:0x55949e91d2509bce!8m2!3d44.531701!4d11.3753288!16s%2Fg%2F1tjt0slq!19sChIJCXuseTHTf0cRzptQ0pGelFU?authuser=0&hl=tr&rclk=1",
    "website_url": "http://www.ahs.it/",
    "rating_text": "",
    "stars": null,
    "number_of_reviews": null,
    "price_level": "",
    "open_hours": "",
    "extraction_timestamp": "2025-06-07T17:03:48.540Z",
    "source_name": "google",
    "source_query": "Irrigation Equipment",
    "source_country": "IT",
    "country": "Italy",
    "state": "Emilia-Romagna",
    "city": "Marzabotto"
  },
  {
    "source_id": "ChIJXWrphKnRKhMRE6pUvY4hBgk",
    "name": "Alimentari Paolo Degli Esposti",
    "category": "Alimentari Paolo Degli Esposti",
    "formatted_address": "4,8(57)",
    "phone_number": "+39051932737",
    "source_url": "https://www.google.com/maps/place/Alimentari+Paolo+Degli+Esposti/data=!4m7!3m6!1s0x132ad1a984e96a5d:0x906218ebd54aa13!8m2!3d44.3419412!4d11.2047813!16s%2Fg%2F1tdqwzgt!19sChIJXWrphKnRKhMRE6pUvY4hBgk?authuser=0&hl=tr&rclk=1",
    "website_url": "",
    "rating_text": "4,8",
    "stars": null,
    "number_of_reviews": null,
    "price_level": "",
    "open_hours": "",
    "extraction_timestamp": "2025-06-07T17:03:48.542Z",
    "source_name": "google",
    "source_query": "Irrigation Equipment",
    "source_country": "IT",
    "country": "Italy",
    "state": "Emilia-Romagna",
    "city": "Marzabotto"
  },
  {
    "source_id": "ChIJibIqw6nRKhMRErOKWfmLGL8",
    "name": "Coop",
    "category": "Coop",
    "formatted_address": "3,7(117)",
    "phone_number": "+390518906965",
    "source_url": "https://www.google.com/maps/place/Coop/data=!4m7!3m6!1s0x132ad1a9c32ab289:0xbf188bf9598ab312!8m2!3d44.3421429!4d11.2062687!16s%2Fg%2F11bbrk616l!19sChIJibIqw6nRKhMRErOKWfmLGL8?authuser=0&hl=tr&rclk=1",
    "website_url": "http://www.e-coop.it/punti-vendita-dettaglio?id=4171",
    "rating_text": "3,7",
    "stars": null,
    "number_of_reviews": null,
    "price_level": "",
    "open_hours": "",
    "extraction_timestamp": "2025-06-07T17:03:48.543Z",
    "source_name": "google",
    "source_query": "Irrigation Equipment",
    "source_country": "IT",
    "country": "Italy",
    "state": "Emilia-Romagna",
    "city": "Marzabotto"
  },
  {
    "source_id": "ChIJSSMzGN4pfkcRxNrEMhpqts8",
    "name": "Hydro Ware srl",
    "category": "Hydro Ware srl",
    "formatted_address": "4,5(2)",
    "phone_number": "+390510404329",
    "source_url": "https://www.google.com/maps/place/Hydro+Ware+srl/data=!4m7!3m6!1s0x477e29de18332349:0xcfb66a1a32c4dac4!8m2!3d44.4442053!4d11.4850842!16s%2Fg%2F11h55y8w7d!19sChIJSSMzGN4pfkcRxNrEMhpqts8?authuser=0&hl=tr&rclk=1",
    "website_url": "http://www.hydroware.it/it/",
    "rating_text": "4,5",
    "stars": null,
    "number_of_reviews": null,
    "price_level": "",
    "open_hours": "",
    "extraction_timestamp": "2025-06-07T17:03:48.545Z",
    "source_name": "google",
    "source_query": "Irrigation Equipment",
    "source_country": "IT",
    "country": "Italy",
    "state": "Emilia-Romagna",
    "city": "Marzabotto"
  },
  {
    "source_id": "ChIJ9wMJV3IlfkcRWRdzdhVtwlQ",
    "name": "Bilacchi Irrigazione S.A.S. di Bilacchi Simone & C.",
    "category": "Bilacchi Irrigazione S.A.S. di Bilacchi Simone & C.",
    "formatted_address": "4,0(7)",
    "phone_number": "+393397998443",
    "source_url": "https://www.google.com/maps/place/Bilacchi+Irrigazione+S.A.S.+di+Bilacchi+Simone+%26+C./data=!4m7!3m6!1s0x477e2572570903f7:0x54c26d1576731759!8m2!3d44.4799432!4d11.6323261!16s%2Fg%2F11rk4fchy5!19sChIJ9wMJV3IlfkcRWRdzdhVtwlQ?authuser=0&hl=tr&rclk=1",
    "website_url": "https://irrigazionebilacchi.it/",
    "rating_text": "4,0",
    "stars": null,
    "number_of_reviews": null,
    "price_level": "",
    "open_hours": "",
    "extraction_timestamp": "2025-06-07T17:03:48.546Z",
    "source_name": "google",
    "source_query": "Irrigation Equipment",
    "source_country": "IT",
    "country": "Italy",
    "state": "Emilia-Romagna",
    "city": "Marzabotto"
  },
  {
    "source_id": "ChIJ-Z_RHvbnf0cRry0jCm7Q5GQ",
    "name": "Scova Impianti",
    "category": "Scova Impianti",
    "formatted_address": "4,0(4)",
    "phone_number": "+39059925910",
    "source_url": "https://www.google.com/maps/place/Scova+Impianti/data=!4m7!3m6!1s0x477fe7f61ed19ff9:0x64e4d06e0a232daf!8m2!3d44.6018937!4d11.0315223!16s%2Fg%2F1td6wznv!19sChIJ-Z_RHvbnf0cRry0jCm7Q5GQ?authuser=0&hl=tr&rclk=1",
    "website_url": "https://scovaimpianti.com/",
    "rating_text": "4,0",
    "stars": null,
    "number_of_reviews": null,
    "price_level": "",
    "open_hours": "",
    "extraction_timestamp": "2025-06-07T17:03:48.547Z",
    "source_name": "google",
    "source_query": "Irrigation Equipment",
    "source_country": "IT",
    "country": "Italy",
    "state": "Emilia-Romagna",
    "city": "Marzabotto"
  },
  {
    "source_id": "ChIJtdJC5j6Zf0cRmmVcuMyNEW0",
    "name": "Tadei | Impianti irrigazione | Robot tagliaerba | Barbecue | Outdoor",
    "category": "Tadei | Impianti irrigazione | Robot tagliaerba | Barbecue | Outdoor",
    "formatted_address": "4,6(69)",
    "phone_number": "+390386733460",
    "source_url": "https://www.google.com/maps/place/Tadei+%7C+Impianti+irrigazione+%7C+Robot+tagliaerba+%7C+Barbecue+%7C+Outdoor/data=!4m7!3m6!1s0x477f993ee642d2b5:0x6d118dccb85c659a!8m2!3d44.9680645!4d11.1076526!16s%2Fg%2F113dpgnd_!19sChIJtdJC5j6Zf0cRmmVcuMyNEW0?authuser=0&hl=tr&rclk=1",
    "website_url": "https://www.irrigazionetadei.it/",
    "rating_text": "4,6",
    "stars": null,
    "number_of_reviews": null,
    "price_level": "",
    "open_hours": "",
    "extraction_timestamp": "2025-06-07T17:03:48.548Z",
    "source_name": "google",
    "source_query": "Irrigation Equipment",
    "source_country": "IT",
    "country": "Italy",
    "state": "Emilia-Romagna",
    "city": "Marzabotto"
  },
  {
    "source_id": "ChIJQ8fJol1SKxMRShirn3slxH4",
    "name": "Tecnir",
    "category": "Tecnir",
    "formatted_address": "4,4(17)",
    "phone_number": "+390546641026",
    "source_url": "https://www.google.com/maps/place/Tecnir/data=!4m7!3m6!1s0x132b525da2c9c743:0x7ec4257b9fab184a!8m2!3d44.363732!4d11.935557!16s%2Fg%2F1vfps_3m!19sChIJQ8fJol1SKxMRShirn3slxH4?authuser=0&hl=tr&rclk=1",
    "website_url": "https://www.tecnirirrigazione.it/",
    "rating_text": "4,4",
    "stars": null,
    "number_of_reviews": null,
    "price_level": "",
    "open_hours": "",
    "extraction_timestamp": "2025-06-07T17:03:48.549Z",
    "source_name": "google",
    "source_query": "Irrigation Equipment",
    "source_country": "IT",
    "country": "Italy",
    "state": "Emilia-Romagna",
    "city": "Marzabotto"
  },
  {
    "source_id": "ChIJCf5GXp9ywgwRjOaHi3EuOyk",
    "name": "T.R.I. italia srl irrigazione",
    "category": "T.R.I. italia srl irrigazione",
    "formatted_address": "",
    "phone_number": "+393492227322",
    "source_url": "https://www.google.com/maps/place/T.R.I.+italia+srl+irrigazione/data=!4m7!3m6!1s0xcc2729f5e46fe09:0x293b2e718b87e68c!8m2!3d41.29085!4d12.71216!16s%2Fg%2F11wqp9bx1c!19sChIJCf5GXp9ywgwRjOaHi3EuOyk?authuser=0&hl=tr&rclk=1",
    "website_url": "",
    "rating_text": "",
    "stars": null,
    "number_of_reviews": null,
    "price_level": "",
    "open_hours": "",
    "extraction_timestamp": "2025-06-07T17:03:48.551Z",
    "source_name": "google",
    "source_query": "Irrigation Equipment",
    "source_country": "IT",
    "country": "Italy",
    "state": "Emilia-Romagna",
    "city": "Marzabotto"
  },
  {
    "source_id": "ChIJAdruoW0cgEcR3Gg91KmmNQw",
    "name": "Kramp Italia",
    "category": "Kramp Italia",
    "formatted_address": "4,7(18)",
    "phone_number": "+3905221712630",
    "source_url": "https://www.google.com/maps/place/Kramp+Italia/data=!4m7!3m6!1s0x47801c6da1eeda01:0xc35a6a9d43d68dc!8m2!3d44.711173!4d10.7080676!16s%2Fg%2F1hc4fppvw!19sChIJAdruoW0cgEcR3Gg91KmmNQw?authuser=0&hl=tr&rclk=1",
    "website_url": "https://www.kramp.com/shop-it/it?utm_source=google&utm_medium=organic&utm_campaign=gmb&utm_content=website",
    "rating_text": "4,7",
    "stars": null,
    "number_of_reviews": null,
    "price_level": "",
    "open_hours": "",
    "extraction_timestamp": "2025-06-07T17:03:48.552Z",
    "source_name": "google",
    "source_query": "Irrigation Equipment",
    "source_country": "IT",
    "country": "Italy",
    "state": "Emilia-Romagna",
    "city": "Marzabotto"
  },
  {
    "source_id": "ChIJYfWSQufWf0cR5zTMzyoJeRg",
    "name": "Marzocchi Pompe S.p.A. Headquarters",
    "category": "Marzocchi Pompe S.p.A. Headquarters",
    "formatted_address": "4,6(15)",
    "phone_number": "+390516137511",
    "source_url": "https://www.google.com/maps/place/Marzocchi+Pompe+S.p.A.+Headquarters/data=!4m7!3m6!1s0x477fd6e74292f561:0x1879092acfcc34e7!8m2!3d44.5010068!4d11.2355006!16s%2Fg%2F11c56by3z8!19sChIJYfWSQufWf0cR5zTMzyoJeRg?authuser=0&hl=tr&rclk=1",
    "website_url": "http://www.marzocchipompe.com/",
    "rating_text": "4,6",
    "stars": null,
    "number_of_reviews": null,
    "price_level": "",
    "open_hours": "",
    "extraction_timestamp": "2025-06-07T17:03:48.553Z",
    "source_name": "google",
    "source_query": "Irrigation Equipment",
    "source_country": "IT",
    "country": "Italy",
    "state": "Emilia-Romagna",
    "city": "Marzabotto"
  },
  {
    "source_id": "ChIJRTfJkFgrfkcROAgs4fAwi90",
    "name": "Tecnomat",
    "category": "Tecnomat",
    "formatted_address": "4,3(7.142)",
    "phone_number": "+390283905463",
    "source_url": "https://www.google.com/maps/place/Tecnomat/data=!4m7!3m6!1s0x477e2b5890c93745:0xdd8b30f0e12c0838!8m2!3d44.5047222!4d11.3869444!16s%2Fg%2F1q62m6z7l!19sChIJRTfJkFgrfkcROAgs4fAwi90?authuser=0&hl=tr&rclk=1",
    "website_url": "https://www.tecnomat.it/it/n/bologna/?utm_campaign=BOLOGNA_negozio_GMB&utm_content=sito_web&utm_medium=google_my_business&utm_source=google&utm_term=sito_web_BOLOGNA_GMB",
    "rating_text": "4,3",
    "stars": null,
    "number_of_reviews": null,
    "price_level": "",
    "open_hours": "",
    "extraction_timestamp": "2025-06-07T17:03:48.556Z",
    "source_name": "google",
    "source_query": "Irrigation Equipment",
    "source_country": "IT",
    "country": "Italy",
    "state": "Emilia-Romagna",
    "city": "Marzabotto"
  },
  {
    "source_id": "ChIJvbBU8onnf0cRPQohczz7vW0",
    "name": "Zenit Italia",
    "category": "Zenit Italia",
    "formatted_address": "4,4(42)",
    "phone_number": "+39059950611",
    "source_url": "https://www.google.com/maps/place/Zenit+Italia/data=!4m7!3m6!1s0x477fe789f254b0bd:0x6dbdfb3c73210a3d!8m2!3d44.5916183!4d11.0267414!16s%2Fg%2F1tg77x9h!19sChIJvbBU8onnf0cRPQohczz7vW0?authuser=0&hl=tr&rclk=1",
    "website_url": "http://www.zenit.com/",
    "rating_text": "4,4",
    "stars": null,
    "number_of_reviews": null,
    "price_level": "",
    "open_hours": "",
    "extraction_timestamp": "2025-06-07T17:03:48.557Z",
    "source_name": "google",
    "source_query": "Irrigation Equipment",
    "source_country": "IT",
    "country": "Italy",
    "state": "Emilia-Romagna",
    "city": "Marzabotto"
  },
  {
    "source_id": "ChIJazMFRdLFKhMRvI4mTJoZkRw",
    "name": "Mato Srl",
    "category": "Mato Srl",
    "formatted_address": "4,7(7)",
    "phone_number": "+393493035039",
    "source_url": "https://www.google.com/maps/place/Mato+Srl/data=!4m7!3m6!1s0x132ac5d24505336b:0x1c91199a4c268ebc!8m2!3d44.2891758!4d11.0933892!16s%2Fg%2F11h_ms0ms9!19sChIJazMFRdLFKhMRvI4mTJoZkRw?authuser=0&hl=tr&rclk=1",
    "website_url": "https://matosrl.com/",
    "rating_text": "4,7",
    "stars": null,
    "number_of_reviews": null,
    "price_level": "",
    "open_hours": "",
    "extraction_timestamp": "2025-06-07T17:03:48.559Z",
    "source_name": "google",
    "source_query": "Irrigation Equipment",
    "source_country": "IT",
    "country": "Italy",
    "state": "Emilia-Romagna",
    "city": "Marzabotto"
  },
  {
    "source_id": "ChIJ7yzfH9Dff0cRJzwApVzDMC0",
    "name": "Mescoli Caldaie Srl",
    "category": "Mescoli Caldaie Srl",
    "formatted_address": "3,9(39)",
    "phone_number": "+39059772733",
    "source_url": "https://www.google.com/maps/place/Mescoli+Caldaie+Srl/data=!4m7!3m6!1s0x477fdfd01fdf2cef:0x2d30c35ca5003c27!8m2!3d44.498448!4d11.0021417!16s%2Fg%2F1tdzkdts!19sChIJ7yzfH9Dff0cRJzwApVzDMC0?authuser=0&hl=tr&rclk=1",
    "website_url": "http://www.mescolicaldaie.it/",
    "rating_text": "3,9",
    "stars": null,
    "number_of_reviews": null,
    "price_level": "",
    "open_hours": "",
    "extraction_timestamp": "2025-06-07T17:03:48.560Z",
    "source_name": "google",
    "source_query": "Irrigation Equipment",
    "source_country": "IT",
    "country": "Italy",
    "state": "Emilia-Romagna",
    "city": "Marzabotto"
  },
  {
    "source_id": "ChIJnTMseWMrfkcROkZnl9Ut3MM",
    "name": "Supreme Compression Fittings Quapus Srl",
    "category": "Supreme Compression Fittings Quapus Srl",
    "formatted_address": "4,6(9)",
    "phone_number": "+390516053557",
    "source_url": "https://www.google.com/maps/place/Supreme+Compression+Fittings+Quapus+Srl/data=!4m7!3m6!1s0x477e2b63792c339d:0xc3dc2dd59767463a!8m2!3d44.4986604!4d11.4240626!16s%2Fg%2F1ptw88990!19sChIJnTMseWMrfkcROkZnl9Ut3MM?authuser=0&hl=tr&rclk=1",
    "website_url": "https://www.supreme-systems.net/",
    "rating_text": "4,6",
    "stars": null,
    "number_of_reviews": null,
    "price_level": "",
    "open_hours": "",
    "extraction_timestamp": "2025-06-07T17:03:48.561Z",
    "source_name": "google",
    "source_query": "Irrigation Equipment",
    "source_country": "IT",
    "country": "Italy",
    "state": "Emilia-Romagna",
    "city": "Marzabotto"
  },
  {
    "source_id": "ChIJCfGZUN1bKhMRf4-QhnWZoPs",
    "name": "Del Taglia Irrigazione",
    "category": "Del Taglia Irrigazione",
    "formatted_address": "4,5(10)",
    "phone_number": "+390558736611",
    "source_url": "https://www.google.com/maps/place/Del+Taglia+Irrigazione/data=!4m7!3m6!1s0x132a5bdd5099f109:0xfba0997586908f7f!8m2!3d43.7938708!4d11.1035784!16s%2Fg%2F11b6hz8try!19sChIJCfGZUN1bKhMRf4-QhnWZoPs?authuser=0&hl=tr&rclk=1",
    "website_url": "http://www.dti.it/",
    "rating_text": "4,5",
    "stars": null,
    "number_of_reviews": null,
    "price_level": "",
    "open_hours": "",
    "extraction_timestamp": "2025-06-07T17:03:48.562Z",
    "source_name": "google",
    "source_query": "Irrigation Equipment",
    "source_country": "IT",
    "country": "Italy",
    "state": "Emilia-Romagna",
    "city": "Marzabotto"
  },
  {
    "source_id": "ChIJReIEkH7RKhMRwvAjoXCAEZs",
    "name": "Eurospar Marzabotto",
    "category": "Eurospar Marzabotto",
    "formatted_address": "4,2(655)",
    "phone_number": "+39051932260",
    "source_url": "https://www.google.com/maps/place/Eurospar+Marzabotto/data=!4m7!3m6!1s0x132ad17e9004e245:0x9b118070a123f0c2!8m2!3d44.3308112!4d11.1863968!16s%2Fg%2F11gq_hwdcj!19sChIJReIEkH7RKhMRwvAjoXCAEZs?authuser=0&hl=tr&rclk=1",
    "website_url": "https://www.despar.it/it/punto-vendita-eurospar/967/marzabotto/#gref",
    "rating_text": "4,2",
    "stars": null,
    "number_of_reviews": null,
    "price_level": "",
    "open_hours": "",
    "extraction_timestamp": "2025-06-07T17:03:48.563Z",
    "source_name": "google",
    "source_query": "Irrigation Equipment",
    "source_country": "IT",
    "country": "Italy",
    "state": "Emilia-Romagna",
    "city": "Marzabotto"
  },
  {
    "source_id": "ChIJw3M1-gHTf0cR4Npr_n0P5Pg",
    "name": "Idraco s.r.l. Vendita ingrosso/dettaglio",
    "category": "Idraco s.r.l. Vendita ingrosso/dettaglio",
    "formatted_address": "4,8(27)",
    "phone_number": "+390510954480",
    "source_url": "https://www.google.com/maps/place/Idraco+s.r.l.+Vendita+ingrosso%2Fdettaglio/data=!4m7!3m6!1s0x477fd301fa3573c3:0xf8e40f7dfe6bdae0!8m2!3d44.5332442!4d11.3463793!16s%2Fg%2F11h045w95v!19sChIJw3M1-gHTf0cR4Npr_n0P5Pg?authuser=0&hl=tr&rclk=1",
    "website_url": "http://www.idraco.it/",
    "rating_text": "4,8",
    "stars": null,
    "number_of_reviews": null,
    "price_level": "",
    "open_hours": "",
    "extraction_timestamp": "2025-06-07T17:03:48.564Z",
    "source_name": "google",
    "source_query": "Irrigation Equipment",
    "source_country": "IT",
    "country": "Italy",
    "state": "Emilia-Romagna",
    "city": "Marzabotto"
  },
  {
    "source_id": "ChIJj7p79zMzKxMRxzB_tpcRXKE",
    "name": "F.lli Farne' Srl",
    "category": "F.lli Farne' Srl",
    "formatted_address": "4,7(97)",
    "phone_number": "+39051941145",
    "source_url": "https://www.google.com/maps/place/F.lli+Farne%27+Srl/data=!4m7!3m6!1s0x132b3333f77bba8f:0xa15c1197b67f30c7!8m2!3d44.4060269!4d11.5874732!16s%2Fg%2F1vx88btc!19sChIJj7p79zMzKxMRxzB_tpcRXKE?authuser=0&hl=tr&rclk=1",
    "website_url": "https://fratellifarnesrl.it/",
    "rating_text": "4,7",
    "stars": null,
    "number_of_reviews": null,
    "price_level": "",
    "open_hours": "",
    "extraction_timestamp": "2025-06-07T17:03:48.565Z",
    "source_name": "google",
    "source_query": "Irrigation Equipment",
    "source_country": "IT",
    "country": "Italy",
    "state": "Emilia-Romagna",
    "city": "Marzabotto"
  }
]
