[
  {
    "source_id": "ChIJXT4BrnG8f0cRlP-pev7ddT0",
    "name": "Lidea Italy srl",
    "category": "Lidea Italy srl",
    "formatted_address": "4,7(3)",
    "phone_number": "+393357660199",
    "source_url": "https://www.google.com/maps/place/Lidea+Italy+srl/data=!4m7!3m6!1s0x477fbc71ae013e5d:0x3d75ddfe7aa9ff94!8m2!3d44.851475!4d11.214158!16s%2Fg%2F12jdf938_!19sChIJXT4BrnG8f0cRlP-pev7ddT0?authuser=0&hl=tr&rclk=1",
    "website_url": "https://lidea-seeds.it/",
    "rating_text": "4,7",
    "stars": null,
    "number_of_reviews": null,
    "price_level": "",
    "open_hours": "",
    "extraction_timestamp": "2025-06-07T16:45:35.791Z",
    "source_name": "google",
    "source_query": "Irrigation Equipment",
    "source_country": "IT",
    "country": "Italy",
    "state": "Emilia-Romagna",
    "city": "Massa Finalese"
  },
  {
    "source_id": "ChIJcQG6ul7df0cR3VxKiu5OPBs",
    "name": "Scova Impianti Srl",
    "category": "Scova Impianti Srl",
    "formatted_address": "4,5(64)",
    "phone_number": "+39059923202",
    "source_url": "https://www.google.com/maps/place/Scova+Impianti+Srl/data=!4m7!3m6!1s0x477fdd5ebaba0171:0x1b3c4eee8a4a5cdd!8m2!3d44.6018135!4d11.032294!16s%2Fg%2F1tfzwbfb!19sChIJcQG6ul7df0cR3VxKiu5OPBs?authuser=0&hl=tr&rclk=1",
    "website_url": "https://www.scovaimpianti.com/",
    "rating_text": "4,5",
    "stars": null,
    "number_of_reviews": null,
    "price_level": "",
    "open_hours": "",
    "extraction_timestamp": "2025-06-07T16:45:35.792Z",
    "source_name": "google",
    "source_query": "Irrigation Equipment",
    "source_country": "IT",
    "country": "Italy",
    "state": "Emilia-Romagna",
    "city": "Massa Finalese"
  },
  {
    "source_id": "ChIJJ6V6lMDgf0cR1SpFsfjDuHg",
    "name": "Ocmis Irrigazione Spa",
    "category": "Ocmis Irrigazione Spa",
    "formatted_address": "3,5(31)",
    "phone_number": "+39059702150",
    "source_url": "https://www.google.com/maps/place/Ocmis+Irrigazione+Spa/data=!4m7!3m6!1s0x477fe0c0947aa527:0x78b8c3f8b1452ad5!8m2!3d44.530494!4d10.9794578!16s%2Fg%2F1vd3tn19!19sChIJJ6V6lMDgf0cR1SpFsfjDuHg?authuser=0&hl=tr&rclk=1",
    "website_url": "http://www.ocmis-irrigazione.it/",
    "rating_text": "3,5",
    "stars": null,
    "number_of_reviews": null,
    "price_level": "",
    "open_hours": "",
    "extraction_timestamp": "2025-06-07T16:45:35.794Z",
    "source_name": "google",
    "source_query": "Irrigation Equipment",
    "source_country": "IT",
    "country": "Italy",
    "state": "Emilia-Romagna",
    "city": "Massa Finalese"
  },
  {
    "source_id": "ChIJI8CMMEC6f0cR5RONQWBrTds",
    "name": "Ferramenta Hobby Center",
    "category": "Ferramenta Hobby Center",
    "formatted_address": "4,3(68)",
    "phone_number": "+39053599002",
    "source_url": "https://www.google.com/maps/place/Ferramenta+Hobby+Center/data=!4m7!3m6!1s0x477fba40308cc023:0xdb4d6b60418d13e5!8m2!3d44.8512016!4d11.2102972!16s%2Fg%2F11dymq1w5z!19sChIJI8CMMEC6f0cR5RONQWBrTds?authuser=0&hl=tr&rclk=1",
    "website_url": "https://www.cercatrovaonline.it/it/inserzione-ricerca/ferramenta-hobby-center",
    "rating_text": "4,3",
    "stars": null,
    "number_of_reviews": null,
    "price_level": "",
    "open_hours": "",
    "extraction_timestamp": "2025-06-07T16:45:35.795Z",
    "source_name": "google",
    "source_query": "Irrigation Equipment",
    "source_country": "IT",
    "country": "Italy",
    "state": "Emilia-Romagna",
    "city": "Massa Finalese"
  },
  {
    "source_id": "ChIJtVDkNgRFgEcRqc6umwWIJuI",
    "name": "Rm Spa",
    "category": "Rm Spa",
    "formatted_address": "4,6(81)",
    "phone_number": "+390521872321",
    "source_url": "https://www.google.com/maps/place/Rm+Spa/data=!4m7!3m6!1s0x4780450436e450b5:0xe22688059baecea9!8m2!3d44.9105406!4d10.2583785!16s%2Fg%2F12hl93byl!19sChIJtVDkNgRFgEcRqc6umwWIJuI?authuser=0&hl=tr&rclk=1",
    "website_url": "http://www.rmirrigation.com/",
    "rating_text": "4,6",
    "stars": null,
    "number_of_reviews": null,
    "price_level": "",
    "open_hours": "",
    "extraction_timestamp": "2025-06-07T16:45:35.796Z",
    "source_name": "google",
    "source_query": "Irrigation Equipment",
    "source_country": "IT",
    "country": "Italy",
    "state": "Emilia-Romagna",
    "city": "Massa Finalese"
  },
  {
    "source_id": "ChIJryVNi8K9f0cREK2ym6TtoOc",
    "name": "Desa Tecno Impianti",
    "category": "Desa Tecno Impianti",
    "formatted_address": "Tesisatçı · Via per Modena, 167B24 saat açık · +39 345 237 3994",
    "phone_number": "+39345237399424",
    "source_url": "https://www.google.com/maps/place/Desa+Tecno+Impianti/data=!4m7!3m6!1s0x477fbdc28b4d25af:0xe7a0eda49bb2ad10!8m2!3d44.8473694!4d11.2202874!16s%2Fg%2F11q972h4j6!19sChIJryVNi8K9f0cREK2ym6TtoOc?authuser=0&hl=tr&rclk=1",
    "website_url": "https://desatecnoimpianti.it/",
    "rating_text": "",
    "stars": null,
    "number_of_reviews": null,
    "price_level": "",
    "open_hours": "",
    "extraction_timestamp": "2025-06-07T16:45:35.797Z",
    "source_name": "google",
    "source_query": "Irrigation Equipment",
    "source_country": "IT",
    "country": "Italy",
    "state": "Emilia-Romagna",
    "city": "Massa Finalese"
  },
  {
    "source_id": "ChIJR0cLXhQkgEcRi9oI9GALzlg",
    "name": "IRRILAND",
    "category": "IRRILAND",
    "formatted_address": "4,0(4)",
    "phone_number": "+390522831544",
    "source_url": "https://www.google.com/maps/place/IRRILAND/data=!4m7!3m6!1s0x478024145e0b4747:0x58ce0b60f408da8b!8m2!3d44.891987!4d10.650983!16s%2Fg%2F1tczjb0h!19sChIJR0cLXhQkgEcRi9oI9GALzlg?authuser=0&hl=tr&rclk=1",
    "website_url": "http://www.irriland.it/",
    "rating_text": "4,0",
    "stars": null,
    "number_of_reviews": null,
    "price_level": "",
    "open_hours": "",
    "extraction_timestamp": "2025-06-07T16:45:35.798Z",
    "source_name": "google",
    "source_query": "Irrigation Equipment",
    "source_country": "IT",
    "country": "Italy",
    "state": "Emilia-Romagna",
    "city": "Massa Finalese"
  },
  {
    "source_id": "ChIJh3Nd8G0sfkcR_m7VewEmxXM",
    "name": "Irrigarden",
    "category": "Irrigarden",
    "formatted_address": "4,7(158)",
    "phone_number": "+39051782013",
    "source_url": "https://www.google.com/maps/place/Irrigarden/data=!4m7!3m6!1s0x477e2c6df05d7387:0x73c526017bd56efe!8m2!3d44.5096266!4d11.4390897!16s%2Fg%2F1vgw_l7w!19sChIJh3Nd8G0sfkcR_m7VewEmxXM?authuser=0&hl=tr&rclk=1",
    "website_url": "https://www.irrigarden-bo.it/",
    "rating_text": "4,7",
    "stars": null,
    "number_of_reviews": null,
    "price_level": "",
    "open_hours": "",
    "extraction_timestamp": "2025-06-07T16:45:35.799Z",
    "source_name": "google",
    "source_query": "Irrigation Equipment",
    "source_country": "IT",
    "country": "Italy",
    "state": "Emilia-Romagna",
    "city": "Massa Finalese"
  },
  {
    "source_id": "ChIJ-Z_RHvbnf0cRry0jCm7Q5GQ",
    "name": "Scova Impianti",
    "category": "Scova Impianti",
    "formatted_address": "4,0(4)",
    "phone_number": "+39059925910",
    "source_url": "https://www.google.com/maps/place/Scova+Impianti/data=!4m7!3m6!1s0x477fe7f61ed19ff9:0x64e4d06e0a232daf!8m2!3d44.6018937!4d11.0315223!16s%2Fg%2F1td6wznv!19sChIJ-Z_RHvbnf0cRry0jCm7Q5GQ?authuser=0&hl=tr&rclk=1",
    "website_url": "https://scovaimpianti.com/",
    "rating_text": "4,0",
    "stars": null,
    "number_of_reviews": null,
    "price_level": "",
    "open_hours": "",
    "extraction_timestamp": "2025-06-07T16:45:35.800Z",
    "source_name": "google",
    "source_query": "Irrigation Equipment",
    "source_country": "IT",
    "country": "Italy",
    "state": "Emilia-Romagna",
    "city": "Massa Finalese"
  },
  {
    "source_id": "ChIJ-arxwdPWgUcRmXWoftdyjYg",
    "name": "Pioggia Carnevali",
    "category": "Pioggia Carnevali",
    "formatted_address": "4,8(22)",
    "phone_number": "+390376398151",
    "source_url": "https://www.google.com/maps/place/Pioggia+Carnevali/data=!4m7!3m6!1s0x4781d6d3c1f1aaf9:0x888d72d77ea87599!8m2!3d45.1985116!4d10.7916482!16s%2Fg%2F1hc1z5fv1!19sChIJ-arxwdPWgUcRmXWoftdyjYg?authuser=0&hl=tr&rclk=1",
    "website_url": "http://www.pioggiacarnevali.com/",
    "rating_text": "4,8",
    "stars": null,
    "number_of_reviews": null,
    "price_level": "",
    "open_hours": "",
    "extraction_timestamp": "2025-06-07T16:45:35.801Z",
    "source_name": "google",
    "source_query": "Irrigation Equipment",
    "source_country": "IT",
    "country": "Italy",
    "state": "Emilia-Romagna",
    "city": "Massa Finalese"
  },
  {
    "source_id": "ChIJyXgg68QrfkcRAaJCOMJ3PxY",
    "name": "hidrisistem",
    "category": "hidrisistem",
    "formatted_address": "5,0(1)",
    "phone_number": "+39366448310824",
    "source_url": "https://www.google.com/maps/place/hidrisistem/data=!4m7!3m6!1s0x477e2bc4eb2078c9:0x163f77c23842a201!8m2!3d44.496029!4d11.402638!16s%2Fg%2F11w_zjhjy3!19sChIJyXgg68QrfkcRAaJCOMJ3PxY?authuser=0&hl=tr&rclk=1",
    "website_url": "",
    "rating_text": "5,0",
    "stars": null,
    "number_of_reviews": null,
    "price_level": "",
    "open_hours": "",
    "extraction_timestamp": "2025-06-07T16:45:35.802Z",
    "source_name": "google",
    "source_query": "Irrigation Equipment",
    "source_country": "IT",
    "country": "Italy",
    "state": "Emilia-Romagna",
    "city": "Massa Finalese"
  },
  {
    "source_id": "ChIJ0Y22BtHof0cRxdEa76rKEzw",
    "name": "M.M. srl",
    "category": "M.M. srl",
    "formatted_address": "4,1(12)",
    "phone_number": "+39059251654",
    "source_url": "https://www.google.com/maps/place/M.M.+srl/data=!4m7!3m6!1s0x477fe8d106b68dd1:0x3c13caaaef1ad1c5!8m2!3d44.6523664!4d10.966215!16s%2Fg%2F1hc17l52x!19sChIJ0Y22BtHof0cRxdEa76rKEzw?authuser=0&hl=tr&rclk=1",
    "website_url": "http://www.mmspray.it/",
    "rating_text": "4,1",
    "stars": null,
    "number_of_reviews": null,
    "price_level": "",
    "open_hours": "",
    "extraction_timestamp": "2025-06-07T16:45:35.803Z",
    "source_name": "google",
    "source_query": "Irrigation Equipment",
    "source_country": "IT",
    "country": "Italy",
    "state": "Emilia-Romagna",
    "city": "Massa Finalese"
  },
  {
    "source_id": "ChIJzezTkI29f0cRe7iXIhutcSc",
    "name": "Acetaia Gallesi, Massa finalese, Via Enrico Fermi, n.26, Modena",
    "category": "Acetaia Gallesi, Massa finalese, Via Enrico Fermi, n.26, Modena",
    "formatted_address": "Acetaia Gallesi, Massa finalese, Via Enrico Fermi, n.26, Modena",
    "phone_number": "+393332155058",
    "source_url": "https://www.google.com/maps/place/Acetaia+Gallesi,+Massa+finalese,+Via+Enrico+Fermi,+n.26,+Modena/data=!4m7!3m6!1s0x477fbd8d90d3eccd:0x2771ad1b2297b87b!8m2!3d41.29085!4d12.71216!16s%2Fg%2F11ftynt77l!19sChIJzezTkI29f0cRe7iXIhutcSc?authuser=0&hl=tr&rclk=1",
    "website_url": "",
    "rating_text": "",
    "stars": null,
    "number_of_reviews": null,
    "price_level": "",
    "open_hours": "",
    "extraction_timestamp": "2025-06-07T16:45:35.804Z",
    "source_name": "google",
    "source_query": "Irrigation Equipment",
    "source_country": "IT",
    "country": "Italy",
    "state": "Emilia-Romagna",
    "city": "Massa Finalese"
  }
]
