[
  {
    "source_id": "ChIJgaoJQl5vfkcRMYBO5IL15uY",
    "name": "Amica Natura",
    "category": "Amica Natura",
    "formatted_address": "4,9(38)",
    "phone_number": "+393483335862",
    "source_url": "https://www.google.com/maps/place/Amica+Natura/data=!4m7!3m6!1s0x477e6f5e4209aa81:0xe6e6f582e44e8031!8m2!3d44.8133609!4d12.0015185!16s%2Fg%2F11hcj_f2rk!19sChIJgaoJQl5vfkcRMYBO5IL15uY?authuser=0&hl=tr&rclk=1",
    "website_url": "",
    "rating_text": "4,9",
    "stars": null,
    "number_of_reviews": null,
    "price_level": "",
    "open_hours": "",
    "extraction_timestamp": "2025-06-07T15:53:35.238Z",
    "source_name": "google",
    "source_query": "Irrigation Equipment",
    "source_country": "IT",
    "country": "Italy",
    "state": "Emilia-Romagna",
    "city": "Massa Fiscaglia"
  },
  {
    "source_id": "ChIJlcpN6zRvfkcRaTTg6KI5so4",
    "name": "Idrotec S.N.C. Di Pambianchi Andrea & Poletti Stefano",
    "category": "Idrotec S.N.C. Di Pambianchi Andrea & Poletti Stefano",
    "formatted_address": "5,0(1)",
    "phone_number": "+390533655054",
    "source_url": "https://www.google.com/maps/place/Idrotec+S.N.C.+Di+Pambianchi+Andrea+%26+Poletti+Stefano/data=!4m7!3m6!1s0x477e6f34eb4dca95:0x8eb239a2e8e03469!8m2!3d44.7974507!4d11.9718654!16s%2Fg%2F1v_nbc09!19sChIJlcpN6zRvfkcRaTTg6KI5so4?authuser=0&hl=tr&rclk=1",
    "website_url": "",
    "rating_text": "5,0",
    "stars": null,
    "number_of_reviews": null,
    "price_level": "",
    "open_hours": "",
    "extraction_timestamp": "2025-06-07T15:53:35.239Z",
    "source_name": "google",
    "source_query": "Irrigation Equipment",
    "source_country": "IT",
    "country": "Italy",
    "state": "Emilia-Romagna",
    "city": "Massa Fiscaglia"
  },
  {
    "source_id": "ChIJgTgbrE5vfkcR9e_ZGBJXcjQ",
    "name": "EMAV di Valieri Michele - ELETTROPOMPE",
    "category": "EMAV di Valieri Michele - ELETTROPOMPE",
    "formatted_address": "5,0(1)",
    "phone_number": "+393463864056",
    "source_url": "https://www.google.com/maps/place/EMAV+di+Valieri+Michele+-+ELETTROPOMPE/data=!4m7!3m6!1s0x477e6f4eac1b3881:0x3472571218d9eff5!8m2!3d44.8028549!4d12.0129128!16s%2Fg%2F11vy7k7jz4!19sChIJgTgbrE5vfkcR9e_ZGBJXcjQ?authuser=0&hl=tr&rclk=1",
    "website_url": "",
    "rating_text": "5,0",
    "stars": null,
    "number_of_reviews": null,
    "price_level": "",
    "open_hours": "",
    "extraction_timestamp": "2025-06-07T15:53:35.239Z",
    "source_name": "google",
    "source_query": "Irrigation Equipment",
    "source_country": "IT",
    "country": "Italy",
    "state": "Emilia-Romagna",
    "city": "Massa Fiscaglia"
  },
  {
    "source_id": "ChIJldhJentvfkcR6EgUoV4QoR4",
    "name": "Ferramenta Menegatti",
    "category": "Ferramenta Menegatti",
    "formatted_address": "4,8(41)",
    "phone_number": "+39053353501",
    "source_url": "https://www.google.com/maps/place/Ferramenta+Menegatti/data=!4m7!3m6!1s0x477e6f7b7a49d895:0x1ea1105ea11448e8!8m2!3d44.8101124!4d12.0144594!16s%2Fg%2F11gfp5c72p!19sChIJldhJentvfkcR6EgUoV4QoR4?authuser=0&hl=tr&rclk=1",
    "website_url": "",
    "rating_text": "4,8",
    "stars": null,
    "number_of_reviews": null,
    "price_level": "",
    "open_hours": "",
    "extraction_timestamp": "2025-06-07T15:53:35.239Z",
    "source_name": "google",
    "source_query": "Irrigation Equipment",
    "source_country": "IT",
    "country": "Italy",
    "state": "Emilia-Romagna",
    "city": "Massa Fiscaglia"
  },
  {
    "source_id": "ChIJc1dYhn5pfkcRjGkPGtcweT4",
    "name": "Impianto Idrovoro Tersallo",
    "category": "Impianto Idrovoro Tersallo",
    "formatted_address": "3,0(4)",
    "phone_number": "",
    "source_url": "https://www.google.com/maps/place/Impianto+Idrovoro+Tersallo/data=!4m7!3m6!1s0x477e697e86585773:0x3e7930d71a0f698c!8m2!3d44.7538874!4d11.9088418!16s%2Fg%2F11fzsjzw32!19sChIJc1dYhn5pfkcRjGkPGtcweT4?authuser=0&hl=tr&rclk=1",
    "website_url": "http://www.bonificaferrara.it/",
    "rating_text": "3,0",
    "stars": null,
    "number_of_reviews": null,
    "price_level": "",
    "open_hours": "",
    "extraction_timestamp": "2025-06-07T15:53:35.240Z",
    "source_name": "google",
    "source_query": "Irrigation Equipment",
    "source_country": "IT",
    "country": "Italy",
    "state": "Emilia-Romagna",
    "city": "Massa Fiscaglia"
  }
]
