[
  {
    "source_id": "ChIJobEnynRfKxMRJWkoIycCsWY",
    "name": "Agribidente",
    "category": "Agribidente",
    "formatted_address": "4,3(14)",
    "phone_number": "+390543494366",
    "source_url": "https://www.google.com/maps/place/Agribidente/data=!4m7!3m6!1s0x132b5f74ca27b1a1:0x66b1022723286925!8m2!3d44.1023561!4d12.0488604!16s%2Fg%2F1th84c9k!19sChIJobEnynRfKxMRJWkoIycCsWY?authuser=0&hl=tr&rclk=1",
    "website_url": "https://www.agribidente.com/",
    "rating_text": "4,3",
    "stars": null,
    "number_of_reviews": null,
    "price_level": "",
    "open_hours": "",
    "extraction_timestamp": "2025-06-07T15:53:52.134Z",
    "source_name": "google",
    "source_query": "Irrigation Equipment",
    "source_country": "IT",
    "country": "Italy",
    "state": "Emilia-Romagna",
    "city": "Meldola"
  },
  {
    "source_id": "ChIJk_S1crJYKxMRPG2hhr5uAeU",
    "name": "Cosmogas",
    "category": "Cosmogas",
    "formatted_address": "4,0(96)",
    "phone_number": "+390543498383",
    "source_url": "https://www.google.com/maps/place/Cosmogas/data=!4m7!3m6!1s0x132b58b272b5f493:0xe5016ebe86a16d3c!8m2!3d44.140003!4d12.0604026!16s%2Fg%2F1tr46sf_!19sChIJk_S1crJYKxMRPG2hhr5uAeU?authuser=0&hl=tr&rclk=1",
    "website_url": "https://www.cosmogas.com/",
    "rating_text": "4,0",
    "stars": null,
    "number_of_reviews": null,
    "price_level": "",
    "open_hours": "",
    "extraction_timestamp": "2025-06-07T15:53:52.135Z",
    "source_name": "google",
    "source_query": "Irrigation Equipment",
    "source_country": "IT",
    "country": "Italy",
    "state": "Emilia-Romagna",
    "city": "Meldola"
  },
  {
    "source_id": "ChIJae3PhVpfKxMRGpJUajLJA_Y",
    "name": "EMPORIO DA MARIO di Pezzi Leonardo e Pezzi Emanuele & C. SAS",
    "category": "EMPORIO DA MARIO di Pezzi Leonardo e Pezzi Emanuele & C. SAS",
    "formatted_address": "4,6(104)",
    "phone_number": "+393461821168",
    "source_url": "https://www.google.com/maps/place/EMPORIO+DA+MARIO+di+Pezzi+Leonardo+e+Pezzi+Emanuele+%26+C.+SAS/data=!4m7!3m6!1s0x132b5f5a85cfed69:0xf603c9326a54921a!8m2!3d44.1263566!4d12.0619499!16s%2Fg%2F1tfgrj4h!19sChIJae3PhVpfKxMRGpJUajLJA_Y?authuser=0&hl=tr&rclk=1",
    "website_url": "",
    "rating_text": "4,6",
    "stars": null,
    "number_of_reviews": null,
    "price_level": "",
    "open_hours": "",
    "extraction_timestamp": "2025-06-07T15:53:52.135Z",
    "source_name": "google",
    "source_query": "Irrigation Equipment",
    "source_country": "IT",
    "country": "Italy",
    "state": "Emilia-Romagna",
    "city": "Meldola"
  },
  {
    "source_id": "ChIJy4AVn9C-LBMRn6nsnuZl82A",
    "name": "Ramilli Irrigazioni S.R.L.",
    "category": "Ramilli Irrigazioni S.R.L.",
    "formatted_address": "4,3(52)",
    "phone_number": "+390541945335",
    "source_url": "https://www.google.com/maps/place/Ramilli+Irrigazioni+S.R.L./data=!4m7!3m6!1s0x132cbed09f1580cb:0x60f365e69eeca99f!8m2!3d44.0923156!4d12.3843691!16s%2Fg%2F1ts2ls1r!19sChIJy4AVn9C-LBMRn6nsnuZl82A?authuser=0&hl=tr&rclk=1",
    "website_url": "https://www.ramilli.it/",
    "rating_text": "4,3",
    "stars": null,
    "number_of_reviews": null,
    "price_level": "",
    "open_hours": "",
    "extraction_timestamp": "2025-06-07T15:53:52.135Z",
    "source_name": "google",
    "source_query": "Irrigation Equipment",
    "source_country": "IT",
    "country": "Italy",
    "state": "Emilia-Romagna",
    "city": "Meldola"
  },
  {
    "source_id": "ChIJFW3XPJejLBMRDpQWGwmYqU4",
    "name": "Raggini Irrigazioni e Robot Tosaerba",
    "category": "Raggini Irrigazioni e Robot Tosaerba",
    "formatted_address": "5,0(1)",
    "phone_number": "+393926808947",
    "source_url": "https://www.google.com/maps/place/Raggini+Irrigazioni+e+Robot+Tosaerba/data=!4m7!3m6!1s0x132ca3973cd76d15:0x4ea998091b16940e!8m2!3d44.36369!4d11.8460774!16s%2Fg%2F11dz0bbs9t!19sChIJFW3XPJejLBMRDpQWGwmYqU4?authuser=0&hl=tr&rclk=1",
    "website_url": "",
    "rating_text": "5,0",
    "stars": null,
    "number_of_reviews": null,
    "price_level": "",
    "open_hours": "",
    "extraction_timestamp": "2025-06-07T15:53:52.136Z",
    "source_name": "google",
    "source_query": "Irrigation Equipment",
    "source_country": "IT",
    "country": "Italy",
    "state": "Emilia-Romagna",
    "city": "Meldola"
  },
  {
    "source_id": "ChIJhV37zFpfKxMRuEYrn5EVko4",
    "name": "La Nuova Idroterm Di Giardini Giovanni E C. S.N.C.",
    "category": "La Nuova Idroterm Di Giardini Giovanni E C. S.N.C.",
    "formatted_address": "Tesisatçı · Via Cavour, 82Kapalı ⋅ Açılış zamanı: Pzt 08:30 · +39 0543 490099",
    "phone_number": "+390543490099",
    "source_url": "https://www.google.com/maps/place/La+Nuova+Idroterm+Di+Giardini+Giovanni+E+C.+S.N.C./data=!4m7!3m6!1s0x132b5f5accfb5d85:0x8e9215919f2b46b8!8m2!3d44.1254236!4d12.0604577!16s%2Fg%2F1tj636zd!19sChIJhV37zFpfKxMRuEYrn5EVko4?authuser=0&hl=tr&rclk=1",
    "website_url": "",
    "rating_text": "",
    "stars": null,
    "number_of_reviews": null,
    "price_level": "",
    "open_hours": "",
    "extraction_timestamp": "2025-06-07T15:53:52.136Z",
    "source_name": "google",
    "source_query": "Irrigation Equipment",
    "source_country": "IT",
    "country": "Italy",
    "state": "Emilia-Romagna",
    "city": "Meldola"
  },
  {
    "source_id": "ChIJQ8fJol1SKxMRShirn3slxH4",
    "name": "Tecnir",
    "category": "Tecnir",
    "formatted_address": "4,4(17)",
    "phone_number": "+390546641026",
    "source_url": "https://www.google.com/maps/place/Tecnir/data=!4m7!3m6!1s0x132b525da2c9c743:0x7ec4257b9fab184a!8m2!3d44.363732!4d11.935557!16s%2Fg%2F1vfps_3m!19sChIJQ8fJol1SKxMRShirn3slxH4?authuser=0&hl=tr&rclk=1",
    "website_url": "https://www.tecnirirrigazione.it/",
    "rating_text": "4,4",
    "stars": null,
    "number_of_reviews": null,
    "price_level": "",
    "open_hours": "",
    "extraction_timestamp": "2025-06-07T15:53:52.136Z",
    "source_name": "google",
    "source_query": "Irrigation Equipment",
    "source_country": "IT",
    "country": "Italy",
    "state": "Emilia-Romagna",
    "city": "Meldola"
  },
  {
    "source_id": "ChIJc5Uc91FfKxMRlKRmpbfwM6I",
    "name": "Ferramenta Meldolese S.N.C.",
    "category": "Ferramenta Meldolese S.N.C.",
    "formatted_address": "4,2(23)",
    "phone_number": "+390543492676",
    "source_url": "https://www.google.com/maps/place/Ferramenta+Meldolese+S.N.C./data=!4m7!3m6!1s0x132b5f51f71c9573:0xa233f0b7a566a494!8m2!3d44.1313719!4d12.0612706!16s%2Fg%2F1tfn5gd7!19sChIJc5Uc91FfKxMRlKRmpbfwM6I?authuser=0&hl=tr&rclk=1",
    "website_url": "",
    "rating_text": "4,2",
    "stars": null,
    "number_of_reviews": null,
    "price_level": "",
    "open_hours": "",
    "extraction_timestamp": "2025-06-07T15:53:52.137Z",
    "source_name": "google",
    "source_query": "Irrigation Equipment",
    "source_country": "IT",
    "country": "Italy",
    "state": "Emilia-Romagna",
    "city": "Meldola"
  }
]
