[
  {
    "source_id": "ChIJ05juGMebLBMR5Es6Dje0FfQ",
    "name": "Agrimarket",
    "category": "Agrimarket",
    "formatted_address": "4,6(57)",
    "phone_number": "+39054790324",
    "source_url": "https://www.google.com/maps/place/Agrimarket/data=!4m7!3m6!1s0x132c9bc718ee98d3:0xf415b4370e3a4be4!8m2!3d43.9551894!4d12.1934652!16s%2Fg%2F11bc7s8whc!19sChIJ05juGMebLBMR5Es6Dje0FfQ?authuser=0&hl=tr&rclk=1",
    "website_url": "http://www.agrimarketfc.it/",
    "rating_text": "4,6",
    "stars": null,
    "number_of_reviews": null,
    "price_level": "",
    "open_hours": "",
    "extraction_timestamp": "2025-06-07T16:44:18.653Z",
    "source_name": "google",
    "source_query": "Irrigation Equipment",
    "source_country": "IT",
    "country": "Italy",
    "state": "Emilia-Romagna",
    "city": "Mercato Saraceno"
  },
  {
    "source_id": "ChIJ7ycSInuZLBMROzLKCpRnm5s",
    "name": "Due R. S.n.c. Di Ricci Norberto E C.",
    "category": "Due R. S.n.c. Di Ricci Norberto E C.",
    "formatted_address": "4,5(4)",
    "phone_number": "+390547690350",
    "source_url": "https://www.google.com/maps/place/Due+R.+S.n.c.+Di+Ricci+Norberto+E+C./data=!4m7!3m6!1s0x132c997b221227ef:0x9b9b67940aca323b!8m2!3d43.9780681!4d12.199566!16s%2Fg%2F1tglcnj5!19sChIJ7ycSInuZLBMROzLKCpRnm5s?authuser=0&hl=tr&rclk=1",
    "website_url": "http://www.due-r.it/",
    "rating_text": "4,5",
    "stars": null,
    "number_of_reviews": null,
    "price_level": "",
    "open_hours": "",
    "extraction_timestamp": "2025-06-07T16:44:18.654Z",
    "source_name": "google",
    "source_query": "Irrigation Equipment",
    "source_country": "IT",
    "country": "Italy",
    "state": "Emilia-Romagna",
    "city": "Mercato Saraceno"
  },
  {
    "source_id": "ChIJ_X1i9cWbLBMRpRfWd_2ua80",
    "name": "Zampini Federico - Progettazione Impianti elettrici",
    "category": "Zampini Federico - Progettazione Impianti elettrici",
    "formatted_address": "Elektrik Santrali Danışmanı · Via Antonio Gramsci, 29Kapalı ⋅ Açılış zamanı: Pzt 08:00 · +39 346 043 2090",
    "phone_number": "+393460432090",
    "source_url": "https://www.google.com/maps/place/Zampini+Federico+-+Progettazione+Impianti+elettrici/data=!4m7!3m6!1s0x132c9bc5f5627dfd:0xcd6baefd77d617a5!8m2!3d43.9583976!4d12.198146!16s%2Fg%2F11c6dzsmbv!19sChIJ_X1i9cWbLBMRpRfWd_2ua80?authuser=0&hl=tr&rclk=1",
    "website_url": "",
    "rating_text": "",
    "stars": null,
    "number_of_reviews": null,
    "price_level": "",
    "open_hours": "",
    "extraction_timestamp": "2025-06-07T16:44:18.655Z",
    "source_name": "google",
    "source_query": "Irrigation Equipment",
    "source_country": "IT",
    "country": "Italy",
    "state": "Emilia-Romagna",
    "city": "Mercato Saraceno"
  },
  {
    "source_id": "ChIJxwyfbMW-LBMR82ivWDKLyak",
    "name": "Campedelli srl",
    "category": "Campedelli srl",
    "formatted_address": "4,3(20)",
    "phone_number": "+390541945180",
    "source_url": "https://www.google.com/maps/place/Campedelli+srl/data=!4m7!3m6!1s0x132cbec56c9f0cc7:0xa9c98b3258af68f3!8m2!3d44.0913771!4d12.3790216!16s%2Fg%2F1td55wfn!19sChIJxwyfbMW-LBMR82ivWDKLyak?authuser=0&hl=tr&rclk=1",
    "website_url": "https://www.facebook.com/pg/campedellisrl.savignanosulrubicone/community/",
    "rating_text": "4,3",
    "stars": null,
    "number_of_reviews": null,
    "price_level": "",
    "open_hours": "",
    "extraction_timestamp": "2025-06-07T16:44:18.656Z",
    "source_name": "google",
    "source_query": "Irrigation Equipment",
    "source_country": "IT",
    "country": "Italy",
    "state": "Emilia-Romagna",
    "city": "Mercato Saraceno"
  },
  {
    "source_id": "ChIJy4AVn9C-LBMRn6nsnuZl82A",
    "name": "Ramilli Irrigazioni S.R.L.",
    "category": "Ramilli Irrigazioni S.R.L.",
    "formatted_address": "4,3(52)",
    "phone_number": "+390541945335",
    "source_url": "https://www.google.com/maps/place/Ramilli+Irrigazioni+S.R.L./data=!4m7!3m6!1s0x132cbed09f1580cb:0x60f365e69eeca99f!8m2!3d44.0923156!4d12.3843691!16s%2Fg%2F1ts2ls1r!19sChIJy4AVn9C-LBMRn6nsnuZl82A?authuser=0&hl=tr&rclk=1",
    "website_url": "https://www.ramilli.it/",
    "rating_text": "4,3",
    "stars": null,
    "number_of_reviews": null,
    "price_level": "",
    "open_hours": "",
    "extraction_timestamp": "2025-06-07T16:44:18.658Z",
    "source_name": "google",
    "source_query": "Irrigation Equipment",
    "source_country": "IT",
    "country": "Italy",
    "state": "Emilia-Romagna",
    "city": "Mercato Saraceno"
  },
  {
    "source_id": "ChIJpV553JSYLBMRnUuZ41O4Ty8",
    "name": "Righi Elettroservizi Spa",
    "category": "Righi Elettroservizi Spa",
    "formatted_address": "4,4(22)",
    "phone_number": "+390547323336",
    "source_url": "https://www.google.com/maps/place/Righi+Elettroservizi+Spa/data=!4m7!3m6!1s0x132c9894dc795ea5:0x2f4fb853e3994b9d!8m2!3d44.0465667!4d12.1833417!16s%2Fg%2F1td55wdy!19sChIJpV553JSYLBMRnUuZ41O4Ty8?authuser=0&hl=tr&rclk=1",
    "website_url": "http://www.righielettroservizi.com/",
    "rating_text": "4,4",
    "stars": null,
    "number_of_reviews": null,
    "price_level": "",
    "open_hours": "",
    "extraction_timestamp": "2025-06-07T16:44:18.659Z",
    "source_name": "google",
    "source_query": "Irrigation Equipment",
    "source_country": "IT",
    "country": "Italy",
    "state": "Emilia-Romagna",
    "city": "Mercato Saraceno"
  },
  {
    "source_id": "ChIJKb3qwAq9LBMRUcJUgWGEt0U",
    "name": "Casali Irrigazione",
    "category": "Casali Irrigazione",
    "formatted_address": "3,0(1)",
    "phone_number": "+393346424587",
    "source_url": "https://www.google.com/maps/place/Casali+Irrigazione/data=!4m7!3m6!1s0x132cbd0ac0eabd29:0x45b784618154c251!8m2!3d44.08289!4d12.27084!16s%2Fg%2F1tdr5fdj!19sChIJKb3qwAq9LBMRUcJUgWGEt0U?authuser=0&hl=tr&rclk=1",
    "website_url": "",
    "rating_text": "3,0",
    "stars": null,
    "number_of_reviews": null,
    "price_level": "",
    "open_hours": "",
    "extraction_timestamp": "2025-06-07T16:44:18.661Z",
    "source_name": "google",
    "source_query": "Irrigation Equipment",
    "source_country": "IT",
    "country": "Italy",
    "state": "Emilia-Romagna",
    "city": "Mercato Saraceno"
  },
  {
    "source_id": "ChIJ1xYfYTK7LBMRH8fF3soqxIc",
    "name": "Caselli Mirco",
    "category": "Caselli Mirco",
    "formatted_address": "4,7(75)",
    "phone_number": "+390547645010",
    "source_url": "https://www.google.com/maps/place/Caselli+Mirco/data=!4m7!3m6!1s0x132cbb32611f16d7:0x87c42acadec5c71f!8m2!3d44.1180337!4d12.306261!16s%2Fg%2F1hc61vjd1!19sChIJ1xYfYTK7LBMRH8fF3soqxIc?authuser=0&hl=tr&rclk=1",
    "website_url": "",
    "rating_text": "4,7",
    "stars": null,
    "number_of_reviews": null,
    "price_level": "",
    "open_hours": "",
    "extraction_timestamp": "2025-06-07T16:44:18.664Z",
    "source_name": "google",
    "source_query": "Irrigation Equipment",
    "source_country": "IT",
    "country": "Italy",
    "state": "Emilia-Romagna",
    "city": "Mercato Saraceno"
  },
  {
    "source_id": "ChIJzcgr7sabLBMR75qyhDiVA8I",
    "name": "Famila Market Mercato Saraceno",
    "category": "Famila Market Mercato Saraceno",
    "formatted_address": "4,5(110)",
    "phone_number": "+39054791991",
    "source_url": "https://www.google.com/maps/place/Famila+Market+Mercato+Saraceno/data=!4m7!3m6!1s0x132c9bc6ee2bc8cd:0xc203953884b29aef!8m2!3d43.956081!4d12.1941424!16s%2Fg%2F11d_7hczdm!19sChIJzcgr7sabLBMR75qyhDiVA8I?authuser=0&hl=tr&rclk=1",
    "website_url": "https://www.famila.it/punti-vendita/emilia-romagna/famila-market-mercato-saraceno",
    "rating_text": "4,5",
    "stars": null,
    "number_of_reviews": null,
    "price_level": "",
    "open_hours": "",
    "extraction_timestamp": "2025-06-07T16:44:18.665Z",
    "source_name": "google",
    "source_query": "Irrigation Equipment",
    "source_country": "IT",
    "country": "Italy",
    "state": "Emilia-Romagna",
    "city": "Mercato Saraceno"
  },
  {
    "source_id": "ChIJ3yYF_TObLBMRgQY9NCcvtDw",
    "name": "CONAD",
    "category": "CONAD",
    "formatted_address": "4,4(136)",
    "phone_number": "+390547690314",
    "source_url": "https://www.google.com/maps/place/CONAD/data=!4m7!3m6!1s0x132c9b33fd0526df:0x3cb42f27343d0681!8m2!3d43.9678118!4d12.1997923!16s%2Fg%2F11pzsm0rn2!19sChIJ3yYF_TObLBMRgQY9NCcvtDw?authuser=0&hl=tr&rclk=1",
    "website_url": "https://www.conad.it/ricerca-negozi/conad-via-luigi-einaudi-7-47025-mercato-saraceno--001552",
    "rating_text": "4,4",
    "stars": null,
    "number_of_reviews": null,
    "price_level": "",
    "open_hours": "",
    "extraction_timestamp": "2025-06-07T16:44:18.666Z",
    "source_name": "google",
    "source_query": "Irrigation Equipment",
    "source_country": "IT",
    "country": "Italy",
    "state": "Emilia-Romagna",
    "city": "Mercato Saraceno"
  },
  {
    "source_id": "ChIJFW3XPJejLBMRDpQWGwmYqU4",
    "name": "Raggini Irrigazioni e Robot Tosaerba",
    "category": "Raggini Irrigazioni e Robot Tosaerba",
    "formatted_address": "5,0(1)",
    "phone_number": "+393926808947",
    "source_url": "https://www.google.com/maps/place/Raggini+Irrigazioni+e+Robot+Tosaerba/data=!4m7!3m6!1s0x132ca3973cd76d15:0x4ea998091b16940e!8m2!3d44.36369!4d11.8460774!16s%2Fg%2F11dz0bbs9t!19sChIJFW3XPJejLBMRDpQWGwmYqU4?authuser=0&hl=tr&rclk=1",
    "website_url": "",
    "rating_text": "5,0",
    "stars": null,
    "number_of_reviews": null,
    "price_level": "",
    "open_hours": "",
    "extraction_timestamp": "2025-06-07T16:44:18.667Z",
    "source_name": "google",
    "source_query": "Irrigation Equipment",
    "source_country": "IT",
    "country": "Italy",
    "state": "Emilia-Romagna",
    "city": "Mercato Saraceno"
  },
  {
    "source_id": "ChIJ1dctBE66LBMRYD-M3IRBi9M",
    "name": "Venturi SAS di Venturi Piero & C.",
    "category": "Venturi SAS di Venturi Piero & C.",
    "formatted_address": "4,3(64)",
    "phone_number": "+390547311136",
    "source_url": "https://www.google.com/maps/place/Venturi+SAS+di+Venturi+Piero+%26+C./data=!4m7!3m6!1s0x132cba4e042dd7d5:0xd38b4184dc8c3f60!8m2!3d44.1516799!4d12.3126239!16s%2Fg%2F11csb23jzd!19sChIJ1dctBE66LBMRYD-M3IRBi9M?authuser=0&hl=tr&rclk=1",
    "website_url": "https://www.venturi.fc.it/",
    "rating_text": "4,3",
    "stars": null,
    "number_of_reviews": null,
    "price_level": "",
    "open_hours": "",
    "extraction_timestamp": "2025-06-07T16:44:18.668Z",
    "source_name": "google",
    "source_query": "Irrigation Equipment",
    "source_country": "IT",
    "country": "Italy",
    "state": "Emilia-Romagna",
    "city": "Mercato Saraceno"
  },
  {
    "source_id": "ChIJu9RBhRyZLBMR9mQz-DxQBOY",
    "name": "Componenti Per Riscaldamento Spa",
    "category": "Componenti Per Riscaldamento Spa",
    "formatted_address": "Tesisatçı · Via Paul Harris, 32+39 0547 96605",
    "phone_number": "+39054796605",
    "source_url": "https://www.google.com/maps/place/Componenti+Per+Riscaldamento+Spa/data=!4m7!3m6!1s0x132c991c8541d4bb:0xe604503cf83364f6!8m2!3d44.0050344!4d12.1951271!16s%2Fg%2F1ty2b4bn!19sChIJu9RBhRyZLBMR9mQz-DxQBOY?authuser=0&hl=tr&rclk=1",
    "website_url": "",
    "rating_text": "",
    "stars": null,
    "number_of_reviews": null,
    "price_level": "",
    "open_hours": "",
    "extraction_timestamp": "2025-06-07T16:44:18.669Z",
    "source_name": "google",
    "source_query": "Irrigation Equipment",
    "source_country": "IT",
    "country": "Italy",
    "state": "Emilia-Romagna",
    "city": "Mercato Saraceno"
  },
  {
    "source_id": "ChIJ85cgpku6LBMRfX081ZX-wQQ",
    "name": "Idroget Atomizzatori Di Bianchi Carlo E C. (S.N.C.)",
    "category": "Idroget Atomizzatori Di Bianchi Carlo E C. (S.N.C.)",
    "formatted_address": "4,7(10)",
    "phone_number": "+390547300163",
    "source_url": "https://www.google.com/maps/place/Idroget+Atomizzatori+Di+Bianchi+Carlo+E+C.+%28S.N.C.%29/data=!4m7!3m6!1s0x132cba4ba62097f3:0x4c1fe95d53c7d7d!8m2!3d44.1418046!4d12.3078685!16s%2Fg%2F11b6j8p8p3!19sChIJ85cgpku6LBMRfX081ZX-wQQ?authuser=0&hl=tr&rclk=1",
    "website_url": "http://www.idroget.it/",
    "rating_text": "4,7",
    "stars": null,
    "number_of_reviews": null,
    "price_level": "",
    "open_hours": "",
    "extraction_timestamp": "2025-06-07T16:44:18.670Z",
    "source_name": "google",
    "source_query": "Irrigation Equipment",
    "source_country": "IT",
    "country": "Italy",
    "state": "Emilia-Romagna",
    "city": "Mercato Saraceno"
  },
  {
    "source_id": "ChIJ9RvBGGybLBMRxIN-oSB33hA",
    "name": "Moreno & Co. Ferramenta Utensileria Vernici",
    "category": "Moreno & Co. Ferramenta Utensileria Vernici",
    "formatted_address": "Nalbur ·  · Via Luigi Einaudi, 7Kapalı ⋅ Açılış zamanı: Pzt 07:30 · +39 0547 971355",
    "phone_number": "+390547971355",
    "source_url": "https://www.google.com/maps/place/Moreno+%26+Co.+Ferramenta+Utensileria+Vernici/data=!4m7!3m6!1s0x132c9b6c18c11bf5:0x10de7720a17e83c4!8m2!3d43.9673546!4d12.199549!16s%2Fg%2F11tnypjbml!19sChIJ9RvBGGybLBMRxIN-oSB33hA?authuser=0&hl=tr&rclk=1",
    "website_url": "",
    "rating_text": "",
    "stars": null,
    "number_of_reviews": null,
    "price_level": "",
    "open_hours": "",
    "extraction_timestamp": "2025-06-07T16:44:18.671Z",
    "source_name": "google",
    "source_query": "Irrigation Equipment",
    "source_country": "IT",
    "country": "Italy",
    "state": "Emilia-Romagna",
    "city": "Mercato Saraceno"
  },
  {
    "source_id": "ChIJ-4eaQiilLBMRT0CIwECi8q8",
    "name": "Agrimec snc di Brundu Matteo - Husqvarna",
    "category": "Agrimec snc di Brundu Matteo - Husqvarna",
    "formatted_address": "4,9(27)",
    "phone_number": "+390547483386",
    "source_url": "https://www.google.com/maps/place/Agrimec+snc+di+Brundu+Matteo+-+Husqvarna/data=!4m7!3m6!1s0x132ca528429a87fb:0xaff2a240c088404f!8m2!3d44.1839033!4d12.2093232!16s%2Fg%2F11hzfvb8vf!19sChIJ-4eaQiilLBMRT0CIwECi8q8?authuser=0&hl=tr&rclk=1",
    "website_url": "",
    "rating_text": "4,9",
    "stars": null,
    "number_of_reviews": null,
    "price_level": "",
    "open_hours": "",
    "extraction_timestamp": "2025-06-07T16:44:18.673Z",
    "source_name": "google",
    "source_query": "Irrigation Equipment",
    "source_country": "IT",
    "country": "Italy",
    "state": "Emilia-Romagna",
    "city": "Mercato Saraceno"
  },
  {
    "source_id": "ChIJ9aDXDMabLBMRH6fx0LRXyu8",
    "name": "Farmacia Bracciaroli",
    "category": "Farmacia Bracciaroli",
    "formatted_address": "4,3(12)",
    "phone_number": "+39054791027",
    "source_url": "https://www.google.com/maps/place/Farmacia+Bracciaroli/data=!4m7!3m6!1s0x132c9bc60cd7a0f5:0xefca57b4d0f1a71f!8m2!3d43.9571263!4d12.1962467!16s%2Fg%2F1tggdd8j!19sChIJ9aDXDMabLBMRH6fx0LRXyu8?authuser=0&hl=tr&rclk=1",
    "website_url": "",
    "rating_text": "4,3",
    "stars": null,
    "number_of_reviews": null,
    "price_level": "",
    "open_hours": "",
    "extraction_timestamp": "2025-06-07T16:44:18.674Z",
    "source_name": "google",
    "source_query": "Irrigation Equipment",
    "source_country": "IT",
    "country": "Italy",
    "state": "Emilia-Romagna",
    "city": "Mercato Saraceno"
  },
  {
    "source_id": "ChIJN2P4dLujLBMRDdhszzfGxg8",
    "name": "RG Impianti - BULLTEC Srl",
    "category": "RG Impianti - BULLTEC Srl",
    "formatted_address": "4,4(5)",
    "phone_number": "+390547662130",
    "source_url": "https://www.google.com/maps/place/RG+Impianti+-+BULLTEC+Srl/data=!4m7!3m6!1s0x132ca3bb74f86337:0xfc6c637cf6cd80d!8m2!3d44.0974807!4d12.1944541!16s%2Fg%2F1vrhnyfj!19sChIJN2P4dLujLBMRDdhszzfGxg8?authuser=0&hl=tr&rclk=1",
    "website_url": "https://rg-impianti.com/",
    "rating_text": "4,4",
    "stars": null,
    "number_of_reviews": null,
    "price_level": "",
    "open_hours": "",
    "extraction_timestamp": "2025-06-07T16:44:18.675Z",
    "source_name": "google",
    "source_query": "Irrigation Equipment",
    "source_country": "IT",
    "country": "Italy",
    "state": "Emilia-Romagna",
    "city": "Mercato Saraceno"
  },
  {
    "source_id": "ChIJf9SNDdqbLBMR2iogc0XmyMU",
    "name": "La Bottega del Pane di Balzani Marco",
    "category": "La Bottega del Pane di Balzani Marco",
    "formatted_address": "4,7(18)",
    "phone_number": "+393493799397",
    "source_url": "https://www.google.com/maps/place/La+Bottega+del+Pane+di+Balzani+Marco/data=!4m7!3m6!1s0x132c9bda0d8dd47f:0xc5c8e64573202ada!8m2!3d43.9570147!4d12.196222!16s%2Fg%2F11fylpr8ss!19sChIJf9SNDdqbLBMR2iogc0XmyMU?authuser=0&hl=tr&rclk=1",
    "website_url": "https://www.labottegadelpanedibalzani.it/",
    "rating_text": "4,7",
    "stars": null,
    "number_of_reviews": null,
    "price_level": "",
    "open_hours": "",
    "extraction_timestamp": "2025-06-07T16:44:18.677Z",
    "source_name": "google",
    "source_query": "Irrigation Equipment",
    "source_country": "IT",
    "country": "Italy",
    "state": "Emilia-Romagna",
    "city": "Mercato Saraceno"
  },
  {
    "source_id": "ChIJwVwMjdCbLBMRerA5UK3npfw",
    "name": "Il Chiosco di Alessia",
    "category": "Il Chiosco di Alessia",
    "formatted_address": "4,6(327) · €1–10",
    "phone_number": "+393476881180",
    "source_url": "https://www.google.com/maps/place/Il+Chiosco+di+Alessia/data=!4m7!3m6!1s0x132c9bd08d0c5cc1:0xfca5e7ad5039b07a!8m2!3d43.9650134!4d12.1988159!16s%2Fg%2F11gb3n1lk_!19sChIJwVwMjdCbLBMRerA5UK3npfw?authuser=0&hl=tr&rclk=1",
    "website_url": "",
    "rating_text": "4,6",
    "stars": null,
    "number_of_reviews": null,
    "price_level": "",
    "open_hours": "",
    "extraction_timestamp": "2025-06-07T16:44:18.679Z",
    "source_name": "google",
    "source_query": "Irrigation Equipment",
    "source_country": "IT",
    "country": "Italy",
    "state": "Emilia-Romagna",
    "city": "Mercato Saraceno"
  },
  {
    "source_id": "ChIJ_6V63QO8LBMRWhnNjhv4AF0",
    "name": "Ricci Giorgio Srl ricambi industriali",
    "category": "Ricci Giorgio Srl ricambi industriali",
    "formatted_address": "4,9(47)",
    "phone_number": "+39054756063",
    "source_url": "https://www.google.com/maps/place/Ricci+Giorgio+Srl+ricambi+industriali/data=!4m7!3m6!1s0x132cbc03dd7aa5ff:0x5d00f81b8ecd195a!8m2!3d44.1000251!4d12.3415346!16s%2Fg%2F1tdg04mt!19sChIJ_6V63QO8LBMRWhnNjhv4AF0?authuser=0&hl=tr&rclk=1",
    "website_url": "http://www.riccigiorgio.com/",
    "rating_text": "4,9",
    "stars": null,
    "number_of_reviews": null,
    "price_level": "",
    "open_hours": "",
    "extraction_timestamp": "2025-06-07T16:44:18.680Z",
    "source_name": "google",
    "source_query": "Irrigation Equipment",
    "source_country": "IT",
    "country": "Italy",
    "state": "Emilia-Romagna",
    "city": "Mercato Saraceno"
  },
  {
    "source_id": "ChIJt54IWhSrLBMR9tBQnwC-ksQ",
    "name": "Il Giardino di Antonio",
    "category": "Il Giardino di Antonio",
    "formatted_address": "4,9(9)",
    "phone_number": "+393297207863",
    "source_url": "https://www.google.com/maps/place/Il+Giardino+di+Antonio/data=!4m7!3m6!1s0x132cab145a089eb7:0xc492be009f50d0f6!8m2!3d44.2864799!4d12.0822383!16s%2Fg%2F11lkc3936j!19sChIJt54IWhSrLBMR9tBQnwC-ksQ?authuser=0&hl=tr&rclk=1",
    "website_url": "https://www.ilgiardinodiantonio.it/",
    "rating_text": "4,9",
    "stars": null,
    "number_of_reviews": null,
    "price_level": "",
    "open_hours": "",
    "extraction_timestamp": "2025-06-07T16:44:18.681Z",
    "source_name": "google",
    "source_query": "Irrigation Equipment",
    "source_country": "IT",
    "country": "Italy",
    "state": "Emilia-Romagna",
    "city": "Mercato Saraceno"
  },
  {
    "source_id": "ChIJ95e3M0ukLBMRYjvRFpJjWv8",
    "name": "Magnani Emanuela",
    "category": "Magnani Emanuela",
    "formatted_address": "4,2(75)",
    "phone_number": "+390547347480",
    "source_url": "https://www.google.com/maps/place/Magnani+Emanuela/data=!4m7!3m6!1s0x132ca44b33b797f7:0xff5a639216d13b62!8m2!3d44.1588938!4d12.19053!16s%2Fg%2F11c5_p04k1!19sChIJ95e3M0ukLBMRYjvRFpJjWv8?authuser=0&hl=tr&rclk=1",
    "website_url": "",
    "rating_text": "4,2",
    "stars": null,
    "number_of_reviews": null,
    "price_level": "",
    "open_hours": "",
    "extraction_timestamp": "2025-06-07T16:44:18.683Z",
    "source_name": "google",
    "source_query": "Irrigation Equipment",
    "source_country": "IT",
    "country": "Italy",
    "state": "Emilia-Romagna",
    "city": "Mercato Saraceno"
  },
  {
    "source_id": "ChIJVT7iF8ekLBMRFYvUXuEu1cM",
    "name": "Mercato ambulante Cesena #gioiaemiliaromagna",
    "category": "Mercato ambulante Cesena #gioiaemiliaromagna",
    "formatted_address": "4,3(737)",
    "phone_number": "",
    "source_url": "https://www.google.com/maps/place/Mercato+ambulante+Cesena+%23gioiaemiliaromagna/data=!4m7!3m6!1s0x132ca4c717e23e55:0xc3d52ee15ed48b15!8m2!3d44.1379733!4d12.2385208!16s%2Fg%2F11f3f80k86!19sChIJVT7iF8ekLBMRFYvUXuEu1cM?authuser=0&hl=tr&rclk=1",
    "website_url": "",
    "rating_text": "4,3",
    "stars": null,
    "number_of_reviews": null,
    "price_level": "",
    "open_hours": "",
    "extraction_timestamp": "2025-06-07T16:44:18.683Z",
    "source_name": "google",
    "source_query": "Irrigation Equipment",
    "source_country": "IT",
    "country": "Italy",
    "state": "Emilia-Romagna",
    "city": "Mercato Saraceno"
  },
  {
    "source_id": "ChIJj7p79zMzKxMRxzB_tpcRXKE",
    "name": "F.lli Farne' Srl",
    "category": "F.lli Farne' Srl",
    "formatted_address": "4,7(97)",
    "phone_number": "+39051941145",
    "source_url": "https://www.google.com/maps/place/F.lli+Farne%27+Srl/data=!4m7!3m6!1s0x132b3333f77bba8f:0xa15c1197b67f30c7!8m2!3d44.4060269!4d11.5874732!16s%2Fg%2F1vx88btc!19sChIJj7p79zMzKxMRxzB_tpcRXKE?authuser=0&hl=tr&rclk=1",
    "website_url": "https://fratellifarnesrl.it/",
    "rating_text": "4,7",
    "stars": null,
    "number_of_reviews": null,
    "price_level": "",
    "open_hours": "",
    "extraction_timestamp": "2025-06-07T16:44:18.684Z",
    "source_name": "google",
    "source_query": "Irrigation Equipment",
    "source_country": "IT",
    "country": "Italy",
    "state": "Emilia-Romagna",
    "city": "Mercato Saraceno"
  },
  {
    "source_id": "ChIJhZ6VmoA2KxMRihahY_0X8jQ",
    "name": "C.T.A. Benini Srl",
    "category": "C.T.A. Benini Srl",
    "formatted_address": "4,5(31)",
    "phone_number": "+390542690494",
    "source_url": "https://www.google.com/maps/place/C.T.A.+Benini+Srl/data=!4m7!3m6!1s0x132b36809a959e85:0x34f217fd63a1168a!8m2!3d44.3279038!4d11.6655518!16s%2Fg%2F1tfy4mx5!19sChIJhZ6VmoA2KxMRihahY_0X8jQ?authuser=0&hl=tr&rclk=1",
    "website_url": "http://www.depurazioneacquaimola.com/",
    "rating_text": "4,5",
    "stars": null,
    "number_of_reviews": null,
    "price_level": "",
    "open_hours": "",
    "extraction_timestamp": "2025-06-07T16:44:18.686Z",
    "source_name": "google",
    "source_query": "Irrigation Equipment",
    "source_country": "IT",
    "country": "Italy",
    "state": "Emilia-Romagna",
    "city": "Mercato Saraceno"
  },
  {
    "source_id": "ChIJKYQCSG1OKxMR1ASS3fbT3nU",
    "name": "Cila Ciicai Magazzino Faenza",
    "category": "Cila Ciicai Magazzino Faenza",
    "formatted_address": "4,1(119)",
    "phone_number": "+390546643711",
    "source_url": "https://www.google.com/maps/place/Cila+Ciicai+Magazzino+Faenza/data=!4m7!3m6!1s0x132b4e6d48028429:0x75ded3f6dd9204d4!8m2!3d44.2958374!4d11.8662968!16s%2Fg%2F1vd3xy0g!19sChIJKYQCSG1OKxMR1ASS3fbT3nU?authuser=0&hl=tr&rclk=1",
    "website_url": "https://www.cilaciicai.it/",
    "rating_text": "4,1",
    "stars": null,
    "number_of_reviews": null,
    "price_level": "",
    "open_hours": "",
    "extraction_timestamp": "2025-06-07T16:44:18.687Z",
    "source_name": "google",
    "source_query": "Irrigation Equipment",
    "source_country": "IT",
    "country": "Italy",
    "state": "Emilia-Romagna",
    "city": "Mercato Saraceno"
  },
  {
    "source_id": "ChIJmaLwB5pKKxMR4DMracMVOxM",
    "name": "Agriflor S.N.C. Di Cernera E Garavini",
    "category": "Agriflor S.N.C. Di Cernera E Garavini",
    "formatted_address": "5,0(52)",
    "phone_number": "+39051857296",
    "source_url": "https://www.google.com/maps/place/Agriflor+S.N.C.+Di+Cernera+E+Garavini/data=!4m7!3m6!1s0x132b4a9a07f0a299:0x133b15c3692b33e0!8m2!3d44.3728346!4d11.7180482!16s%2Fg%2F11mbpgfq2b!19sChIJmaLwB5pKKxMR4DMracMVOxM?authuser=0&hl=tr&rclk=1",
    "website_url": "http://www.agriflor.eu/",
    "rating_text": "5,0",
    "stars": null,
    "number_of_reviews": null,
    "price_level": "",
    "open_hours": "",
    "extraction_timestamp": "2025-06-07T16:44:18.688Z",
    "source_name": "google",
    "source_query": "Irrigation Equipment",
    "source_country": "IT",
    "country": "Italy",
    "state": "Emilia-Romagna",
    "city": "Mercato Saraceno"
  },
  {
    "source_id": "ChIJbe6-WOFXKxMRK2ggb9TRbow",
    "name": "Idro Zeta - Magazzino - Forlì",
    "category": "Idro Zeta - Magazzino - Forlì",
    "formatted_address": "4,2(42)",
    "phone_number": "+390543802711",
    "source_url": "https://www.google.com/maps/place/Idro+Zeta+-+Magazzino+-+Forl%C3%AC/data=!4m7!3m6!1s0x132b57e158beee6d:0x8c6ed1d46f20682b!8m2!3d44.2230296!4d12.0695581!16s%2Fg%2F1hhwshbhd!19sChIJbe6-WOFXKxMRK2ggb9TRbow?authuser=0&hl=tr&rclk=1",
    "website_url": "http://www.idrozetashop.it/",
    "rating_text": "4,2",
    "stars": null,
    "number_of_reviews": null,
    "price_level": "",
    "open_hours": "",
    "extraction_timestamp": "2025-06-07T16:44:18.689Z",
    "source_name": "google",
    "source_query": "Irrigation Equipment",
    "source_country": "IT",
    "country": "Italy",
    "state": "Emilia-Romagna",
    "city": "Mercato Saraceno"
  },
  {
    "source_id": "ChIJt2ZIJDO7LBMR6uXwO4eGpxM",
    "name": "Ferramenta Ragonesi",
    "category": "Ferramenta Ragonesi",
    "formatted_address": "4,6(45)",
    "phone_number": "+390547302108",
    "source_url": "https://www.google.com/maps/place/Ferramenta+Ragonesi/data=!4m7!3m6!1s0x132cbb33244866b7:0x13a786873bf0e5ea!8m2!3d44.1396024!4d12.2593279!16s%2Fg%2F1pt_81r0f!19sChIJt2ZIJDO7LBMR6uXwO4eGpxM?authuser=0&hl=tr&rclk=1",
    "website_url": "",
    "rating_text": "4,6",
    "stars": null,
    "number_of_reviews": null,
    "price_level": "",
    "open_hours": "",
    "extraction_timestamp": "2025-06-07T16:44:18.690Z",
    "source_name": "google",
    "source_query": "Irrigation Equipment",
    "source_country": "IT",
    "country": "Italy",
    "state": "Emilia-Romagna",
    "city": "Mercato Saraceno"
  }
]
