[
  {
    "source_id": "ChIJMbAWCgi0LBMRoyrl4V4l6Xs",
    "name": "Ferramenta Gaspari",
    "category": "Ferramenta Gaspari",
    "formatted_address": "4,3(354)",
    "phone_number": "+390544976190",
    "source_url": "https://www.google.com/maps/place/Ferramenta+Gaspari/data=!4m7!3m6!1s0x132cb4080a16b031:0x7be9255ee1e52aa3!8m2!3d44.264377!4d12.347514!16s%2Fg%2F1vd3m4k2!19sChIJMbAWCgi0LBMRoyrl4V4l6Xs?authuser=0&hl=tr&rclk=1",
    "website_url": "",
    "rating_text": "4,3",
    "stars": null,
    "number_of_reviews": null,
    "price_level": "",
    "open_hours": "",
    "extraction_timestamp": "2025-06-07T16:03:30.224Z",
    "source_name": "google",
    "source_query": "Irrigation Equipment",
    "source_country": "IT",
    "country": "Italy",
    "state": "Emilia-Romagna",
    "city": "Milano Marittima"
  },
  {
    "source_id": "ChIJy4AVn9C-LBMRn6nsnuZl82A",
    "name": "Ramilli Irrigazioni S.R.L.",
    "category": "Ramilli Irrigazioni S.R.L.",
    "formatted_address": "4,3(52)",
    "phone_number": "+390541945335",
    "source_url": "https://www.google.com/maps/place/Ramilli+Irrigazioni+S.R.L./data=!4m7!3m6!1s0x132cbed09f1580cb:0x60f365e69eeca99f!8m2!3d44.0923156!4d12.3843691!16s%2Fg%2F1ts2ls1r!19sChIJy4AVn9C-LBMRn6nsnuZl82A?authuser=0&hl=tr&rclk=1",
    "website_url": "",
    "rating_text": "4,3",
    "stars": null,
    "number_of_reviews": null,
    "price_level": "",
    "open_hours": "",
    "extraction_timestamp": "2025-06-07T16:03:30.224Z",
    "source_name": "google",
    "source_query": "Irrigation Equipment",
    "source_country": "IT",
    "country": "Italy",
    "state": "Emilia-Romagna",
    "city": "Milano Marittima"
  },
  {
    "source_id": "ChIJr6aWSCmxLBMRFUDhIcwlYvI",
    "name": "Erre Ti technology SRL",
    "category": "Erre Ti technology SRL",
    "formatted_address": "5,0(5)",
    "phone_number": "+393470640151",
    "source_url": "https://www.google.com/maps/place/Erre+Ti+technology+SRL/data=!4m7!3m6!1s0x132cb1294896a6af:0xf26225cc21e14015!8m2!3d44.2212285!4d12.3408397!16s%2Fg%2F11b7ff8jlw!19sChIJr6aWSCmxLBMRFUDhIcwlYvI?authuser=0&hl=tr&rclk=1",
    "website_url": "",
    "rating_text": "5,0",
    "stars": null,
    "number_of_reviews": null,
    "price_level": "",
    "open_hours": "",
    "extraction_timestamp": "2025-06-07T16:03:30.225Z",
    "source_name": "google",
    "source_query": "Irrigation Equipment",
    "source_country": "IT",
    "country": "Italy",
    "state": "Emilia-Romagna",
    "city": "Milano Marittima"
  },
  {
    "source_id": "ChIJR_ED3_ezLBMRK1fou5MKtnI",
    "name": "ARCA C + C Cash & Carry Cervia",
    "category": "ARCA C + C Cash & Carry Cervia",
    "formatted_address": "4,2(204)",
    "phone_number": "+390544972557",
    "source_url": "https://www.google.com/maps/place/ARCA+C+%2B+C+Cash+%26+Carry+Cervia/data=!4m7!3m6!1s0x132cb3f7df03f147:0x72b60a93bbe8572b!8m2!3d44.2662059!4d12.3434651!16s%2Fg%2F1twxnqbz!19sChIJR_ED3_ezLBMRK1fou5MKtnI?authuser=0&hl=tr&rclk=1",
    "website_url": "",
    "rating_text": "4,2",
    "stars": null,
    "number_of_reviews": null,
    "price_level": "",
    "open_hours": "",
    "extraction_timestamp": "2025-06-07T16:03:30.225Z",
    "source_name": "google",
    "source_query": "Irrigation Equipment",
    "source_country": "IT",
    "country": "Italy",
    "state": "Emilia-Romagna",
    "city": "Milano Marittima"
  },
  {
    "source_id": "ChIJI4Dl3zu1LBMR182Uq_ohxqs",
    "name": "Ferramenta Angeli",
    "category": "Ferramenta Angeli",
    "formatted_address": "5,0(5)",
    "phone_number": "+3905441888162",
    "source_url": "https://www.google.com/maps/place/Ferramenta+Angeli/data=!4m7!3m6!1s0x132cb53bdfe58023:0xabc621faab94cdd7!8m2!3d44.2709288!4d12.3499862!16s%2Fg%2F11vq7rxr1r!19sChIJI4Dl3zu1LBMR182Uq_ohxqs?authuser=0&hl=tr&rclk=1",
    "website_url": "",
    "rating_text": "5,0",
    "stars": null,
    "number_of_reviews": null,
    "price_level": "",
    "open_hours": "",
    "extraction_timestamp": "2025-06-07T16:03:30.226Z",
    "source_name": "google",
    "source_query": "Irrigation Equipment",
    "source_country": "IT",
    "country": "Italy",
    "state": "Emilia-Romagna",
    "city": "Milano Marittima"
  }
]
