[
  {
    "source_id": "ChIJ0VNlJROXf0cRawSw3h0WMtU",
    "name": "Idromarket Srl",
    "category": "Idromarket Srl",
    "formatted_address": "4,5(132)",
    "phone_number": "+390535610490",
    "source_url": "https://www.google.com/maps/place/Idromarket+Srl/data=!4m7!3m6!1s0x477f9713256553d1:0xd532161ddeb0046b!8m2!3d44.8739092!4d11.0680834!16s%2Fg%2F1tql3mhn!19sChIJ0VNlJROXf0cRawSw3h0WMtU?authuser=0&hl=tr&rclk=1",
    "website_url": "",
    "rating_text": "4,5",
    "stars": null,
    "number_of_reviews": null,
    "price_level": "",
    "open_hours": "",
    "extraction_timestamp": "2025-06-07T16:06:05.546Z",
    "source_name": "google",
    "source_query": "Irrigation Equipment",
    "source_country": "IT",
    "country": "Italy",
    "state": "Emilia-Romagna",
    "city": "Mirandola"
  },
  {
    "source_id": "ChIJnXWgRMKWf0cRP58_UogISZ4",
    "name": "Fontana Elettromeccanica Snc",
    "category": "Fontana Elettromeccanica Snc",
    "formatted_address": "4,0(17)",
    "phone_number": "+39053520207",
    "source_url": "https://www.google.com/maps/place/Fontana+Elettromeccanica+Snc/data=!4m7!3m6!1s0x477f96c244a0759d:0x9e490888523f9f3f!8m2!3d44.8780548!4d11.0698553!16s%2Fg%2F1vd7054f!19sChIJnXWgRMKWf0cRP58_UogISZ4?authuser=0&hl=tr&rclk=1",
    "website_url": "",
    "rating_text": "4,0",
    "stars": null,
    "number_of_reviews": null,
    "price_level": "",
    "open_hours": "",
    "extraction_timestamp": "2025-06-07T16:06:05.547Z",
    "source_name": "google",
    "source_query": "Irrigation Equipment",
    "source_country": "IT",
    "country": "Italy",
    "state": "Emilia-Romagna",
    "city": "Mirandola"
  },
  {
    "source_id": "ChIJ862uD_mTf0cRxsUDQ0yggAU",
    "name": "DB Fluid S.r.l.| Vendita, riparazione e revisione componenti oleodinamici | Modena | Mirandola",
    "category": "DB Fluid S.r.l.| Vendita, riparazione e revisione componenti oleodinamici | Modena | Mirandola",
    "formatted_address": "DB Fluid S.r.l.| Vendita, riparazione e revisione componenti oleodinamici | Modena | Mirandola",
    "phone_number": "+393240923663",
    "source_url": "https://www.google.com/maps/place/DB+Fluid+S.r.l.%7C+Vendita,+riparazione+e+revisione+componenti+oleodinamici+%7C+Modena+%7C+Mirandola/data=!4m7!3m6!1s0x477f93f90faeadf3:0x580a04c4303c5c6!8m2!3d44.8934608!4d11.0870412!16s%2Fg%2F11cs1sb3q6!19sChIJ862uD_mTf0cRxsUDQ0yggAU?authuser=0&hl=tr&rclk=1",
    "website_url": "",
    "rating_text": "4,7",
    "stars": null,
    "number_of_reviews": null,
    "price_level": "",
    "open_hours": "",
    "extraction_timestamp": "2025-06-07T16:06:05.548Z",
    "source_name": "google",
    "source_query": "Irrigation Equipment",
    "source_country": "IT",
    "country": "Italy",
    "state": "Emilia-Romagna",
    "city": "Mirandola"
  },
  {
    "source_id": "ChIJP7UJkmyXf0cRVW34e66bU2I",
    "name": "S. I. R. I. A. Spa",
    "category": "S. I. R. I. A. Spa",
    "formatted_address": "4,7(15)",
    "phone_number": "+39053521907",
    "source_url": "https://www.google.com/maps/place/S.+I.+R.+I.+A.+Spa/data=!4m7!3m6!1s0x477f976c9209b53f:0x62539bae7bf86d55!8m2!3d44.8938563!4d11.0818842!16s%2Fg%2F1t_hxv98!19sChIJP7UJkmyXf0cRVW34e66bU2I?authuser=0&hl=tr&rclk=1",
    "website_url": "",
    "rating_text": "4,7",
    "stars": null,
    "number_of_reviews": null,
    "price_level": "",
    "open_hours": "",
    "extraction_timestamp": "2025-06-07T16:06:05.549Z",
    "source_name": "google",
    "source_query": "Irrigation Equipment",
    "source_country": "IT",
    "country": "Italy",
    "state": "Emilia-Romagna",
    "city": "Mirandola"
  },
  {
    "source_id": "ChIJrZeQJ3SXf0cRsmWCRzrh1ig",
    "name": "Bertani S.p.a. - Magazzino di Mirandola",
    "category": "Bertani S.p.a. - Magazzino di Mirandola",
    "formatted_address": "5,0(5)",
    "phone_number": "+39053523127",
    "source_url": "https://www.google.com/maps/place/Bertani+S.p.a.+-+Magazzino+di+Mirandola/data=!4m7!3m6!1s0x477f9774279097ad:0x28d6e13a478265b2!8m2!3d44.888916!4d11.0563812!16s%2Fg%2F11sbd4pyxh!19sChIJrZeQJ3SXf0cRsmWCRzrh1ig?authuser=0&hl=tr&rclk=1",
    "website_url": "",
    "rating_text": "5,0",
    "stars": null,
    "number_of_reviews": null,
    "price_level": "",
    "open_hours": "",
    "extraction_timestamp": "2025-06-07T16:06:05.550Z",
    "source_name": "google",
    "source_query": "Irrigation Equipment",
    "source_country": "IT",
    "country": "Italy",
    "state": "Emilia-Romagna",
    "city": "Mirandola"
  },
  {
    "source_id": "ChIJQfDjXhOXf0cRBBw6Sq0mcTY",
    "name": "Azienda Agricola Az",
    "category": "Azienda Agricola Az",
    "formatted_address": "4,6(40)",
    "phone_number": "+390535611693",
    "source_url": "https://www.google.com/maps/place/Azienda+Agricola+Az/data=!4m7!3m6!1s0x477f97135ee3f041:0x367126ad4a3a1c04!8m2!3d44.8902761!4d11.0809506!16s%2Fg%2F11fnwhc069!19sChIJQfDjXhOXf0cRBBw6Sq0mcTY?authuser=0&hl=tr&rclk=1",
    "website_url": "",
    "rating_text": "4,6",
    "stars": null,
    "number_of_reviews": null,
    "price_level": "",
    "open_hours": "",
    "extraction_timestamp": "2025-06-07T16:06:05.552Z",
    "source_name": "google",
    "source_query": "Irrigation Equipment",
    "source_country": "IT",
    "country": "Italy",
    "state": "Emilia-Romagna",
    "city": "Mirandola"
  },
  {
    "source_id": "ChIJH1siXmqXf0cRffep9RI-_KM",
    "name": "Idros.art & Bozzola Group S.p.A.",
    "category": "Idros.art & Bozzola Group S.p.A.",
    "formatted_address": "4,4(7)",
    "phone_number": "+390535657457",
    "source_url": "https://www.google.com/maps/place/Idros.art+%26+Bozzola+Group+S.p.A./data=!4m7!3m6!1s0x477f976a5e225b1f:0xa3fc3e12f5a9f77d!8m2!3d44.8962686!4d11.0777354!16s%2Fg%2F1hc77k1j7!19sChIJH1siXmqXf0cRffep9RI-_KM?authuser=0&hl=tr&rclk=1",
    "website_url": "",
    "rating_text": "4,4",
    "stars": null,
    "number_of_reviews": null,
    "price_level": "",
    "open_hours": "",
    "extraction_timestamp": "2025-06-07T16:06:05.553Z",
    "source_name": "google",
    "source_query": "Irrigation Equipment",
    "source_country": "IT",
    "country": "Italy",
    "state": "Emilia-Romagna",
    "city": "Mirandola"
  },
  {
    "source_id": "ChIJTxtTY2yXf0cRzmoqW0SyFpw",
    "name": "Sogedi Srl",
    "category": "Sogedi Srl",
    "formatted_address": "4,6(26)",
    "phone_number": "+390535610603",
    "source_url": "https://www.google.com/maps/place/Sogedi+Srl/data=!4m7!3m6!1s0x477f976c63531b4f:0x9c16b2445b2a6ace!8m2!3d44.8968664!4d11.0820718!16s%2Fg%2F1tdkl1r2!19sChIJTxtTY2yXf0cRzmoqW0SyFpw?authuser=0&hl=tr&rclk=1",
    "website_url": "",
    "rating_text": "4,6",
    "stars": null,
    "number_of_reviews": null,
    "price_level": "",
    "open_hours": "",
    "extraction_timestamp": "2025-06-07T16:06:05.554Z",
    "source_name": "google",
    "source_query": "Irrigation Equipment",
    "source_country": "IT",
    "country": "Italy",
    "state": "Emilia-Romagna",
    "city": "Mirandola"
  },
  {
    "source_id": "ChIJAUS-MDGXf0cR_psl5rkJW9Y",
    "name": "Bertani S.p.a. - Showroom di Mirandola",
    "category": "Bertani S.p.a. - Showroom di Mirandola",
    "formatted_address": "4,3(68)",
    "phone_number": "+39053523127",
    "source_url": "https://www.google.com/maps/place/Bertani+S.p.a.+-+Showroom+di+Mirandola/data=!4m7!3m6!1s0x477f973130be4401:0xd65b09b9e6259bfe!8m2!3d44.888916!4d11.0563812!16s%2Fg%2F1tt1rjvt!19sChIJAUS-MDGXf0cR_psl5rkJW9Y?authuser=0&hl=tr&rclk=1",
    "website_url": "",
    "rating_text": "4,3",
    "stars": null,
    "number_of_reviews": null,
    "price_level": "",
    "open_hours": "",
    "extraction_timestamp": "2025-06-07T16:06:05.556Z",
    "source_name": "google",
    "source_query": "Irrigation Equipment",
    "source_country": "IT",
    "country": "Italy",
    "state": "Emilia-Romagna",
    "city": "Mirandola"
  },
  {
    "source_id": "ChIJmQ6DjjSXf0cRmpwJML_YXVI",
    "name": "Brico Io",
    "category": "Brico Io",
    "formatted_address": "3,8(1.124)",
    "phone_number": "+39053526875",
    "source_url": "https://www.google.com/maps/place/Brico+Io/data=!4m7!3m6!1s0x477f97348e830e99:0x525dd8bf30099c9a!8m2!3d44.8908767!4d11.0519371!16s%2Fg%2F11c469hgdn!19sChIJmQ6DjjSXf0cRmpwJML_YXVI?authuser=0&hl=tr&rclk=1",
    "website_url": "",
    "rating_text": "3,8",
    "stars": null,
    "number_of_reviews": null,
    "price_level": "",
    "open_hours": "",
    "extraction_timestamp": "2025-06-07T16:06:05.557Z",
    "source_name": "google",
    "source_query": "Irrigation Equipment",
    "source_country": "IT",
    "country": "Italy",
    "state": "Emilia-Romagna",
    "city": "Mirandola"
  },
  {
    "source_id": "ChIJR1hboTKYf0cRprdUlGEziF8",
    "name": "Mira Srl| Impresa di trivellazioni orizzontali controllate| Modena| Mirandola",
    "category": "Mira Srl| Impresa di trivellazioni orizzontali controllate| Modena| Mirandola",
    "formatted_address": "5,0(2)",
    "phone_number": "+39053535507",
    "source_url": "https://www.google.com/maps/place/Mira+Srl%7C+Impresa+di+trivellazioni+orizzontali+controllate%7C+Modena%7C+Mirandola/data=!4m7!3m6!1s0x477f9832a15b5847:0x5f8833619454b7a6!8m2!3d44.917413!4d11.109463!16s%2Fg%2F1hc6bp8rs!19sChIJR1hboTKYf0cRprdUlGEziF8?authuser=0&hl=tr&rclk=1",
    "website_url": "",
    "rating_text": "5,0",
    "stars": null,
    "number_of_reviews": null,
    "price_level": "",
    "open_hours": "",
    "extraction_timestamp": "2025-06-07T16:06:05.559Z",
    "source_name": "google",
    "source_query": "Irrigation Equipment",
    "source_country": "IT",
    "country": "Italy",
    "state": "Emilia-Romagna",
    "city": "Mirandola"
  },
  {
    "source_id": "ChIJtdJC5j6Zf0cRmmVcuMyNEW0",
    "name": "Tadei | Impianti irrigazione | Robot tagliaerba | Barbecue | Outdoor",
    "category": "Tadei | Impianti irrigazione | Robot tagliaerba | Barbecue | Outdoor",
    "formatted_address": "4,6(69)",
    "phone_number": "+390386733460",
    "source_url": "https://www.google.com/maps/place/Tadei+%7C+Impianti+irrigazione+%7C+Robot+tagliaerba+%7C+Barbecue+%7C+Outdoor/data=!4m7!3m6!1s0x477f993ee642d2b5:0x6d118dccb85c659a!8m2!3d44.9680645!4d11.1076526!16s%2Fg%2F113dpgnd_!19sChIJtdJC5j6Zf0cRmmVcuMyNEW0?authuser=0&hl=tr&rclk=1",
    "website_url": "",
    "rating_text": "4,6",
    "stars": null,
    "number_of_reviews": null,
    "price_level": "",
    "open_hours": "",
    "extraction_timestamp": "2025-06-07T16:06:05.560Z",
    "source_name": "google",
    "source_query": "Irrigation Equipment",
    "source_country": "IT",
    "country": "Italy",
    "state": "Emilia-Romagna",
    "city": "Mirandola"
  },
  {
    "source_id": "ChIJD7SdQA2Xf0cRHBOpVqCNeSM",
    "name": "Dog & Company",
    "category": "Dog & Company",
    "formatted_address": "4,5(45)",
    "phone_number": "",
    "source_url": "https://www.google.com/maps/place/Dog+%26+Company/data=!4m7!3m6!1s0x477f970d409db40f:0x23798da056a9131c!8m2!3d44.8852116!4d11.0713511!16s%2Fg%2F11h1dgh3nb!19sChIJD7SdQA2Xf0cRHBOpVqCNeSM?authuser=0&hl=tr&rclk=1",
    "website_url": "",
    "rating_text": "4,5",
    "stars": null,
    "number_of_reviews": null,
    "price_level": "",
    "open_hours": "",
    "extraction_timestamp": "2025-06-07T16:06:05.561Z",
    "source_name": "google",
    "source_query": "Irrigation Equipment",
    "source_country": "IT",
    "country": "Italy",
    "state": "Emilia-Romagna",
    "city": "Mirandola"
  },
  {
    "source_id": "ChIJAwRfY6KXf0cRkOT2cvjX6tY",
    "name": "Acquashop Mirandola",
    "category": "Acquashop Mirandola",
    "formatted_address": "4,6(54)",
    "phone_number": "+39338270851524",
    "source_url": "https://www.google.com/maps/place/Acquashop+Mirandola/data=!4m7!3m6!1s0x477f97a2635f0403:0xd6ead7f872f6e490!8m2!3d44.8913647!4d11.080925!16s%2Fg%2F11rwwlf216!19sChIJAwRfY6KXf0cRkOT2cvjX6tY?authuser=0&hl=tr&rclk=1",
    "website_url": "",
    "rating_text": "4,6",
    "stars": null,
    "number_of_reviews": null,
    "price_level": "",
    "open_hours": "",
    "extraction_timestamp": "2025-06-07T16:06:05.562Z",
    "source_name": "google",
    "source_query": "Irrigation Equipment",
    "source_country": "IT",
    "country": "Italy",
    "state": "Emilia-Romagna",
    "city": "Mirandola"
  },
  {
    "source_id": "ChIJKWOCc9uWf0cRFYgMX3ZDszs",
    "name": "TN RISPA S.R.L.",
    "category": "TN RISPA S.R.L.",
    "formatted_address": "5,0(4)",
    "phone_number": "+3905351948925",
    "source_url": "https://www.google.com/maps/place/TN+RISPA+S.R.L./data=!4m7!3m6!1s0x477f96db73826329:0x3bb343765f0c8815!8m2!3d44.8681438!4d11.0574351!16s%2Fg%2F11g8vp1y1k!19sChIJKWOCc9uWf0cRFYgMX3ZDszs?authuser=0&hl=tr&rclk=1",
    "website_url": "",
    "rating_text": "5,0",
    "stars": null,
    "number_of_reviews": null,
    "price_level": "",
    "open_hours": "",
    "extraction_timestamp": "2025-06-07T16:06:05.563Z",
    "source_name": "google",
    "source_query": "Irrigation Equipment",
    "source_country": "IT",
    "country": "Italy",
    "state": "Emilia-Romagna",
    "city": "Mirandola"
  },
  {
    "source_id": "ChIJBXCsXxOXf0cRBG5yahG3sCI",
    "name": "Würth Store & MODYF Mirandola",
    "category": "Würth Store & MODYF Mirandola",
    "formatted_address": "3,9(9)",
    "phone_number": "+390471827994",
    "source_url": "https://www.google.com/maps/place/W%C3%BCrth+Store+%26+MODYF+Mirandola/data=!4m7!3m6!1s0x477f97135fac7005:0x22b0b7116a726e04!8m2!3d44.8920222!4d11.0815575!16s%2Fg%2F11ckgll28x!19sChIJBXCsXxOXf0cRBG5yahG3sCI?authuser=0&hl=tr&rclk=1",
    "website_url": "",
    "rating_text": "3,9",
    "stars": null,
    "number_of_reviews": null,
    "price_level": "",
    "open_hours": "",
    "extraction_timestamp": "2025-06-07T16:06:05.564Z",
    "source_name": "google",
    "source_query": "Irrigation Equipment",
    "source_country": "IT",
    "country": "Italy",
    "state": "Emilia-Romagna",
    "city": "Mirandola"
  },
  {
    "source_id": "ChIJcQG6ul7df0cR3VxKiu5OPBs",
    "name": "Scova Impianti Srl",
    "category": "Scova Impianti Srl",
    "formatted_address": "4,5(64)",
    "phone_number": "+39059923202",
    "source_url": "https://www.google.com/maps/place/Scova+Impianti+Srl/data=!4m7!3m6!1s0x477fdd5ebaba0171:0x1b3c4eee8a4a5cdd!8m2!3d44.6018135!4d11.032294!16s%2Fg%2F1tfzwbfb!19sChIJcQG6ul7df0cR3VxKiu5OPBs?authuser=0&hl=tr&rclk=1",
    "website_url": "",
    "rating_text": "4,5",
    "stars": null,
    "number_of_reviews": null,
    "price_level": "",
    "open_hours": "",
    "extraction_timestamp": "2025-06-07T16:06:05.565Z",
    "source_name": "google",
    "source_query": "Irrigation Equipment",
    "source_country": "IT",
    "country": "Italy",
    "state": "Emilia-Romagna",
    "city": "Mirandola"
  },
  {
    "source_id": "ChIJjdVhftuWf0cRfhK6U_myfmE",
    "name": "METAL CENTER SRL - FERRAMENTA",
    "category": "METAL CENTER SRL - FERRAMENTA",
    "formatted_address": "4,5(43)",
    "phone_number": "+393389136833",
    "source_url": "https://www.google.com/maps/place/METAL+CENTER+SRL+-+FERRAMENTA/data=!4m7!3m6!1s0x477f96db7e61d58d:0x617eb2f953ba127e!8m2!3d44.8681917!4d11.0589671!16s%2Fg%2F11b6hsl97s!19sChIJjdVhftuWf0cRfhK6U_myfmE?authuser=0&hl=tr&rclk=1",
    "website_url": "",
    "rating_text": "4,5",
    "stars": null,
    "number_of_reviews": null,
    "price_level": "",
    "open_hours": "",
    "extraction_timestamp": "2025-06-07T16:06:05.566Z",
    "source_name": "google",
    "source_query": "Irrigation Equipment",
    "source_country": "IT",
    "country": "Italy",
    "state": "Emilia-Romagna",
    "city": "Mirandola"
  },
  {
    "source_id": "ChIJDew3AEaXf0cRdpXeh5iMVaE",
    "name": "Agrizoo San Felice SrlProdoti per zootecnia e agricoltura",
    "category": "Agrizoo San Felice SrlProdoti per zootecnia e agricoltura",
    "formatted_address": "4,3(190)",
    "phone_number": "+39053522335",
    "source_url": "https://www.google.com/maps/place/Agrizoo+San+Felice+SrlProdoti+per+zootecnia+e+agricoltura/data=!4m7!3m6!1s0x477f97460037ec0d:0xa1558c9887de9576!8m2!3d44.8979951!4d11.0644713!16s%2Fg%2F1tfxwwhn!19sChIJDew3AEaXf0cRdpXeh5iMVaE?authuser=0&hl=tr&rclk=1",
    "website_url": "",
    "rating_text": "4,3",
    "stars": null,
    "number_of_reviews": null,
    "price_level": "",
    "open_hours": "",
    "extraction_timestamp": "2025-06-07T16:06:05.567Z",
    "source_name": "google",
    "source_query": "Irrigation Equipment",
    "source_country": "IT",
    "country": "Italy",
    "state": "Emilia-Romagna",
    "city": "Mirandola"
  },
  {
    "source_id": "ChIJyefG4TmXf0cRE-rLYyFfphQ",
    "name": "Ipercoop",
    "category": "Ipercoop",
    "formatted_address": "4,0(2.333)",
    "phone_number": "+390535618711",
    "source_url": "https://www.google.com/maps/place/Ipercoop/data=!4m7!3m6!1s0x477f9739e1c6e7c9:0x14a65f2163cbea13!8m2!3d44.8901211!4d11.0548359!16s%2Fg%2F1tfnxff9!19sChIJyefG4TmXf0cRE-rLYyFfphQ?authuser=0&hl=tr&rclk=1",
    "website_url": "",
    "rating_text": "4,0",
    "stars": null,
    "number_of_reviews": null,
    "price_level": "",
    "open_hours": "",
    "extraction_timestamp": "2025-06-07T16:06:05.570Z",
    "source_name": "google",
    "source_query": "Irrigation Equipment",
    "source_country": "IT",
    "country": "Italy",
    "state": "Emilia-Romagna",
    "city": "Mirandola"
  },
  {
    "source_id": "ChIJYWvtzEyUf0cRvOtyHgDWmHQ",
    "name": "Monverde Garden Della Cappelletta",
    "category": "Monverde Garden Della Cappelletta",
    "formatted_address": "4,6(259)",
    "phone_number": "+39059809196",
    "source_url": "https://www.google.com/maps/place/Monverde+Garden+Della+Cappelletta/data=!4m7!3m6!1s0x477f944ccced6b61:0x7498d6001e72ebbc!8m2!3d44.8164215!4d11.0547876!16s%2Fg%2F1tfjdd12!19sChIJYWvtzEyUf0cRvOtyHgDWmHQ?authuser=0&hl=tr&rclk=1",
    "website_url": "",
    "rating_text": "4,6",
    "stars": null,
    "number_of_reviews": null,
    "price_level": "",
    "open_hours": "",
    "extraction_timestamp": "2025-06-07T16:06:05.572Z",
    "source_name": "google",
    "source_query": "Irrigation Equipment",
    "source_country": "IT",
    "country": "Italy",
    "state": "Emilia-Romagna",
    "city": "Mirandola"
  },
  {
    "source_id": "ChIJ-_xPVy2Xf0cRHXtzq8F53As",
    "name": "Svapoweb Mirandola",
    "category": "Svapoweb Mirandola",
    "formatted_address": "4,9(234)",
    "phone_number": "+390535734341",
    "source_url": "https://www.google.com/maps/place/Svapoweb+Mirandola/data=!4m7!3m6!1s0x477f972d574ffcfb:0xbdc79c1ab737b1d!8m2!3d44.8874506!4d11.0660716!16s%2Fg%2F11scgj0tfl!19sChIJ-_xPVy2Xf0cRHXtzq8F53As?authuser=0&hl=tr&rclk=1",
    "website_url": "",
    "rating_text": "4,9",
    "stars": null,
    "number_of_reviews": null,
    "price_level": "",
    "open_hours": "",
    "extraction_timestamp": "2025-06-07T16:06:05.573Z",
    "source_name": "google",
    "source_query": "Irrigation Equipment",
    "source_country": "IT",
    "country": "Italy",
    "state": "Emilia-Romagna",
    "city": "Mirandola"
  },
  {
    "source_id": "ChIJ3SKHPEyXf0cRc5a0zYd3RUY",
    "name": "Dog&Company by L'Isola dei Tesori",
    "category": "Dog&Company by L'Isola dei Tesori",
    "formatted_address": "4,5(103)",
    "phone_number": "+39053521135",
    "source_url": "https://www.google.com/maps/place/Dog%26Company+by+L%27Isola+dei+Tesori/data=!4m7!3m6!1s0x477f974c3c8722dd:0x46457787cdb49673!8m2!3d44.8851611!4d11.0709469!16s%2Fg%2F11h3ydr5_g!19sChIJ3SKHPEyXf0cRc5a0zYd3RUY?authuser=0&hl=tr&rclk=1",
    "website_url": "",
    "rating_text": "4,5",
    "stars": null,
    "number_of_reviews": null,
    "price_level": "",
    "open_hours": "",
    "extraction_timestamp": "2025-06-07T16:06:05.574Z",
    "source_name": "google",
    "source_query": "Irrigation Equipment",
    "source_country": "IT",
    "country": "Italy",
    "state": "Emilia-Romagna",
    "city": "Mirandola"
  },
  {
    "source_id": "ChIJ6Rc5niKXf0cRcjJFKPCUdA0",
    "name": "Rainbow Blue Mirandola",
    "category": "Rainbow Blue Mirandola",
    "formatted_address": "4,3(292)",
    "phone_number": "+390535610544",
    "source_url": "https://www.google.com/maps/place/Rainbow+Blue+Mirandola/data=!4m7!3m6!1s0x477f97229e3917e9:0xd7494f028453272!8m2!3d44.884022!4d11.070082!16s%2Fg%2F1tz70795!19sChIJ6Rc5niKXf0cRcjJFKPCUdA0?authuser=0&hl=tr&rclk=1",
    "website_url": "",
    "rating_text": "4,3",
    "stars": null,
    "number_of_reviews": null,
    "price_level": "",
    "open_hours": "",
    "extraction_timestamp": "2025-06-07T16:06:05.575Z",
    "source_name": "google",
    "source_query": "Irrigation Equipment",
    "source_country": "IT",
    "country": "Italy",
    "state": "Emilia-Romagna",
    "city": "Mirandola"
  },
  {
    "source_id": "ChIJJc3ITDmXf0cR1CkZOjZQdFI",
    "name": "Ferramenta Nardi Maurizio",
    "category": "Ferramenta Nardi Maurizio",
    "formatted_address": "4,5(120)",
    "phone_number": "+39053521239",
    "source_url": "https://www.google.com/maps/place/Ferramenta+Nardi+Maurizio/data=!4m7!3m6!1s0x477f97394cc8cd25:0x527450363a1929d4!8m2!3d44.8891986!4d11.0669934!16s%2Fg%2F11gbl36jhs!19sChIJJc3ITDmXf0cR1CkZOjZQdFI?authuser=0&hl=tr&rclk=1",
    "website_url": "",
    "rating_text": "4,5",
    "stars": null,
    "number_of_reviews": null,
    "price_level": "",
    "open_hours": "",
    "extraction_timestamp": "2025-06-07T16:06:05.576Z",
    "source_name": "google",
    "source_query": "Irrigation Equipment",
    "source_country": "IT",
    "country": "Italy",
    "state": "Emilia-Romagna",
    "city": "Mirandola"
  },
  {
    "source_id": "ChIJtbN9A-8rgEcRVZtaRSESNOU",
    "name": "Perazzi Irrigatori",
    "category": "Perazzi Irrigatori",
    "formatted_address": "5,0(1)",
    "phone_number": "+390376535952",
    "source_url": "https://www.google.com/maps/place/Perazzi+Irrigatori/data=!4m7!3m6!1s0x47802bef037db3b5:0xe5341221455a9b55!8m2!3d44.9841775!4d10.7699573!16s%2Fg%2F1vd74s01!19sChIJtbN9A-8rgEcRVZtaRSESNOU?authuser=0&hl=tr&rclk=1",
    "website_url": "",
    "rating_text": "5,0",
    "stars": null,
    "number_of_reviews": null,
    "price_level": "",
    "open_hours": "",
    "extraction_timestamp": "2025-06-07T16:06:05.577Z",
    "source_name": "google",
    "source_query": "Irrigation Equipment",
    "source_country": "IT",
    "country": "Italy",
    "state": "Emilia-Romagna",
    "city": "Mirandola"
  },
  {
    "source_id": "ChIJBQWDMTqXf0cRzOYhHrfeJBc",
    "name": "Sigma Di Mirandola Circonvallazione",
    "category": "Sigma Di Mirandola Circonvallazione",
    "formatted_address": "4,1(241)",
    "phone_number": "+390535730596",
    "source_url": "https://www.google.com/maps/place/Sigma+Di+Mirandola+Circonvallazione/data=!4m7!3m6!1s0x477f973a31830505:0x1724deb71e21e6cc!8m2!3d44.8881641!4d11.0628232!16s%2Fg%2F11d_z8wr34!19sChIJBQWDMTqXf0cRzOYhHrfeJBc?authuser=0&hl=tr&rclk=1",
    "website_url": "",
    "rating_text": "4,1",
    "stars": null,
    "number_of_reviews": null,
    "price_level": "",
    "open_hours": "",
    "extraction_timestamp": "2025-06-07T16:06:05.578Z",
    "source_name": "google",
    "source_query": "Irrigation Equipment",
    "source_country": "IT",
    "country": "Italy",
    "state": "Emilia-Romagna",
    "city": "Mirandola"
  },
  {
    "source_id": "ChIJ-Z_RHvbnf0cRry0jCm7Q5GQ",
    "name": "Scova Impianti",
    "category": "Scova Impianti",
    "formatted_address": "4,0(4)",
    "phone_number": "+39059925910",
    "source_url": "https://www.google.com/maps/place/Scova+Impianti/data=!4m7!3m6!1s0x477fe7f61ed19ff9:0x64e4d06e0a232daf!8m2!3d44.6018937!4d11.0315223!16s%2Fg%2F1td6wznv!19sChIJ-Z_RHvbnf0cRry0jCm7Q5GQ?authuser=0&hl=tr&rclk=1",
    "website_url": "",
    "rating_text": "4,0",
    "stars": null,
    "number_of_reviews": null,
    "price_level": "",
    "open_hours": "",
    "extraction_timestamp": "2025-06-07T16:06:05.579Z",
    "source_name": "google",
    "source_query": "Irrigation Equipment",
    "source_country": "IT",
    "country": "Italy",
    "state": "Emilia-Romagna",
    "city": "Mirandola"
  },
  {
    "source_id": "ChIJKfea0RKXf0cR3XzH4TBvXos",
    "name": "NaturaSì",
    "category": "NaturaSì",
    "formatted_address": "4,4(142)",
    "phone_number": "+390535658259",
    "source_url": "https://www.google.com/maps/place/NaturaS%C3%AC/data=!4m7!3m6!1s0x477f9712d19af729:0x8b5e6f30e1c77cdd!8m2!3d44.891296!4d11.0830624!16s%2Fg%2F1pzvmr3k3!19sChIJKfea0RKXf0cR3XzH4TBvXos?authuser=0&hl=tr&rclk=1",
    "website_url": "",
    "rating_text": "4,4",
    "stars": null,
    "number_of_reviews": null,
    "price_level": "",
    "open_hours": "",
    "extraction_timestamp": "2025-06-07T16:06:05.580Z",
    "source_name": "google",
    "source_query": "Irrigation Equipment",
    "source_country": "IT",
    "country": "Italy",
    "state": "Emilia-Romagna",
    "city": "Mirandola"
  }
]
