[
  {
    "source_id": "ChIJKxDO8jfnLBMRsjpilgG3i3c",
    "name": "Elettromeccanica Muccioli Marco srl",
    "category": "Elettromeccanica Muccioli Marco srl",
    "formatted_address": "4,3(46)",
    "phone_number": "+390541614053",
    "source_url": "https://www.google.com/maps/place/Elettromeccanica+Muccioli+Marco+srl/data=!4m7!3m6!1s0x132ce737f2ce102b:0x778bb70196623ab2!8m2!3d43.9719197!4d12.6996493!16s%2Fg%2F12xqcl7d3!19sChIJKxDO8jfnLBMRsjpilgG3i3c?authuser=0&hl=tr&rclk=1",
    "website_url": "https://www.muccioli.it/?utm_source=google&utm_medium=mybusiness&utm_campaign=Google+MyBusiness&utm_content=gmb_site_link",
    "rating_text": "4,3",
    "stars": null,
    "number_of_reviews": null,
    "price_level": "",
    "open_hours": "",
    "extraction_timestamp": "2025-06-07T16:57:17.745Z",
    "source_name": "google",
    "source_query": "Irrigation Equipment",
    "source_country": "IT",
    "country": "Italy",
    "state": "Emilia-Romagna",
    "city": "Misano Adriatico"
  },
  {
    "source_id": "ChIJ2bYRFvHnLBMRsSUB7Bgyeic",
    "name": "Idrastore - Ceramiche -Arredo bagno -parquet-clima -caldaie",
    "category": "Idrastore - Ceramiche -Arredo bagno -parquet-clima -caldaie",
    "formatted_address": "4,9(15)",
    "phone_number": "+390541414311",
    "source_url": "https://www.google.com/maps/place/Idrastore+-+Ceramiche+-Arredo+bagno+-parquet-clima+-caldaie/data=!4m7!3m6!1s0x132ce7f11611b6d9:0x277a3218ec0125b1!8m2!3d43.9805557!4d12.6843294!16s%2Fg%2F11h7c9zf9c!19sChIJ2bYRFvHnLBMRsSUB7Bgyeic?authuser=0&hl=tr&rclk=1",
    "website_url": "",
    "rating_text": "4,9",
    "stars": null,
    "number_of_reviews": null,
    "price_level": "",
    "open_hours": "",
    "extraction_timestamp": "2025-06-07T16:57:17.745Z",
    "source_name": "google",
    "source_query": "Irrigation Equipment",
    "source_country": "IT",
    "country": "Italy",
    "state": "Emilia-Romagna",
    "city": "Misano Adriatico"
  },
  {
    "source_id": "ChIJc4iHtMHnLBMRJKqYvY2UI6o",
    "name": "Fluidra Pro Center Misano - negozio per professionisti del settore",
    "category": "Fluidra Pro Center Misano - negozio per professionisti del settore",
    "formatted_address": "4,3(20)",
    "phone_number": "+390541697483",
    "source_url": "https://www.google.com/maps/place/Fluidra+Pro+Center+Misano+-+negozio+per+professionisti+del+settore/data=!4m7!3m6!1s0x132ce7c1b4878873:0xaa23948dbd98aa24!8m2!3d43.9776153!4d12.641262!16s%2Fg%2F12hm9xks0!19sChIJc4iHtMHnLBMRJKqYvY2UI6o?authuser=0&hl=tr&rclk=1",
    "website_url": "http://www.astralpool.it/",
    "rating_text": "4,3",
    "stars": null,
    "number_of_reviews": null,
    "price_level": "",
    "open_hours": "",
    "extraction_timestamp": "2025-06-07T16:57:17.746Z",
    "source_name": "google",
    "source_query": "Irrigation Equipment",
    "source_country": "IT",
    "country": "Italy",
    "state": "Emilia-Romagna",
    "city": "Misano Adriatico"
  },
  {
    "source_id": "ChIJ9X_DI6LDLBMR84MeChQNUCU",
    "name": "Irriverde - Il Paesaggio S.r.l.",
    "category": "Irriverde - Il Paesaggio S.r.l.",
    "formatted_address": "4,8(15)",
    "phone_number": "+393939275801",
    "source_url": "https://www.google.com/maps/place/Irriverde+-+Il+Paesaggio+S.r.l./data=!4m7!3m6!1s0x132cc3a223c37ff5:0x25500d140a1e83f3!8m2!3d43.982224!4d12.5281091!16s%2Fg%2F1ptz65rjr!19sChIJ9X_DI6LDLBMR84MeChQNUCU?authuser=0&hl=tr&rclk=1",
    "website_url": "http://www.irriverde.it/",
    "rating_text": "4,8",
    "stars": null,
    "number_of_reviews": null,
    "price_level": "",
    "open_hours": "",
    "extraction_timestamp": "2025-06-07T16:57:17.746Z",
    "source_name": "google",
    "source_query": "Irrigation Equipment",
    "source_country": "IT",
    "country": "Italy",
    "state": "Emilia-Romagna",
    "city": "Misano Adriatico"
  }
]
