[
  {
    "source_id": "ChIJm_TQh8U7fkcRTPihCT3CnJw",
    "name": "Agrimaster - Demetra S.p.A.",
    "category": "Agrimaster - Demetra S.p.A.",
    "formatted_address": "4,3(68)",
    "phone_number": "+39051882701",
    "source_url": "https://www.google.com/maps/place/Agrimaster+-+Demetra+S.p.A./data=!4m7!3m6!1s0x477e3bc587d0f49b:0x9c9cc23d09a1f84c!8m2!3d44.6134207!4d11.6653831!16s%2Fg%2F1hc15fhsm!19sChIJm_TQh8U7fkcRTPihCT3CnJw?authuser=0&hl=tr&rclk=1",
    "website_url": "http://www.agrimaster.it/",
    "rating_text": "4,3",
    "stars": null,
    "number_of_reviews": null,
    "price_level": "",
    "open_hours": "",
    "extraction_timestamp": "2025-06-07T16:07:25.908Z",
    "source_name": "google",
    "source_query": "Irrigation Equipment",
    "source_country": "IT",
    "country": "Italy",
    "state": "Emilia-Romagna",
    "city": "Molinella"
  },
  {
    "source_id": "ChIJd0M5VNs7fkcRc9mkRKyD7VY",
    "name": "Nobili Spa",
    "category": "Nobili Spa",
    "formatted_address": "4,6(91)",
    "phone_number": "+39051881444",
    "source_url": "https://www.google.com/maps/place/Nobili+Spa/data=!4m7!3m6!1s0x477e3bdb54394377:0x56ed83ac44a4d973!8m2!3d44.6161901!4d11.6723144!16s%2Fg%2F11h2fn3qwv!19sChIJd0M5VNs7fkcRc9mkRKyD7VY?authuser=0&hl=tr&rclk=1",
    "website_url": "http://www.nobili.com/",
    "rating_text": "4,6",
    "stars": null,
    "number_of_reviews": null,
    "price_level": "",
    "open_hours": "",
    "extraction_timestamp": "2025-06-07T16:07:25.909Z",
    "source_name": "google",
    "source_query": "Irrigation Equipment",
    "source_country": "IT",
    "country": "Italy",
    "state": "Emilia-Romagna",
    "city": "Molinella"
  },
  {
    "source_id": "ChIJ42ecydE7fkcRIdpS4On6dFw",
    "name": "Erreti di Riccardo Tavolazzi | Ferramenta Molinella, Bologna",
    "category": "Erreti di Riccardo Tavolazzi | Ferramenta Molinella, Bologna",
    "formatted_address": "Erreti di Riccardo Tavolazzi | Ferramenta Molinella, Bologna",
    "phone_number": "+39051881176",
    "source_url": "https://www.google.com/maps/place/Erreti+di+Riccardo+Tavolazzi+%7C+Ferramenta+Molinella,+Bologna/data=!4m7!3m6!1s0x477e3bd1c99c67e3:0x5c74fae9e052da21!8m2!3d44.6149262!4d11.6685495!16s%2Fg%2F1t_wn5p5!19sChIJ42ecydE7fkcRIdpS4On6dFw?authuser=0&hl=tr&rclk=1",
    "website_url": "http://www.erreti.bo.it/",
    "rating_text": "4,6",
    "stars": null,
    "number_of_reviews": null,
    "price_level": "",
    "open_hours": "",
    "extraction_timestamp": "2025-06-07T16:07:25.911Z",
    "source_name": "google",
    "source_query": "Irrigation Equipment",
    "source_country": "IT",
    "country": "Italy",
    "state": "Emilia-Romagna",
    "city": "Molinella"
  },
  {
    "source_id": "ChIJK8usq8U7fkcR7ELsdaXhXUk",
    "name": "Argnani S.A.S. Termosanitari & Arredo Bagno",
    "category": "Argnani S.A.S. Termosanitari & Arredo Bagno",
    "formatted_address": "4,1(61)",
    "phone_number": "+39051887589",
    "source_url": "https://www.google.com/maps/place/Argnani+S.A.S.+Termosanitari+%26+Arredo+Bagno/data=!4m7!3m6!1s0x477e3bc5abaccb2b:0x495de1a575ec42ec!8m2!3d44.6144936!4d11.6679888!16s%2Fg%2F1w6_mntt!19sChIJK8usq8U7fkcR7ELsdaXhXUk?authuser=0&hl=tr&rclk=1",
    "website_url": "http://www.argnanimolinella.it/",
    "rating_text": "4,1",
    "stars": null,
    "number_of_reviews": null,
    "price_level": "",
    "open_hours": "",
    "extraction_timestamp": "2025-06-07T16:07:25.912Z",
    "source_name": "google",
    "source_query": "Irrigation Equipment",
    "source_country": "IT",
    "country": "Italy",
    "state": "Emilia-Romagna",
    "city": "Molinella"
  },
  {
    "source_id": "ChIJAejChMQ7fkcRkr1TcrmBdLE",
    "name": "NOBILI",
    "category": "NOBILI",
    "formatted_address": "4,8(9)",
    "phone_number": "",
    "source_url": "https://www.google.com/maps/place/NOBILI/data=!4m7!3m6!1s0x477e3bc484c2e801:0xb17481b97253bd92!8m2!3d44.614681!4d11.6710297!16s%2Fg%2F11tfhj9rb3!19sChIJAejChMQ7fkcRkr1TcrmBdLE?authuser=0&hl=tr&rclk=1",
    "website_url": "https://www.nobili.com/",
    "rating_text": "4,8",
    "stars": null,
    "number_of_reviews": null,
    "price_level": "",
    "open_hours": "",
    "extraction_timestamp": "2025-06-07T16:07:25.913Z",
    "source_name": "google",
    "source_query": "Irrigation Equipment",
    "source_country": "IT",
    "country": "Italy",
    "state": "Emilia-Romagna",
    "city": "Molinella"
  },
  {
    "source_id": "ChIJE_3jOnMtfkcRkxtTFj3Ym9E",
    "name": "Irrigation Scarabelli Srl",
    "category": "Irrigation Scarabelli Srl",
    "formatted_address": "4,5(23)",
    "phone_number": "+39051763363",
    "source_url": "https://www.google.com/maps/place/Irrigation+Scarabelli+Srl/data=!4m7!3m6!1s0x477e2d733ae3fd13:0xd19bd83d16531b93!8m2!3d44.5426053!4d11.4189136!16s%2Fg%2F11gzdz6vf!19sChIJE_3jOnMtfkcRkxtTFj3Ym9E?authuser=0&hl=tr&rclk=1",
    "website_url": "",
    "rating_text": "4,5",
    "stars": null,
    "number_of_reviews": null,
    "price_level": "",
    "open_hours": "",
    "extraction_timestamp": "2025-06-07T16:07:25.914Z",
    "source_name": "google",
    "source_query": "Irrigation Equipment",
    "source_country": "IT",
    "country": "Italy",
    "state": "Emilia-Romagna",
    "city": "Molinella"
  },
  {
    "source_id": "ChIJ3Vpcydg7fkcRboSGxOqQldQ",
    "name": "Cb Agri Srl",
    "category": "Cb Agri Srl",
    "formatted_address": "5,0(6)",
    "phone_number": "+390516908684",
    "source_url": "https://www.google.com/maps/place/Cb+Agri+Srl/data=!4m7!3m6!1s0x477e3bd8c95c5add:0xd49590eac486846e!8m2!3d44.612756!4d11.6587888!16s%2Fg%2F1tlc_02r!19sChIJ3Vpcydg7fkcRboSGxOqQldQ?authuser=0&hl=tr&rclk=1",
    "website_url": "http://www.cbagri.com/",
    "rating_text": "5,0",
    "stars": null,
    "number_of_reviews": null,
    "price_level": "",
    "open_hours": "",
    "extraction_timestamp": "2025-06-07T16:07:25.915Z",
    "source_name": "google",
    "source_query": "Irrigation Equipment",
    "source_country": "IT",
    "country": "Italy",
    "state": "Emilia-Romagna",
    "city": "Molinella"
  },
  {
    "source_id": "ChIJxQ0epiY5fkcR9FnC3vOVjMc",
    "name": "HYDRA SRL",
    "category": "HYDRA SRL",
    "formatted_address": "5,0(2)",
    "phone_number": "+390516908660",
    "source_url": "https://www.google.com/maps/place/HYDRA+SRL/data=!4m7!3m6!1s0x477e3926a61e0dc5:0xc78c95f3dec259f4!8m2!3d44.6459378!4d11.6576281!16s%2Fg%2F11rj3vpkyh!19sChIJxQ0epiY5fkcR9FnC3vOVjMc?authuser=0&hl=tr&rclk=1",
    "website_url": "http://www.hydrahammer.eu/",
    "rating_text": "5,0",
    "stars": null,
    "number_of_reviews": null,
    "price_level": "",
    "open_hours": "",
    "extraction_timestamp": "2025-06-07T16:07:25.916Z",
    "source_name": "google",
    "source_query": "Irrigation Equipment",
    "source_country": "IT",
    "country": "Italy",
    "state": "Emilia-Romagna",
    "city": "Molinella"
  },
  {
    "source_id": "ChIJqTXEv9w7fkcRJVprOmXvtkU",
    "name": "Michele Maccagnani",
    "category": "Michele Maccagnani",
    "formatted_address": "5,0(1)",
    "phone_number": "+393355443843",
    "source_url": "https://www.google.com/maps/place/Michele+Maccagnani/data=!4m7!3m6!1s0x477e3bdcbfc435a9:0x45b6ef653a6b5a25!8m2!3d44.6173782!4d11.6738438!16s%2Fg%2F11cjh_w843!19sChIJqTXEv9w7fkcRJVprOmXvtkU?authuser=0&hl=tr&rclk=1",
    "website_url": "https://www.michelemaccagnani.it/",
    "rating_text": "5,0",
    "stars": null,
    "number_of_reviews": null,
    "price_level": "",
    "open_hours": "",
    "extraction_timestamp": "2025-06-07T16:07:25.917Z",
    "source_name": "google",
    "source_query": "Irrigation Equipment",
    "source_country": "IT",
    "country": "Italy",
    "state": "Emilia-Romagna",
    "city": "Molinella"
  },
  {
    "source_id": "ChIJb2mzFdo7fkcRW9fSL4z8hdQ",
    "name": "MG Impianti Srl",
    "category": "MG Impianti Srl",
    "formatted_address": "5,0(3)",
    "phone_number": "+390516900353",
    "source_url": "https://www.google.com/maps/place/MG+Impianti+Srl/data=!4m7!3m6!1s0x477e3bda15b3696f:0xd485fc8c2fd2d75b!8m2!3d44.6204611!4d11.6690662!16s%2Fg%2F11c5zq6qgf!19sChIJb2mzFdo7fkcRW9fSL4z8hdQ?authuser=0&hl=tr&rclk=1",
    "website_url": "http://www.mgimpiantisolari.it/",
    "rating_text": "5,0",
    "stars": null,
    "number_of_reviews": null,
    "price_level": "",
    "open_hours": "",
    "extraction_timestamp": "2025-06-07T16:07:25.918Z",
    "source_name": "google",
    "source_query": "Irrigation Equipment",
    "source_country": "IT",
    "country": "Italy",
    "state": "Emilia-Romagna",
    "city": "Molinella"
  },
  {
    "source_id": "ChIJa5LLmNo7fkcRtHmGeXFD-S8",
    "name": "Ferramenta Bortolotti",
    "category": "Ferramenta Bortolotti",
    "formatted_address": "4,6(158)",
    "phone_number": "+39051881603",
    "source_url": "https://www.google.com/maps/place/Ferramenta+Bortolotti/data=!4m7!3m6!1s0x477e3bda98cb926b:0x2ff94371798679b4!8m2!3d44.6182035!4d11.6672292!16s%2Fg%2F1ts3dgd1!19sChIJa5LLmNo7fkcRtHmGeXFD-S8?authuser=0&hl=tr&rclk=1",
    "website_url": "http://www.ferramentabortolotti.it/",
    "rating_text": "4,6",
    "stars": null,
    "number_of_reviews": null,
    "price_level": "",
    "open_hours": "",
    "extraction_timestamp": "2025-06-07T16:07:25.919Z",
    "source_name": "google",
    "source_query": "Irrigation Equipment",
    "source_country": "IT",
    "country": "Italy",
    "state": "Emilia-Romagna",
    "city": "Molinella"
  },
  {
    "source_id": "ChIJ_SYf2IMsfkcRVw9xVhrnjyI",
    "name": "Irrigazione Bragaglia",
    "category": "Irrigazione Bragaglia",
    "formatted_address": "4,7(30)",
    "phone_number": "+39051534865",
    "source_url": "https://www.google.com/maps/place/Irrigazione+Bragaglia/data=!4m7!3m6!1s0x477e2c83d81f26fd:0x228fe71a56710f57!8m2!3d44.5053735!4d11.412403!16s%2Fg%2F1vp6z0gf!19sChIJ_SYf2IMsfkcRVw9xVhrnjyI?authuser=0&hl=tr&rclk=1",
    "website_url": "http://www.irrigazionebragaglia.it/",
    "rating_text": "4,7",
    "stars": null,
    "number_of_reviews": null,
    "price_level": "",
    "open_hours": "",
    "extraction_timestamp": "2025-06-07T16:07:25.920Z",
    "source_name": "google",
    "source_query": "Irrigation Equipment",
    "source_country": "IT",
    "country": "Italy",
    "state": "Emilia-Romagna",
    "city": "Molinella"
  },
  {
    "source_id": "ChIJh3Nd8G0sfkcR_m7VewEmxXM",
    "name": "Irrigarden",
    "category": "Irrigarden",
    "formatted_address": "4,7(158)",
    "phone_number": "+39051782013",
    "source_url": "https://www.google.com/maps/place/Irrigarden/data=!4m7!3m6!1s0x477e2c6df05d7387:0x73c526017bd56efe!8m2!3d44.5096266!4d11.4390897!16s%2Fg%2F1vgw_l7w!19sChIJh3Nd8G0sfkcR_m7VewEmxXM?authuser=0&hl=tr&rclk=1",
    "website_url": "https://www.irrigarden-bo.it/",
    "rating_text": "4,7",
    "stars": null,
    "number_of_reviews": null,
    "price_level": "",
    "open_hours": "",
    "extraction_timestamp": "2025-06-07T16:07:25.921Z",
    "source_name": "google",
    "source_query": "Irrigation Equipment",
    "source_country": "IT",
    "country": "Italy",
    "state": "Emilia-Romagna",
    "city": "Molinella"
  },
  {
    "source_id": "ChIJ9eEnzr45fkcR2DIWLxTl2j8",
    "name": "R.A.I.O. srl ricambi e oleodinamica",
    "category": "R.A.I.O. srl ricambi e oleodinamica",
    "formatted_address": "4,4(65)",
    "phone_number": "+390516908413",
    "source_url": "https://www.google.com/maps/place/R.A.I.O.+srl+ricambi+e+oleodinamica/data=!4m7!3m6!1s0x477e39bece27e1f5:0x3fdae5142f1632d8!8m2!3d44.6511565!4d11.6484759!16s%2Fg%2F1vqtfmx6!19sChIJ9eEnzr45fkcR2DIWLxTl2j8?authuser=0&hl=tr&rclk=1",
    "website_url": "https://www.raiosrl.it/",
    "rating_text": "4,4",
    "stars": null,
    "number_of_reviews": null,
    "price_level": "",
    "open_hours": "",
    "extraction_timestamp": "2025-06-07T16:07:25.922Z",
    "source_name": "google",
    "source_query": "Irrigation Equipment",
    "source_country": "IT",
    "country": "Italy",
    "state": "Emilia-Romagna",
    "city": "Molinella"
  },
  {
    "source_id": "ChIJPYIj6Ns7fkcRwoXO-_TByfo",
    "name": "Tierre Di Tulipanti Roberto",
    "category": "Tierre Di Tulipanti Roberto",
    "formatted_address": "Elektrik Tesisatı Hizmeti · Via Andrea Costa, 64Kapalı ⋅ Açılış zamanı: Pzt 09:00 · +39 051 882984",
    "phone_number": "+39051882984",
    "source_url": "https://www.google.com/maps/place/Tierre+Di+Tulipanti+Roberto/data=!4m7!3m6!1s0x477e3bdbe823823d:0xfac9c1f4fbce85c2!8m2!3d44.6179752!4d11.6786901!16s%2Fg%2F1vrq8h0v!19sChIJPYIj6Ns7fkcRwoXO-_TByfo?authuser=0&hl=tr&rclk=1",
    "website_url": "http://tierre.net/",
    "rating_text": "",
    "stars": null,
    "number_of_reviews": null,
    "price_level": "",
    "open_hours": "",
    "extraction_timestamp": "2025-06-07T16:07:25.923Z",
    "source_name": "google",
    "source_query": "Irrigation Equipment",
    "source_country": "IT",
    "country": "Italy",
    "state": "Emilia-Romagna",
    "city": "Molinella"
  }
]
