[
  {
    "source_id": "ChIJL3QPtl_fKhMRQcboob7EAIQ",
    "name": "Gruppo Ciicai - magazzino di Monghidoro",
    "category": "Gruppo Ciicai - magazzino di Monghidoro",
    "formatted_address": "5,0(1)",
    "phone_number": "+390516554220",
    "source_url": "https://www.google.com/maps/place/Gruppo+Ciicai+-+magazzino+di+Monghidoro/data=!4m7!3m6!1s0x132adf5fb60f742f:0x8400c4bea1e8c641!8m2!3d44.209017!4d11.3251577!16s%2Fg%2F11vc7wnc_y!19sChIJL3QPtl_fKhMRQcboob7EAIQ?authuser=0&hl=tr&rclk=1",
    "website_url": "",
    "rating_text": "5,0",
    "stars": null,
    "number_of_reviews": null,
    "price_level": "",
    "open_hours": "",
    "extraction_timestamp": "2025-06-07T15:49:39.463Z",
    "source_name": "google",
    "source_query": "Irrigation Equipment",
    "source_country": "IT",
    "country": "Italy",
    "state": "Emilia-Romagna",
    "city": "Monghidoro"
  },
  {
    "source_id": "ChIJ_SYf2IMsfkcRVw9xVhrnjyI",
    "name": "Irrigazione Bragaglia",
    "category": "Irrigazione Bragaglia",
    "formatted_address": "4,7(30)",
    "phone_number": "+39051534865",
    "source_url": "https://www.google.com/maps/place/Irrigazione+Bragaglia/data=!4m7!3m6!1s0x477e2c83d81f26fd:0x228fe71a56710f57!8m2!3d44.5053735!4d11.412403!16s%2Fg%2F1vp6z0gf!19sChIJ_SYf2IMsfkcRVw9xVhrnjyI?authuser=0&hl=tr&rclk=1",
    "website_url": "",
    "rating_text": "4,7",
    "stars": null,
    "number_of_reviews": null,
    "price_level": "",
    "open_hours": "",
    "extraction_timestamp": "2025-06-07T15:49:39.463Z",
    "source_name": "google",
    "source_query": "Irrigation Equipment",
    "source_country": "IT",
    "country": "Italy",
    "state": "Emilia-Romagna",
    "city": "Monghidoro"
  },
  {
    "source_id": "ChIJvc9iqMnYKhMRF3U5vG57cFk",
    "name": "Ferramenta Marchioni",
    "category": "Ferramenta Marchioni",
    "formatted_address": "4,6(49)",
    "phone_number": "+390516554001",
    "source_url": "https://www.google.com/maps/place/Ferramenta+Marchioni/data=!4m7!3m6!1s0x132ad8c9a862cfbd:0x59707b6ebc397517!8m2!3d44.219444!4d11.3180289!16s%2Fg%2F1tlfs03v!19sChIJvc9iqMnYKhMRF3U5vG57cFk?authuser=0&hl=tr&rclk=1",
    "website_url": "",
    "rating_text": "4,6",
    "stars": null,
    "number_of_reviews": null,
    "price_level": "",
    "open_hours": "",
    "extraction_timestamp": "2025-06-07T15:49:39.464Z",
    "source_name": "google",
    "source_query": "Irrigation Equipment",
    "source_country": "IT",
    "country": "Italy",
    "state": "Emilia-Romagna",
    "city": "Monghidoro"
  },
  {
    "source_id": "ChIJh3Nd8G0sfkcR_m7VewEmxXM",
    "name": "Irrigarden",
    "category": "Irrigarden",
    "formatted_address": "4,7(158)",
    "phone_number": "+39051782013",
    "source_url": "https://www.google.com/maps/place/Irrigarden/data=!4m7!3m6!1s0x477e2c6df05d7387:0x73c526017bd56efe!8m2!3d44.5096266!4d11.4390897!16s%2Fg%2F1vgw_l7w!19sChIJh3Nd8G0sfkcR_m7VewEmxXM?authuser=0&hl=tr&rclk=1",
    "website_url": "",
    "rating_text": "4,7",
    "stars": null,
    "number_of_reviews": null,
    "price_level": "",
    "open_hours": "",
    "extraction_timestamp": "2025-06-07T15:49:39.464Z",
    "source_name": "google",
    "source_query": "Irrigation Equipment",
    "source_country": "IT",
    "country": "Italy",
    "state": "Emilia-Romagna",
    "city": "Monghidoro"
  },
  {
    "source_id": "ChIJwV_2bBXYKhMRLrQash_DbQc",
    "name": "Farini Materiale Elettrico e accessori",
    "category": "Farini Materiale Elettrico e accessori",
    "formatted_address": "4,6(30)",
    "phone_number": "+390516552020",
    "source_url": "https://www.google.com/maps/place/Farini+Materiale+Elettrico+e+accessori/data=!4m7!3m6!1s0x132ad8156cf65fc1:0x76dc31fb21ab42e!8m2!3d44.2234448!4d11.3221793!16s%2Fg%2F1hc2llblh!19sChIJwV_2bBXYKhMRLrQash_DbQc?authuser=0&hl=tr&rclk=1",
    "website_url": "",
    "rating_text": "4,6",
    "stars": null,
    "number_of_reviews": null,
    "price_level": "",
    "open_hours": "",
    "extraction_timestamp": "2025-06-07T15:49:39.465Z",
    "source_name": "google",
    "source_query": "Irrigation Equipment",
    "source_country": "IT",
    "country": "Italy",
    "state": "Emilia-Romagna",
    "city": "Monghidoro"
  },
  {
    "source_id": "ChIJyXgg68QrfkcRAaJCOMJ3PxY",
    "name": "hidrisistem",
    "category": "hidrisistem",
    "formatted_address": "5,0(1)",
    "phone_number": "+39366448310824",
    "source_url": "https://www.google.com/maps/place/hidrisistem/data=!4m7!3m6!1s0x477e2bc4eb2078c9:0x163f77c23842a201!8m2!3d44.496029!4d11.402638!16s%2Fg%2F11w_zjhjy3!19sChIJyXgg68QrfkcRAaJCOMJ3PxY?authuser=0&hl=tr&rclk=1",
    "website_url": "",
    "rating_text": "5,0",
    "stars": null,
    "number_of_reviews": null,
    "price_level": "",
    "open_hours": "",
    "extraction_timestamp": "2025-06-07T15:49:39.465Z",
    "source_name": "google",
    "source_query": "Irrigation Equipment",
    "source_country": "IT",
    "country": "Italy",
    "state": "Emilia-Romagna",
    "city": "Monghidoro"
  }
]
