[
  {
    "source_id": "ChIJy805WcDcgEcRtmGWlwosXQc",
    "name": "IRRIMEC SRL",
    "category": "IRRIMEC SRL",
    "formatted_address": "4,5(90)",
    "phone_number": "+390523760441",
    "source_url": "https://www.google.com/maps/place/IRRIMEC+SRL/data=!4m7!3m6!1s0x4780dcc05939cdcb:0x75d2c0a979661b6!8m2!3d45.0612353!4d9.630829!16s%2Fg%2F1tdgt7d_!19sChIJy805WcDcgEcRtmGWlwosXQc?authuser=0&hl=tr&rclk=1",
    "website_url": "http://www.irrimec.com/",
    "rating_text": "4,5",
    "stars": null,
    "number_of_reviews": null,
    "price_level": "",
    "open_hours": "",
    "extraction_timestamp": "2025-06-07T16:38:07.806Z",
    "source_name": "google",
    "source_query": "Irrigation Equipment",
    "source_country": "IT",
    "country": "Italy",
    "state": "Emilia-Romagna",
    "city": "Monticelli d'Ongina"
  },
  {
    "source_id": "ChIJ4_A-uGT7gEcRoOQlqOVA9v0",
    "name": "Castelli Fabio",
    "category": "Castelli Fabio",
    "formatted_address": "4,7(155)",
    "phone_number": "+390523827262",
    "source_url": "https://www.google.com/maps/place/Castelli+Fabio/data=!4m7!3m6!1s0x4780fb64b83ef0e3:0xfdf640e5a825e4a0!8m2!3d45.0868997!4d9.9306034!16s%2Fg%2F1hc1rr43z!19sChIJ4_A-uGT7gEcRoOQlqOVA9v0?authuser=0&hl=tr&rclk=1",
    "website_url": "",
    "rating_text": "4,7",
    "stars": null,
    "number_of_reviews": null,
    "price_level": "",
    "open_hours": "",
    "extraction_timestamp": "2025-06-07T16:38:07.808Z",
    "source_name": "google",
    "source_query": "Irrigation Equipment",
    "source_country": "IT",
    "country": "Italy",
    "state": "Emilia-Romagna",
    "city": "Monticelli d'Ongina"
  },
  {
    "source_id": "ChIJP-CISQ3-gEcRXwl1yi9NW2Q",
    "name": "SIIP - Società Impianti di irrigazione a pioggia",
    "category": "SIIP - Società Impianti di irrigazione a pioggia",
    "formatted_address": "5,0(2)",
    "phone_number": "+393356863605",
    "source_url": "https://www.google.com/maps/place/SIIP+-+Societ%C3%A0+Impianti+di+irrigazione+a+pioggia/data=!4m7!3m6!1s0x4780fe0d4988e03f:0x645b4d2fca75095f!8m2!3d45.1417827!4d10.0200624!16s%2Fg%2F1vqtfn9y!19sChIJP-CISQ3-gEcRXwl1yi9NW2Q?authuser=0&hl=tr&rclk=1",
    "website_url": "https://www.impiantiirrigazionicremona.com/",
    "rating_text": "5,0",
    "stars": null,
    "number_of_reviews": null,
    "price_level": "",
    "open_hours": "",
    "extraction_timestamp": "2025-06-07T16:38:07.809Z",
    "source_name": "google",
    "source_query": "Irrigation Equipment",
    "source_country": "IT",
    "country": "Italy",
    "state": "Emilia-Romagna",
    "city": "Monticelli d'Ongina"
  },
  {
    "source_id": "ChIJZ5djcmP7gEcRx94vFfy3hHk",
    "name": "Scazzola Pietro di Scazzola Giuseppe & C. (S.N.C.)",
    "category": "Scazzola Pietro di Scazzola Giuseppe & C. (S.N.C.)",
    "formatted_address": "4,6(30)",
    "phone_number": "+390523827064",
    "source_url": "https://www.google.com/maps/place/Scazzola+Pietro+di+Scazzola+Giuseppe+%26+C.+%28S.N.C.%29/data=!4m7!3m6!1s0x4780fb6372639767:0x7984b7fc152fdec7!8m2!3d45.0889833!4d9.9301903!16s%2Fg%2F1tl0w5s3!19sChIJZ5djcmP7gEcRx94vFfy3hHk?authuser=0&hl=tr&rclk=1",
    "website_url": "",
    "rating_text": "4,6",
    "stars": null,
    "number_of_reviews": null,
    "price_level": "",
    "open_hours": "",
    "extraction_timestamp": "2025-06-07T16:38:07.810Z",
    "source_name": "google",
    "source_query": "Irrigation Equipment",
    "source_country": "IT",
    "country": "Italy",
    "state": "Emilia-Romagna",
    "city": "Monticelli d'Ongina"
  },
  {
    "source_id": "ChIJtVDkNgRFgEcRqc6umwWIJuI",
    "name": "Rm Spa",
    "category": "Rm Spa",
    "formatted_address": "4,6(81)",
    "phone_number": "+390521872321",
    "source_url": "https://www.google.com/maps/place/Rm+Spa/data=!4m7!3m6!1s0x4780450436e450b5:0xe22688059baecea9!8m2!3d44.9105406!4d10.2583785!16s%2Fg%2F12hl93byl!19sChIJtVDkNgRFgEcRqc6umwWIJuI?authuser=0&hl=tr&rclk=1",
    "website_url": "http://www.rmirrigation.com/",
    "rating_text": "4,6",
    "stars": null,
    "number_of_reviews": null,
    "price_level": "",
    "open_hours": "",
    "extraction_timestamp": "2025-06-07T16:38:07.812Z",
    "source_name": "google",
    "source_query": "Irrigation Equipment",
    "source_country": "IT",
    "country": "Italy",
    "state": "Emilia-Romagna",
    "city": "Monticelli d'Ongina"
  },
  {
    "source_id": "ChIJ4WnZNofogEcRcCSJgGupNXk",
    "name": "Irrigarden",
    "category": "Irrigarden",
    "formatted_address": "3,7(6)",
    "phone_number": "+390523592012",
    "source_url": "https://www.google.com/maps/place/Irrigarden/data=!4m7!3m6!1s0x4780e88736d969e1:0x7935a96b80892470!8m2!3d45.0288739!4d9.7384753!16s%2Fg%2F11g4d1r753!19sChIJ4WnZNofogEcRcCSJgGupNXk?authuser=0&hl=tr&rclk=1",
    "website_url": "https://www.irrigarden.com/",
    "rating_text": "3,7",
    "stars": null,
    "number_of_reviews": null,
    "price_level": "",
    "open_hours": "",
    "extraction_timestamp": "2025-06-07T16:38:07.813Z",
    "source_name": "google",
    "source_query": "Irrigation Equipment",
    "source_country": "IT",
    "country": "Italy",
    "state": "Emilia-Romagna",
    "city": "Monticelli d'Ongina"
  },
  {
    "source_id": "ChIJK1RNYVXsgEcR1miRztfmQNs",
    "name": "Idro Piacenza Srl",
    "category": "Idro Piacenza Srl",
    "formatted_address": "4,3(7)",
    "phone_number": "+390523853180",
    "source_url": "https://www.google.com/maps/place/Idro+Piacenza+Srl/data=!4m7!3m6!1s0x4780ec55614d542b:0xdb40e6d7ce9168d6!8m2!3d44.9125754!4d9.7729865!16s%2Fg%2F1thmjvv8!19sChIJK1RNYVXsgEcR1miRztfmQNs?authuser=0&hl=tr&rclk=1",
    "website_url": "https://www.idropiacenza.com/",
    "rating_text": "4,3",
    "stars": null,
    "number_of_reviews": null,
    "price_level": "",
    "open_hours": "",
    "extraction_timestamp": "2025-06-07T16:38:07.815Z",
    "source_name": "google",
    "source_query": "Irrigation Equipment",
    "source_country": "IT",
    "country": "Italy",
    "state": "Emilia-Romagna",
    "city": "Monticelli d'Ongina"
  },
  {
    "source_id": "ChIJkdu1VCbdgEcRRzG2ttiqeuA",
    "name": "Gruppi Tramelli - Aria compressa",
    "category": "Gruppi Tramelli - Aria compressa",
    "formatted_address": "5,0(1)",
    "phone_number": "+390523490598",
    "source_url": "https://www.google.com/maps/place/Gruppi+Tramelli+-+Aria+compressa/data=!4m7!3m6!1s0x4780dd2654b5db91:0xe07aaad8b6b63147!8m2!3d45.052727!4d9.6547227!16s%2Fg%2F1tcyjx38!19sChIJkdu1VCbdgEcRRzG2ttiqeuA?authuser=0&hl=tr&rclk=1",
    "website_url": "http://www.gruppitramelli.com/",
    "rating_text": "5,0",
    "stars": null,
    "number_of_reviews": null,
    "price_level": "",
    "open_hours": "",
    "extraction_timestamp": "2025-06-07T16:38:07.816Z",
    "source_name": "google",
    "source_query": "Irrigation Equipment",
    "source_country": "IT",
    "country": "Italy",
    "state": "Emilia-Romagna",
    "city": "Monticelli d'Ongina"
  },
  {
    "source_id": "ChIJEStDTI79gEcR8zgGf6AyxQc",
    "name": "Sanatec Piacenza",
    "category": "Sanatec Piacenza",
    "formatted_address": "Haşere İlaçlama Hizmeti · SS 10 Padana Inferiore, 69/71Kapalı ⋅ Açılış zamanı: Pzt 08:00 · +39 0523 161 3027",
    "phone_number": "+3905231613027",
    "source_url": "https://www.google.com/maps/place/Sanatec+Piacenza/data=!4m7!3m6!1s0x4780fd8e4c432b11:0x7c532a07f0638f3!8m2!3d45.0912817!4d9.9501813!16s%2Fg%2F11m68n_d2n!19sChIJEStDTI79gEcR8zgGf6AyxQc?authuser=0&hl=tr&rclk=1",
    "website_url": "https://www.sanatec.it/",
    "rating_text": "",
    "stars": null,
    "number_of_reviews": null,
    "price_level": "",
    "open_hours": "",
    "extraction_timestamp": "2025-06-07T16:38:07.818Z",
    "source_name": "google",
    "source_query": "Irrigation Equipment",
    "source_country": "IT",
    "country": "Italy",
    "state": "Emilia-Romagna",
    "city": "Monticelli d'Ongina"
  },
  {
    "source_id": "ChIJf1rZSIfogEcR3YyIhIElauY",
    "name": "Padana Impianti s.r.l.",
    "category": "Padana Impianti s.r.l.",
    "formatted_address": "2,6(10)",
    "phone_number": "+390523593433",
    "source_url": "https://www.google.com/maps/place/Padana+Impianti+s.r.l./data=!4m7!3m6!1s0x4780e88748d95a7f:0xe66a258184888cdd!8m2!3d45.0296596!4d9.7377708!16s%2Fg%2F1ptw328_0!19sChIJf1rZSIfogEcR3YyIhIElauY?authuser=0&hl=tr&rclk=1",
    "website_url": "http://www.padanaimpianti.it/",
    "rating_text": "2,6",
    "stars": null,
    "number_of_reviews": null,
    "price_level": "",
    "open_hours": "",
    "extraction_timestamp": "2025-06-07T16:38:07.819Z",
    "source_name": "google",
    "source_query": "Irrigation Equipment",
    "source_country": "IT",
    "country": "Italy",
    "state": "Emilia-Romagna",
    "city": "Monticelli d'Ongina"
  },
  {
    "source_id": "ChIJC0LYzsXngEcR8g_5HSSzAko",
    "name": "Pulitecno",
    "category": "Pulitecno",
    "formatted_address": "5,0(5)",
    "phone_number": "+390523577811",
    "source_url": "https://www.google.com/maps/place/Pulitecno/data=!4m7!3m6!1s0x4780e7c5ced8420b:0x4a02b3241df90ff2!8m2!3d45.0483093!4d9.7294483!16s%2Fg%2F11fxwb60cv!19sChIJC0LYzsXngEcR8g_5HSSzAko?authuser=0&hl=tr&rclk=1",
    "website_url": "http://www.pulitecnosrl.it/",
    "rating_text": "5,0",
    "stars": null,
    "number_of_reviews": null,
    "price_level": "",
    "open_hours": "",
    "extraction_timestamp": "2025-06-07T16:38:07.820Z",
    "source_name": "google",
    "source_query": "Irrigation Equipment",
    "source_country": "IT",
    "country": "Italy",
    "state": "Emilia-Romagna",
    "city": "Monticelli d'Ongina"
  },
  {
    "source_id": "ChIJsU6P1QHpgEcRewrpa3hJZmY",
    "name": "Irrigarden di Imberti Paolo Giovanni",
    "category": "Irrigarden di Imberti Paolo Giovanni",
    "formatted_address": "Peyzaj Malzemeleri Satıcısı · Via Emilia Parmense, 148/H+39 0523 592012",
    "phone_number": "+390523592012",
    "source_url": "https://www.google.com/maps/place/Irrigarden+di+Imberti+Paolo+Giovanni/data=!4m7!3m6!1s0x4780e901d58f4eb1:0x666649786be90a7b!8m2!3d45.0295966!4d9.7376067!16s%2Fg%2F11vr0r_p__!19sChIJsU6P1QHpgEcRewrpa3hJZmY?authuser=0&hl=tr&rclk=1",
    "website_url": "",
    "rating_text": "",
    "stars": null,
    "number_of_reviews": null,
    "price_level": "",
    "open_hours": "",
    "extraction_timestamp": "2025-06-07T16:38:07.821Z",
    "source_name": "google",
    "source_query": "Irrigation Equipment",
    "source_country": "IT",
    "country": "Italy",
    "state": "Emilia-Romagna",
    "city": "Monticelli d'Ongina"
  },
  {
    "source_id": "ChIJGVuRBn7ogEcRGBzIo3J6pT0",
    "name": "Hydra Water",
    "category": "Hydra Water",
    "formatted_address": "3,0(2)",
    "phone_number": "+390523497185",
    "source_url": "https://www.google.com/maps/place/Hydra+Water/data=!4m7!3m6!1s0x4780e87e06915b19:0x3da57a72a3c81c18!8m2!3d45.0303299!4d9.7363131!16s%2Fg%2F12hnfyhf1!19sChIJGVuRBn7ogEcRGBzIo3J6pT0?authuser=0&hl=tr&rclk=1",
    "website_url": "http://www.hydrawater.it/",
    "rating_text": "3,0",
    "stars": null,
    "number_of_reviews": null,
    "price_level": "",
    "open_hours": "",
    "extraction_timestamp": "2025-06-07T16:38:07.822Z",
    "source_name": "google",
    "source_query": "Irrigation Equipment",
    "source_country": "IT",
    "country": "Italy",
    "state": "Emilia-Romagna",
    "city": "Monticelli d'Ongina"
  },
  {
    "source_id": "ChIJtzLXV34mgEcR9sDfnfgzOxg",
    "name": "Sime Idromeccanica S.R.L.",
    "category": "Sime Idromeccanica S.R.L.",
    "formatted_address": "4,8(22)",
    "phone_number": "+390522824724",
    "source_url": "https://www.google.com/maps/place/Sime+Idromeccanica+S.R.L./data=!4m7!3m6!1s0x4780267e57d732b7:0x183b33f89ddfc0f6!8m2!3d44.8931121!4d10.6571392!16s%2Fg%2F1tx1s13m!19sChIJtzLXV34mgEcR9sDfnfgzOxg?authuser=0&hl=tr&rclk=1",
    "website_url": "",
    "rating_text": "4,8",
    "stars": null,
    "number_of_reviews": null,
    "price_level": "",
    "open_hours": "",
    "extraction_timestamp": "2025-06-07T16:38:07.824Z",
    "source_name": "google",
    "source_query": "Irrigation Equipment",
    "source_country": "IT",
    "country": "Italy",
    "state": "Emilia-Romagna",
    "city": "Monticelli d'Ongina"
  },
  {
    "source_id": "ChIJF7r46AXOQAwRJLXyaTne9oY",
    "name": "GA. ANTINCENDIO",
    "category": "GA. ANTINCENDIO",
    "formatted_address": "",
    "phone_number": "+393738370789",
    "source_url": "https://www.google.com/maps/place/GA.+ANTINCENDIO/data=!4m7!3m6!1s0xc40ce05e8f8ba17:0x86f6de3969f2b524!8m2!3d45.0422201!4d9.6981487!16s%2Fg%2F11l5q1k0c0!19sChIJF7r46AXOQAwRJLXyaTne9oY?authuser=0&hl=tr&rclk=1",
    "website_url": "",
    "rating_text": "",
    "stars": null,
    "number_of_reviews": null,
    "price_level": "",
    "open_hours": "",
    "extraction_timestamp": "2025-06-07T16:38:07.825Z",
    "source_name": "google",
    "source_query": "Irrigation Equipment",
    "source_country": "IT",
    "country": "Italy",
    "state": "Emilia-Romagna",
    "city": "Monticelli d'Ongina"
  }
]
