[
  {
    "source_id": "ChIJgW2lfk0QgEcRqovBrmyVMXk",
    "name": "Tecnoproject Srl",
    "category": "Tecnoproject Srl",
    "formatted_address": "4,5(166)",
    "phone_number": "+390522871328",
    "source_url": "https://www.google.com/maps/place/Tecnoproject+Srl/data=!4m7!3m6!1s0x4780104d7ea56d81:0x7931956caec18baa!8m2!3d44.6979252!4d10.4610737!16s%2Fg%2F11gbjkzrcm!19sChIJgW2lfk0QgEcRqovBrmyVMXk?authuser=0&hl=tr&rclk=1",
    "website_url": "http://www.tecnoproject-srl.it/",
    "rating_text": "4,5",
    "stars": null,
    "number_of_reviews": null,
    "price_level": "",
    "open_hours": "",
    "extraction_timestamp": "2025-06-07T16:53:28.998Z",
    "source_name": "google",
    "source_query": "Irrigation Equipment",
    "source_country": "IT",
    "country": "Italy",
    "state": "Emilia-Romagna",
    "city": "Montecchio Emilia"
  },
  {
    "source_id": "ChIJLQW3abYRgEcRIEVWThxKeS8",
    "name": "C.S.F Inox Spa - Headquarter",
    "category": "C.S.F Inox Spa - Headquarter",
    "formatted_address": "4,7(7)",
    "phone_number": "+390522869911",
    "source_url": "https://www.google.com/maps/place/C.S.F+Inox+Spa+-+Headquarter/data=!4m7!3m6!1s0x478011b669b7052d:0x2f794a1c4e564520!8m2!3d44.6915245!4d10.448431!16s%2Fg%2F1tglg4xw!19sChIJLQW3abYRgEcRIEVWThxKeS8?authuser=0&hl=tr&rclk=1",
    "website_url": "http://www.csf.it/",
    "rating_text": "4,7",
    "stars": null,
    "number_of_reviews": null,
    "price_level": "",
    "open_hours": "",
    "extraction_timestamp": "2025-06-07T16:53:29.000Z",
    "source_name": "google",
    "source_query": "Irrigation Equipment",
    "source_country": "IT",
    "country": "Italy",
    "state": "Emilia-Romagna",
    "city": "Montecchio Emilia"
  },
  {
    "source_id": "ChIJVb2WLEwQgEcRUxkIvJEwFMI",
    "name": "Bigliardi Fertecnica",
    "category": "Bigliardi Fertecnica",
    "formatted_address": "4,6(57)",
    "phone_number": "+390522864271",
    "source_url": "https://www.google.com/maps/place/Bigliardi+Fertecnica/data=!4m7!3m6!1s0x4780104c2c96bd55:0xc2143091bc081953!8m2!3d44.6942725!4d10.4620422!16s%2Fg%2F1vk6y1tk!19sChIJVb2WLEwQgEcRUxkIvJEwFMI?authuser=0&hl=tr&rclk=1",
    "website_url": "http://www.bigliardifertecnica.com/",
    "rating_text": "4,6",
    "stars": null,
    "number_of_reviews": null,
    "price_level": "",
    "open_hours": "",
    "extraction_timestamp": "2025-06-07T16:53:29.001Z",
    "source_name": "google",
    "source_query": "Irrigation Equipment",
    "source_country": "IT",
    "country": "Italy",
    "state": "Emilia-Romagna",
    "city": "Montecchio Emilia"
  },
  {
    "source_id": "ChIJncGhGE0QgEcRYh51cMoYb58",
    "name": "G.R. Ferramenta Di Terenziani Andrea E C. S.n.c.",
    "category": "G.R. Ferramenta Di Terenziani Andrea E C. S.n.c.",
    "formatted_address": "4,7(138)",
    "phone_number": "+390522861172",
    "source_url": "https://www.google.com/maps/place/G.R.+Ferramenta+Di+Terenziani+Andrea+E+C.+S.n.c./data=!4m7!3m6!1s0x4780104d18a1c19d:0x9f6f18ca70751e62!8m2!3d44.6957139!4d10.4587024!16s%2Fg%2F1pzrsq8wq!19sChIJncGhGE0QgEcRYh51cMoYb58?authuser=0&hl=tr&rclk=1",
    "website_url": "http://www.grferramenta.it/",
    "rating_text": "4,7",
    "stars": null,
    "number_of_reviews": null,
    "price_level": "",
    "open_hours": "",
    "extraction_timestamp": "2025-06-07T16:53:29.002Z",
    "source_name": "google",
    "source_query": "Irrigation Equipment",
    "source_country": "IT",
    "country": "Italy",
    "state": "Emilia-Romagna",
    "city": "Montecchio Emilia"
  },
  {
    "source_id": "ChIJa1IpNbsRgEcR_et2gBZORu8",
    "name": "Real Sport Srl",
    "category": "Real Sport Srl",
    "formatted_address": "4,5(28)",
    "phone_number": "+390522865990",
    "source_url": "https://www.google.com/maps/place/Real+Sport+Srl/data=!4m7!3m6!1s0x478011bb3529526b:0xef464e168076ebfd!8m2!3d44.6990513!4d10.4425191!16s%2Fg%2F11b6jgt_ps!19sChIJa1IpNbsRgEcR_et2gBZORu8?authuser=0&hl=tr&rclk=1",
    "website_url": "",
    "rating_text": "4,5",
    "stars": null,
    "number_of_reviews": null,
    "price_level": "",
    "open_hours": "",
    "extraction_timestamp": "2025-06-07T16:53:29.003Z",
    "source_name": "google",
    "source_query": "Irrigation Equipment",
    "source_country": "IT",
    "country": "Italy",
    "state": "Emilia-Romagna",
    "city": "Montecchio Emilia"
  },
  {
    "source_id": "ChIJtVDkNgRFgEcRqc6umwWIJuI",
    "name": "Rm Spa",
    "category": "Rm Spa",
    "formatted_address": "4,6(81)",
    "phone_number": "+390521872321",
    "source_url": "https://www.google.com/maps/place/Rm+Spa/data=!4m7!3m6!1s0x4780450436e450b5:0xe22688059baecea9!8m2!3d44.9105406!4d10.2583785!16s%2Fg%2F12hl93byl!19sChIJtVDkNgRFgEcRqc6umwWIJuI?authuser=0&hl=tr&rclk=1",
    "website_url": "http://www.rmirrigation.com/",
    "rating_text": "4,6",
    "stars": null,
    "number_of_reviews": null,
    "price_level": "",
    "open_hours": "",
    "extraction_timestamp": "2025-06-07T16:53:29.004Z",
    "source_name": "google",
    "source_query": "Irrigation Equipment",
    "source_country": "IT",
    "country": "Italy",
    "state": "Emilia-Romagna",
    "city": "Montecchio Emilia"
  },
  {
    "source_id": "ChIJcQG6ul7df0cR3VxKiu5OPBs",
    "name": "Scova Impianti Srl",
    "category": "Scova Impianti Srl",
    "formatted_address": "4,5(64)",
    "phone_number": "+39059923202",
    "source_url": "https://www.google.com/maps/place/Scova+Impianti+Srl/data=!4m7!3m6!1s0x477fdd5ebaba0171:0x1b3c4eee8a4a5cdd!8m2!3d44.6018135!4d11.032294!16s%2Fg%2F1tfzwbfb!19sChIJcQG6ul7df0cR3VxKiu5OPBs?authuser=0&hl=tr&rclk=1",
    "website_url": "https://www.scovaimpianti.com/",
    "rating_text": "4,5",
    "stars": null,
    "number_of_reviews": null,
    "price_level": "",
    "open_hours": "",
    "extraction_timestamp": "2025-06-07T16:53:29.005Z",
    "source_name": "google",
    "source_query": "Irrigation Equipment",
    "source_country": "IT",
    "country": "Italy",
    "state": "Emilia-Romagna",
    "city": "Montecchio Emilia"
  },
  {
    "source_id": "ChIJva7bDBgRgEcRKi4jdjzJHx4",
    "name": "Sb Impianti Srl",
    "category": "Sb Impianti Srl",
    "formatted_address": "Isıtma Ekipmanları Tedarikçisi ·  · Via Luigi Galvani, 5Kapalı ⋅ Açılış zamanı: Pzt 07:30 · +39 0522 864182",
    "phone_number": "+390522864182",
    "source_url": "https://www.google.com/maps/place/Sb+Impianti+Srl/data=!4m7!3m6!1s0x478011180cdbaebd:0x1e1fc93c76232e2a!8m2!3d44.6949589!4d10.4589642!16s%2Fg%2F11p18h2ypn!19sChIJva7bDBgRgEcRKi4jdjzJHx4?authuser=0&hl=tr&rclk=1",
    "website_url": "https://www.sbimpiantisrl.it/",
    "rating_text": "",
    "stars": null,
    "number_of_reviews": null,
    "price_level": "",
    "open_hours": "",
    "extraction_timestamp": "2025-06-07T16:53:29.006Z",
    "source_name": "google",
    "source_query": "Irrigation Equipment",
    "source_country": "IT",
    "country": "Italy",
    "state": "Emilia-Romagna",
    "city": "Montecchio Emilia"
  },
  {
    "source_id": "ChIJH0VP4EsQgEcRwwPD6x75FC8",
    "name": "Elektrodal S.R.L.",
    "category": "Elektrodal S.R.L.",
    "formatted_address": "4,3(4)",
    "phone_number": "+390522865374",
    "source_url": "https://www.google.com/maps/place/Elektrodal+S.R.L./data=!4m7!3m6!1s0x4780104be04f451f:0x2f14f91eebc303c3!8m2!3d44.6918158!4d10.4609553!16s%2Fg%2F1tfcm5r1!19sChIJH0VP4EsQgEcRwwPD6x75FC8?authuser=0&hl=tr&rclk=1",
    "website_url": "http://www.elektrodal.com/",
    "rating_text": "4,3",
    "stars": null,
    "number_of_reviews": null,
    "price_level": "",
    "open_hours": "",
    "extraction_timestamp": "2025-06-07T16:53:29.006Z",
    "source_name": "google",
    "source_query": "Irrigation Equipment",
    "source_country": "IT",
    "country": "Italy",
    "state": "Emilia-Romagna",
    "city": "Montecchio Emilia"
  },
  {
    "source_id": "ChIJuwPSrVQ9JysRwRrV_s2cNmw",
    "name": "IDRO TEAM S.R.L.S.",
    "category": "IDRO TEAM S.R.L.S.",
    "formatted_address": "",
    "phone_number": "+393514170836",
    "source_url": "https://www.google.com/maps/place/IDRO+TEAM+S.R.L.S./data=!4m7!3m6!1s0x2b273d54add203bb:0x6c369ccdfed51ac1!8m2!3d44.7472681!4d10.4951644!16s%2Fg%2F11xd1r85c4!19sChIJuwPSrVQ9JysRwRrV_s2cNmw?authuser=0&hl=tr&rclk=1",
    "website_url": "",
    "rating_text": "",
    "stars": null,
    "number_of_reviews": null,
    "price_level": "",
    "open_hours": "",
    "extraction_timestamp": "2025-06-07T16:53:29.007Z",
    "source_name": "google",
    "source_query": "Irrigation Equipment",
    "source_country": "IT",
    "country": "Italy",
    "state": "Emilia-Romagna",
    "city": "Montecchio Emilia"
  },
  {
    "source_id": "ChIJizYeX64RgEcRs53pP_Wy71Q",
    "name": "Termoidraulica Melloni",
    "category": "Termoidraulica Melloni",
    "formatted_address": "5,0(2)",
    "phone_number": "+390522865211",
    "source_url": "https://www.google.com/maps/place/Termoidraulica+Melloni/data=!4m7!3m6!1s0x478011ae5f1e368b:0x54efb2f53fe99db3!8m2!3d44.7006825!4d10.4514245!16s%2Fg%2F1tdm2l3v!19sChIJizYeX64RgEcRs53pP_Wy71Q?authuser=0&hl=tr&rclk=1",
    "website_url": "https://termoidraulicamelloni.it/",
    "rating_text": "5,0",
    "stars": null,
    "number_of_reviews": null,
    "price_level": "",
    "open_hours": "",
    "extraction_timestamp": "2025-06-07T16:53:29.008Z",
    "source_name": "google",
    "source_query": "Irrigation Equipment",
    "source_country": "IT",
    "country": "Italy",
    "state": "Emilia-Romagna",
    "city": "Montecchio Emilia"
  },
  {
    "source_id": "ChIJR0cLXhQkgEcRi9oI9GALzlg",
    "name": "IRRILAND",
    "category": "IRRILAND",
    "formatted_address": "4,0(4)",
    "phone_number": "+390522831544",
    "source_url": "https://www.google.com/maps/place/IRRILAND/data=!4m7!3m6!1s0x478024145e0b4747:0x58ce0b60f408da8b!8m2!3d44.891987!4d10.650983!16s%2Fg%2F1tczjb0h!19sChIJR0cLXhQkgEcRi9oI9GALzlg?authuser=0&hl=tr&rclk=1",
    "website_url": "http://www.irriland.it/",
    "rating_text": "4,0",
    "stars": null,
    "number_of_reviews": null,
    "price_level": "",
    "open_hours": "",
    "extraction_timestamp": "2025-06-07T16:53:29.009Z",
    "source_name": "google",
    "source_query": "Irrigation Equipment",
    "source_country": "IT",
    "country": "Italy",
    "state": "Emilia-Romagna",
    "city": "Montecchio Emilia"
  },
  {
    "source_id": "ChIJveAeFroEgEcRZfa9xqlB6vM",
    "name": "Morelli Irrigazioni",
    "category": "Morelli Irrigazioni",
    "formatted_address": "1,0(1)",
    "phone_number": "+393480042122",
    "source_url": "https://www.google.com/maps/place/Morelli+Irrigazioni/data=!4m7!3m6!1s0x478004ba161ee0bd:0xf3ea41a9c6bdf665!8m2!3d44.649256!4d10.5636837!16s%2Fg%2F11gy01p0bd!19sChIJveAeFroEgEcRZfa9xqlB6vM?authuser=0&hl=tr&rclk=1",
    "website_url": "http://irrigazionimorelli.it/",
    "rating_text": "1,0",
    "stars": null,
    "number_of_reviews": null,
    "price_level": "",
    "open_hours": "",
    "extraction_timestamp": "2025-06-07T16:53:29.010Z",
    "source_name": "google",
    "source_query": "Irrigation Equipment",
    "source_country": "IT",
    "country": "Italy",
    "state": "Emilia-Romagna",
    "city": "Montecchio Emilia"
  },
  {
    "source_id": "ChIJH8G1sjoXgEcRX6YUwIAHj7Q",
    "name": "L'Isola dei Tesori",
    "category": "L'Isola dei Tesori",
    "formatted_address": "4,2(182)",
    "phone_number": "+390522866810",
    "source_url": "https://www.google.com/maps/place/L%27Isola+dei+Tesori/data=!4m7!3m6!1s0x4780173ab2b5c11f:0xb48f0780c014a65f!8m2!3d44.6968409!4d10.4690659!16s%2Fg%2F1ptvvp3hx!19sChIJH8G1sjoXgEcRX6YUwIAHj7Q?authuser=0&hl=tr&rclk=1",
    "website_url": "https://www.isoladeitesori.it/store/montecchio-emilia-re-via-ettore-majorana--9863.html?_gl=1%2Abmhgx9%2A_up%2AMQ..&gclid=Cj0KCQiAgqGrBhDtARIsAM5s0_nEqPBvDOxR-JsmAP8tYXn5V_6UG_EeEBTKcq166OWkOz-7yV9KfXIaAse8EALw_wcB",
    "rating_text": "4,2",
    "stars": null,
    "number_of_reviews": null,
    "price_level": "",
    "open_hours": "",
    "extraction_timestamp": "2025-06-07T16:53:29.011Z",
    "source_name": "google",
    "source_query": "Irrigation Equipment",
    "source_country": "IT",
    "country": "Italy",
    "state": "Emilia-Romagna",
    "city": "Montecchio Emilia"
  }
]
