[
  {
    "source_id": "ChIJtVDkNgRFgEcRqc6umwWIJuI",
    "name": "Rm Spa",
    "category": "Rm Spa",
    "formatted_address": "4,6(81)",
    "phone_number": "+390521872321",
    "source_url": "https://www.google.com/maps/place/Rm+Spa/data=!4m7!3m6!1s0x4780450436e450b5:0xe22688059baecea9!8m2!3d44.9105406!4d10.2583785!16s%2Fg%2F12hl93byl!19sChIJtVDkNgRFgEcRqc6umwWIJuI?authuser=0&hl=tr&rclk=1",
    "website_url": "http://www.rmirrigation.com/",
    "rating_text": "4,6",
    "stars": null,
    "number_of_reviews": null,
    "price_level": "",
    "open_hours": "",
    "extraction_timestamp": "2025-06-07T17:08:54.013Z",
    "source_name": "google",
    "source_query": "Irrigation Equipment",
    "source_country": "IT",
    "country": "Italy",
    "state": "Emilia-Romagna",
    "city": "Monticelli Terme"
  },
  {
    "source_id": "ChIJiXeA1KUTgEcRLNwQ2-ZP1Hs",
    "name": "Sidermeccanica Inox Srl",
    "category": "Sidermeccanica Inox Srl",
    "formatted_address": "3,7(3)",
    "phone_number": "+390521658294",
    "source_url": "https://www.google.com/maps/place/Sidermeccanica+Inox+Srl/data=!4m7!3m6!1s0x478013a5d4807789:0x7bd44fe6db10dc2c!8m2!3d44.72568!4d10.380699!16s%2Fg%2F11c5b19tg1!19sChIJiXeA1KUTgEcRLNwQ2-ZP1Hs?authuser=0&hl=tr&rclk=1",
    "website_url": "http://www.sidermeccanica.eu/",
    "rating_text": "3,7",
    "stars": null,
    "number_of_reviews": null,
    "price_level": "",
    "open_hours": "",
    "extraction_timestamp": "2025-06-07T17:08:54.014Z",
    "source_name": "google",
    "source_query": "Irrigation Equipment",
    "source_country": "IT",
    "country": "Italy",
    "state": "Emilia-Romagna",
    "city": "Monticelli Terme"
  },
  {
    "source_id": "ChIJcQG6ul7df0cR3VxKiu5OPBs",
    "name": "Scova Impianti Srl",
    "category": "Scova Impianti Srl",
    "formatted_address": "4,5(64)",
    "phone_number": "+39059923202",
    "source_url": "https://www.google.com/maps/place/Scova+Impianti+Srl/data=!4m7!3m6!1s0x477fdd5ebaba0171:0x1b3c4eee8a4a5cdd!8m2!3d44.6018135!4d11.032294!16s%2Fg%2F1tfzwbfb!19sChIJcQG6ul7df0cR3VxKiu5OPBs?authuser=0&hl=tr&rclk=1",
    "website_url": "https://www.scovaimpianti.com/",
    "rating_text": "4,5",
    "stars": null,
    "number_of_reviews": null,
    "price_level": "",
    "open_hours": "",
    "extraction_timestamp": "2025-06-07T17:08:54.015Z",
    "source_name": "google",
    "source_query": "Irrigation Equipment",
    "source_country": "IT",
    "country": "Italy",
    "state": "Emilia-Romagna",
    "city": "Monticelli Terme"
  },
  {
    "source_id": "ChIJq3tQ2L4TgEcRtCrtrfNS6pw",
    "name": "Il Giardino dei Melograni snc",
    "category": "Il Giardino dei Melograni snc",
    "formatted_address": "4,8(24)",
    "phone_number": "+390521659032",
    "source_url": "https://www.google.com/maps/place/Il+Giardino+dei+Melograni+snc/data=!4m7!3m6!1s0x478013bed8507bab:0x9cea52f3aded2ab4!8m2!3d44.7274735!4d10.3957679!16s%2Fg%2F11bwp1s_gr!19sChIJq3tQ2L4TgEcRtCrtrfNS6pw?authuser=0&hl=tr&rclk=1",
    "website_url": "",
    "rating_text": "4,8",
    "stars": null,
    "number_of_reviews": null,
    "price_level": "",
    "open_hours": "",
    "extraction_timestamp": "2025-06-07T17:08:54.017Z",
    "source_name": "google",
    "source_query": "Irrigation Equipment",
    "source_country": "IT",
    "country": "Italy",
    "state": "Emilia-Romagna",
    "city": "Monticelli Terme"
  },
  {
    "source_id": "ChIJRXALt8ATgEcRGoGGm13YIlM",
    "name": "Ferramenta Massimo Mazza Di Massimo Mazza & C. Snc",
    "category": "Ferramenta Massimo Mazza Di Massimo Mazza & C. Snc",
    "formatted_address": "4,6(101)",
    "phone_number": "+390521657600",
    "source_url": "https://www.google.com/maps/place/Ferramenta+Massimo+Mazza+Di+Massimo+Mazza+%26+C.+Snc/data=!4m7!3m6!1s0x478013c0b70b7045:0x5322d85d9b86811a!8m2!3d44.727412!4d10.3975947!16s%2Fg%2F1vg_645j!19sChIJRXALt8ATgEcRGoGGm13YIlM?authuser=0&hl=tr&rclk=1",
    "website_url": "https://www.ferramentamazzaparma.com/",
    "rating_text": "4,6",
    "stars": null,
    "number_of_reviews": null,
    "price_level": "",
    "open_hours": "",
    "extraction_timestamp": "2025-06-07T17:08:54.018Z",
    "source_name": "google",
    "source_query": "Irrigation Equipment",
    "source_country": "IT",
    "country": "Italy",
    "state": "Emilia-Romagna",
    "city": "Monticelli Terme"
  },
  {
    "source_id": "ChIJD2OqHdwTgEcROW7_RWX0VVE",
    "name": "Monticelli servizi DI MARIOTTI STEFANO",
    "category": "Monticelli servizi DI MARIOTTI STEFANO",
    "formatted_address": "5,0(2)",
    "phone_number": "+393777800219",
    "source_url": "https://www.google.com/maps/place/Monticelli+servizi+DI+MARIOTTI+STEFANO/data=!4m7!3m6!1s0x478013dc1daa630f:0x5155f46545ff6e39!8m2!3d44.7273135!4d10.393328!16s%2Fg%2F11h0m5pj79!19sChIJD2OqHdwTgEcROW7_RWX0VVE?authuser=0&hl=tr&rclk=1",
    "website_url": "",
    "rating_text": "5,0",
    "stars": null,
    "number_of_reviews": null,
    "price_level": "",
    "open_hours": "",
    "extraction_timestamp": "2025-06-07T17:08:54.019Z",
    "source_name": "google",
    "source_query": "Irrigation Equipment",
    "source_country": "IT",
    "country": "Italy",
    "state": "Emilia-Romagna",
    "city": "Monticelli Terme"
  },
  {
    "source_id": "ChIJKTkpLbkTgEcRTImrjcbSPXU",
    "name": "The Garden Bar",
    "category": "The Garden Bar",
    "formatted_address": "4,2(304) · ₺₺",
    "phone_number": "+390521975774",
    "source_url": "https://www.google.com/maps/place/The+Garden+Bar/data=!4m7!3m6!1s0x478013b92d293929:0x753dd2c68dab894c!8m2!3d44.7267528!4d10.3949343!16s%2Fg%2F11dzs_wyw7!19sChIJKTkpLbkTgEcRTImrjcbSPXU?authuser=0&hl=tr&rclk=1",
    "website_url": "http://www.bargelateriagiardino.it/",
    "rating_text": "4,2",
    "stars": null,
    "number_of_reviews": null,
    "price_level": "",
    "open_hours": "",
    "extraction_timestamp": "2025-06-07T17:08:54.021Z",
    "source_name": "google",
    "source_query": "Irrigation Equipment",
    "source_country": "IT",
    "country": "Italy",
    "state": "Emilia-Romagna",
    "city": "Monticelli Terme"
  },
  {
    "source_id": "ChIJIyDK8r8TgEcRYblyrPe4Rq0",
    "name": "Sanitaria Ortopedia De Caroli",
    "category": "Sanitaria Ortopedia De Caroli",
    "formatted_address": "4,1(19)",
    "phone_number": "+390521657500",
    "source_url": "https://www.google.com/maps/place/Sanitaria+Ortopedia+De+Caroli/data=!4m7!3m6!1s0x478013bff2ca2023:0xad46b8f7ac72b961!8m2!3d44.7298813!4d10.3991486!16s%2Fg%2F1wnbww2r!19sChIJIyDK8r8TgEcRYblyrPe4Rq0?authuser=0&hl=tr&rclk=1",
    "website_url": "https://www.sanitariaparma.com/",
    "rating_text": "4,1",
    "stars": null,
    "number_of_reviews": null,
    "price_level": "",
    "open_hours": "",
    "extraction_timestamp": "2025-06-07T17:08:54.022Z",
    "source_name": "google",
    "source_query": "Irrigation Equipment",
    "source_country": "IT",
    "country": "Italy",
    "state": "Emilia-Romagna",
    "city": "Monticelli Terme"
  }
]
