[
  {
    "source_id": "ChIJ76b3xOvlLBMRJ0s4cHBCib4",
    "name": "Idrotermica Bluwater",
    "category": "Idrotermica Bluwater",
    "formatted_address": "3,9(9)",
    "phone_number": "+390541858090",
    "source_url": "https://www.google.com/maps/place/Idrotermica+Bluwater/data=!4m7!3m6!1s0x132ce5ebc4f7a6ef:0xbe89427070384b27!8m2!3d43.9079538!4d12.6408023!16s%2Fg%2F11c58rjp2m!19sChIJ76b3xOvlLBMRJ0s4cHBCib4?authuser=0&hl=tr&rclk=1",
    "website_url": "",
    "rating_text": "3,9",
    "stars": null,
    "number_of_reviews": null,
    "price_level": "",
    "open_hours": "",
    "extraction_timestamp": "2025-06-07T16:49:40.590Z",
    "source_name": "google",
    "source_query": "Irrigation Equipment",
    "source_country": "IT",
    "country": "Italy",
    "state": "Emilia-Romagna",
    "city": "Morciano di Romagna"
  },
  {
    "source_id": "ChIJLXV3CmPlLBMR-9asCRjiFG0",
    "name": "Bilancioni Davide",
    "category": "Bilancioni Davide",
    "formatted_address": "4,7(63)",
    "phone_number": "+390541988545",
    "source_url": "https://www.google.com/maps/place/Bilancioni+Davide/data=!4m7!3m6!1s0x132ce5630a77752d:0x6d14e21809acd6fb!8m2!3d43.9098391!4d12.6427411!16s%2Fg%2F11g0h2df1y!19sChIJLXV3CmPlLBMR-9asCRjiFG0?authuser=0&hl=tr&rclk=1",
    "website_url": "",
    "rating_text": "4,7",
    "stars": null,
    "number_of_reviews": null,
    "price_level": "",
    "open_hours": "",
    "extraction_timestamp": "2025-06-07T16:49:40.591Z",
    "source_name": "google",
    "source_query": "Irrigation Equipment",
    "source_country": "IT",
    "country": "Italy",
    "state": "Emilia-Romagna",
    "city": "Morciano di Romagna"
  },
  {
    "source_id": "ChIJ843y49XlLBMROlJk83ktxyA",
    "name": "Genghini Ferramenta Utensileria S.R.L.",
    "category": "Genghini Ferramenta Utensileria S.R.L.",
    "formatted_address": "4,4(209)",
    "phone_number": "+390541987931",
    "source_url": "https://www.google.com/maps/place/Genghini+Ferramenta+Utensileria+S.R.L./data=!4m7!3m6!1s0x132ce5d5e3f28df3:0x20c72d79f364523a!8m2!3d43.9196235!4d12.662019!16s%2Fg%2F11bzq3yncn!19sChIJ843y49XlLBMROlJk83ktxyA?authuser=0&hl=tr&rclk=1",
    "website_url": "",
    "rating_text": "4,4",
    "stars": null,
    "number_of_reviews": null,
    "price_level": "",
    "open_hours": "",
    "extraction_timestamp": "2025-06-07T16:49:40.591Z",
    "source_name": "google",
    "source_query": "Irrigation Equipment",
    "source_country": "IT",
    "country": "Italy",
    "state": "Emilia-Romagna",
    "city": "Morciano di Romagna"
  },
  {
    "source_id": "ChIJ9X_DI6LDLBMR84MeChQNUCU",
    "name": "Irriverde - Il Paesaggio S.r.l.",
    "category": "Irriverde - Il Paesaggio S.r.l.",
    "formatted_address": "4,8(15)",
    "phone_number": "+393939275801",
    "source_url": "https://www.google.com/maps/place/Irriverde+-+Il+Paesaggio+S.r.l./data=!4m7!3m6!1s0x132cc3a223c37ff5:0x25500d140a1e83f3!8m2!3d43.982224!4d12.5281091!16s%2Fg%2F1ptz65rjr!19sChIJ9X_DI6LDLBMR84MeChQNUCU?authuser=0&hl=tr&rclk=1",
    "website_url": "",
    "rating_text": "4,8",
    "stars": null,
    "number_of_reviews": null,
    "price_level": "",
    "open_hours": "",
    "extraction_timestamp": "2025-06-07T16:49:40.602Z",
    "source_name": "google",
    "source_query": "Irrigation Equipment",
    "source_country": "IT",
    "country": "Italy",
    "state": "Emilia-Romagna",
    "city": "Morciano di Romagna"
  }
]
