[
  {
    "source_id": "ChIJJZ6bnCYgfkcRAJlIqmbsRJ0",
    "name": "O.R.M.A. S.r.l.",
    "category": "O.R.M.A. S.r.l.",
    "formatted_address": "4,3(16)",
    "phone_number": "+39054255095",
    "source_url": "https://www.google.com/maps/place/O.R.M.A.+S.r.l./data=!4m7!3m6!1s0x477e20269c9b9e25:0x9d44ec66aa489900!8m2!3d44.4221829!4d11.7101008!16s%2Fg%2F1tjl4rb7!19sChIJJZ6bnCYgfkcRAJlIqmbsRJ0?authuser=0&hl=tr&rclk=1",
    "website_url": "http://www.ormasrl.info/",
    "rating_text": "4,3",
    "stars": null,
    "number_of_reviews": null,
    "price_level": "",
    "open_hours": "",
    "extraction_timestamp": "2025-06-07T16:58:10.521Z",
    "source_name": "google",
    "source_query": "Irrigation Equipment",
    "source_country": "IT",
    "country": "Italy",
    "state": "Emilia-Romagna",
    "city": "Mordano"
  },
  {
    "source_id": "ChIJX_hA-jdLKxMRIVTiwkz2Lqc",
    "name": "Romagna Impianti S.R.L.",
    "category": "Romagna Impianti S.R.L.",
    "formatted_address": "4,4(33)",
    "phone_number": "+390542735211",
    "source_url": "https://www.google.com/maps/place/Romagna+Impianti+S.R.L./data=!4m7!3m6!1s0x132b4b37fa40f85f:0xa72ef64cc2e25421!8m2!3d44.3876043!4d11.7444613!16s%2Fg%2F11k8lywqyc!19sChIJX_hA-jdLKxMRIVTiwkz2Lqc?authuser=0&hl=tr&rclk=1",
    "website_url": "https://www.romagnaimpianti.net/",
    "rating_text": "4,4",
    "stars": null,
    "number_of_reviews": null,
    "price_level": "",
    "open_hours": "",
    "extraction_timestamp": "2025-06-07T16:58:10.522Z",
    "source_name": "google",
    "source_query": "Irrigation Equipment",
    "source_country": "IT",
    "country": "Italy",
    "state": "Emilia-Romagna",
    "city": "Mordano"
  },
  {
    "source_id": "ChIJ0_3QpkUefkcRwh8RLYBDqjU",
    "name": "Elettrotecnica Imolese S.U.R.L.",
    "category": "Elettrotecnica Imolese S.U.R.L.",
    "formatted_address": "4,8(18)",
    "phone_number": "+39054258511",
    "source_url": "https://www.google.com/maps/place/Elettrotecnica+Imolese+S.U.R.L./data=!4m7!3m6!1s0x477e1e45a6d0fdd3:0x35aa43802d111fc2!8m2!3d44.4146224!4d11.7802945!16s%2Fg%2F1tlc_026!19sChIJ0_3QpkUefkcRwh8RLYBDqjU?authuser=0&hl=tr&rclk=1",
    "website_url": "http://www.eti.it/",
    "rating_text": "4,8",
    "stars": null,
    "number_of_reviews": null,
    "price_level": "",
    "open_hours": "",
    "extraction_timestamp": "2025-06-07T16:58:10.522Z",
    "source_name": "google",
    "source_query": "Irrigation Equipment",
    "source_country": "IT",
    "country": "Italy",
    "state": "Emilia-Romagna",
    "city": "Mordano"
  },
  {
    "source_id": "ChIJD5eUz5NKKxMRiXFKArkq8n8",
    "name": "S.I.G.E.A. di Bittini Vittorio e C. snc - irrigazione, giardinaggio, agricoltura, fontane",
    "category": "S.I.G.E.A. di Bittini Vittorio e C. snc - irrigazione, giardinaggio, agricoltura, fontane",
    "formatted_address": "S.I.G.E.A. di Bittini Vittorio e C. snc - irrigazione, giardinaggio, agricoltura, fontane",
    "phone_number": "+390542642326",
    "source_url": "https://www.google.com/maps/place/S.I.G.E.A.+di+Bittini+Vittorio+e+C.+snc+-+irrigazione,+giardinaggio,+agricoltura,+fontane/data=!4m7!3m6!1s0x132b4a93cf94970f:0x7ff22ab9024a7189!8m2!3d44.3736772!4d11.7277152!16s%2Fg%2F1tdlqxq3!19sChIJD5eUz5NKKxMRiXFKArkq8n8?authuser=0&hl=tr&rclk=1",
    "website_url": "",
    "rating_text": "4,7",
    "stars": null,
    "number_of_reviews": null,
    "price_level": "",
    "open_hours": "",
    "extraction_timestamp": "2025-06-07T16:58:10.523Z",
    "source_name": "google",
    "source_query": "Irrigation Equipment",
    "source_country": "IT",
    "country": "Italy",
    "state": "Emilia-Romagna",
    "city": "Mordano"
  },
  {
    "source_id": "ChIJhZ6VmoA2KxMRihahY_0X8jQ",
    "name": "C.T.A. Benini Srl",
    "category": "C.T.A. Benini Srl",
    "formatted_address": "4,5(31)",
    "phone_number": "+390542690494",
    "source_url": "https://www.google.com/maps/place/C.T.A.+Benini+Srl/data=!4m7!3m6!1s0x132b36809a959e85:0x34f217fd63a1168a!8m2!3d44.3279038!4d11.6655518!16s%2Fg%2F1tfy4mx5!19sChIJhZ6VmoA2KxMRihahY_0X8jQ?authuser=0&hl=tr&rclk=1",
    "website_url": "http://www.depurazioneacquaimola.com/",
    "rating_text": "4,5",
    "stars": null,
    "number_of_reviews": null,
    "price_level": "",
    "open_hours": "",
    "extraction_timestamp": "2025-06-07T16:58:10.523Z",
    "source_name": "google",
    "source_query": "Irrigation Equipment",
    "source_country": "IT",
    "country": "Italy",
    "state": "Emilia-Romagna",
    "city": "Mordano"
  },
  {
    "source_id": "ChIJ1-WmNOUdfkcRy1AgiR6TL0I",
    "name": "Ferramenta Cattani Bruno",
    "category": "Ferramenta Cattani Bruno",
    "formatted_address": "4,5(15)",
    "phone_number": "+393391825741",
    "source_url": "https://www.google.com/maps/place/Ferramenta+Cattani+Bruno/data=!4m7!3m6!1s0x477e1de534a6e5d7:0x422f931e892050cb!8m2!3d44.3974914!4d11.8116337!16s%2Fg%2F1q62kbph8!19sChIJ1-WmNOUdfkcRy1AgiR6TL0I?authuser=0&hl=tr&rclk=1",
    "website_url": "",
    "rating_text": "4,5",
    "stars": null,
    "number_of_reviews": null,
    "price_level": "",
    "open_hours": "",
    "extraction_timestamp": "2025-06-07T16:58:10.524Z",
    "source_name": "google",
    "source_query": "Irrigation Equipment",
    "source_country": "IT",
    "country": "Italy",
    "state": "Emilia-Romagna",
    "city": "Mordano"
  }
]
