[
  {
    "source_id": "ChIJ1UgWMgkLgEcREnUrBzWp9YI",
    "name": "Termoplastica Nevianese srl",
    "category": "Termoplastica Nevianese srl",
    "formatted_address": "4,1(7)",
    "phone_number": "+390521344810",
    "source_url": "https://www.google.com/maps/place/Termoplastica+Nevianese+srl/data=!4m7!3m6!1s0x47800b09321648d5:0x82f5a935072b7512!8m2!3d44.5803255!4d10.3435716!16s%2Fg%2F1tdmnxqv!19sChIJ1UgWMgkLgEcREnUrBzWp9YI?authuser=0&hl=tr&rclk=1",
    "website_url": "http://www.termoplasticanevianese.com/",
    "rating_text": "4,1",
    "stars": null,
    "number_of_reviews": null,
    "price_level": "",
    "open_hours": "",
    "extraction_timestamp": "2025-06-07T16:01:00.661Z",
    "source_name": "google",
    "source_query": "Irrigation Equipment",
    "source_country": "IT",
    "country": "Italy",
    "state": "Emilia-Romagna",
    "city": "Neviano degli Arduini"
  },
  {
    "source_id": "ChIJtVDkNgRFgEcRqc6umwWIJuI",
    "name": "Rm Spa",
    "category": "Rm Spa",
    "formatted_address": "4,6(81)",
    "phone_number": "+390521872321",
    "source_url": "https://www.google.com/maps/place/Rm+Spa/data=!4m7!3m6!1s0x4780450436e450b5:0xe22688059baecea9!8m2!3d44.9105406!4d10.2583785!16s%2Fg%2F12hl93byl!19sChIJtVDkNgRFgEcRqc6umwWIJuI?authuser=0&hl=tr&rclk=1",
    "website_url": "http://www.rmirrigation.com/",
    "rating_text": "4,6",
    "stars": null,
    "number_of_reviews": null,
    "price_level": "",
    "open_hours": "",
    "extraction_timestamp": "2025-06-07T16:01:00.661Z",
    "source_name": "google",
    "source_query": "Irrigation Equipment",
    "source_country": "IT",
    "country": "Italy",
    "state": "Emilia-Romagna",
    "city": "Neviano degli Arduini"
  },
  {
    "source_id": "ChIJzWyZEf8dgEcRM0sVtbJE3TI",
    "name": "Impiantistica LAVONE",
    "category": "Impiantistica LAVONE",
    "formatted_address": "5,0(3)",
    "phone_number": "+393514759408",
    "source_url": "https://www.google.com/maps/place/Impiantistica+LAVONE/data=!4m7!3m6!1s0x47801dff11996ccd:0x32dd44b2b5154b33!8m2!3d44.7120611!4d10.6241549!16s%2Fg%2F11lp1gdrnd!19sChIJzWyZEf8dgEcRM0sVtbJE3TI?authuser=0&hl=tr&rclk=1",
    "website_url": "",
    "rating_text": "5,0",
    "stars": null,
    "number_of_reviews": null,
    "price_level": "",
    "open_hours": "",
    "extraction_timestamp": "2025-06-07T16:01:00.662Z",
    "source_name": "google",
    "source_query": "Irrigation Equipment",
    "source_country": "IT",
    "country": "Italy",
    "state": "Emilia-Romagna",
    "city": "Neviano degli Arduini"
  },
  {
    "source_id": "ChIJcQG6ul7df0cR3VxKiu5OPBs",
    "name": "Scova Impianti Srl",
    "category": "Scova Impianti Srl",
    "formatted_address": "4,5(64)",
    "phone_number": "+39059923202",
    "source_url": "https://www.google.com/maps/place/Scova+Impianti+Srl/data=!4m7!3m6!1s0x477fdd5ebaba0171:0x1b3c4eee8a4a5cdd!8m2!3d44.6018135!4d11.032294!16s%2Fg%2F1tfzwbfb!19sChIJcQG6ul7df0cR3VxKiu5OPBs?authuser=0&hl=tr&rclk=1",
    "website_url": "https://www.scovaimpianti.com/",
    "rating_text": "4,5",
    "stars": null,
    "number_of_reviews": null,
    "price_level": "",
    "open_hours": "",
    "extraction_timestamp": "2025-06-07T16:01:00.662Z",
    "source_name": "google",
    "source_query": "Irrigation Equipment",
    "source_country": "IT",
    "country": "Italy",
    "state": "Emilia-Romagna",
    "city": "Neviano degli Arduini"
  },
  {
    "source_id": "ChIJq6qqqvsOgEcRu1RvVh_HOxo",
    "name": "HYDRO TECHNOLOGY di Giacopini Matteo",
    "category": "HYDRO TECHNOLOGY di Giacopini Matteo",
    "formatted_address": "4,7(13)",
    "phone_number": "+393203091135",
    "source_url": "https://www.google.com/maps/place/HYDRO+TECHNOLOGY+di+Giacopini+Matteo/data=!4m7!3m6!1s0x47800efbaaaaaaab:0x1a3bc71f566f54bb!8m2!3d44.5879042!4d10.4047862!16s%2Fg%2F11fjvwhnlp!19sChIJq6qqqvsOgEcRu1RvVh_HOxo?authuser=0&hl=tr&rclk=1",
    "website_url": "http://ht-hydrotechnology.com/",
    "rating_text": "4,7",
    "stars": null,
    "number_of_reviews": null,
    "price_level": "",
    "open_hours": "",
    "extraction_timestamp": "2025-06-07T16:01:00.663Z",
    "source_name": "google",
    "source_query": "Irrigation Equipment",
    "source_country": "IT",
    "country": "Italy",
    "state": "Emilia-Romagna",
    "city": "Neviano degli Arduini"
  },
  {
    "source_id": "ChIJR0cLXhQkgEcRi9oI9GALzlg",
    "name": "IRRILAND",
    "category": "IRRILAND",
    "formatted_address": "4,0(4)",
    "phone_number": "+390522831544",
    "source_url": "https://www.google.com/maps/place/IRRILAND/data=!4m7!3m6!1s0x478024145e0b4747:0x58ce0b60f408da8b!8m2!3d44.891987!4d10.650983!16s%2Fg%2F1tczjb0h!19sChIJR0cLXhQkgEcRi9oI9GALzlg?authuser=0&hl=tr&rclk=1",
    "website_url": "http://www.irriland.it/",
    "rating_text": "4,0",
    "stars": null,
    "number_of_reviews": null,
    "price_level": "",
    "open_hours": "",
    "extraction_timestamp": "2025-06-07T16:01:00.663Z",
    "source_name": "google",
    "source_query": "Irrigation Equipment",
    "source_country": "IT",
    "country": "Italy",
    "state": "Emilia-Romagna",
    "city": "Neviano degli Arduini"
  },
  {
    "source_id": "ChIJ22NqotoNgEcRPHi_CwCEnSs",
    "name": "Marco Zambrelli Autoriparazioni",
    "category": "Marco Zambrelli Autoriparazioni",
    "formatted_address": "4,4(32)",
    "phone_number": "+390521842741",
    "source_url": "https://www.google.com/maps/place/Marco+Zambrelli+Autoriparazioni/data=!4m7!3m6!1s0x47800ddaa26a63db:0x2b9d84000bbf783c!8m2!3d44.6489794!4d10.3832059!16s%2Fg%2F11dfgqgn1m!19sChIJ22NqotoNgEcRPHi_CwCEnSs?authuser=0&hl=tr&rclk=1",
    "website_url": "http://www.officinazambrellimarco.it/",
    "rating_text": "4,4",
    "stars": null,
    "number_of_reviews": null,
    "price_level": "",
    "open_hours": "",
    "extraction_timestamp": "2025-06-07T16:01:00.663Z",
    "source_name": "google",
    "source_query": "Irrigation Equipment",
    "source_country": "IT",
    "country": "Italy",
    "state": "Emilia-Romagna",
    "city": "Neviano degli Arduini"
  },
  {
    "source_id": "ChIJpVv9TmYQgEcRkPUIA3tc-yo",
    "name": "Hobby Garden Petucco Srl",
    "category": "Hobby Garden Petucco Srl",
    "formatted_address": "4,1(158)",
    "phone_number": "+390522243076",
    "source_url": "https://www.google.com/maps/place/Hobby+Garden+Petucco+Srl/data=!4m7!3m6!1s0x478010664efd5ba5:0x2afb5c7b0308f590!8m2!3d44.696324!4d10.485611!16s%2Fg%2F1td2956f!19sChIJpVv9TmYQgEcRkPUIA3tc-yo?authuser=0&hl=tr&rclk=1",
    "website_url": "http://www.hobbygarden.eu/",
    "rating_text": "4,1",
    "stars": null,
    "number_of_reviews": null,
    "price_level": "",
    "open_hours": "",
    "extraction_timestamp": "2025-06-07T16:01:00.664Z",
    "source_name": "google",
    "source_query": "Irrigation Equipment",
    "source_country": "IT",
    "country": "Italy",
    "state": "Emilia-Romagna",
    "city": "Neviano degli Arduini"
  },
  {
    "source_id": "ChIJP1g8yUINgEcRbkFSlYR1BVw",
    "name": "Landi Giuseppe - Automazioni Elettriche Industriali",
    "category": "Landi Giuseppe - Automazioni Elettriche Industriali",
    "formatted_address": "4,8(4)",
    "phone_number": "+390521848002",
    "source_url": "https://www.google.com/maps/place/Landi+Giuseppe+-+Automazioni+Elettriche+Industriali/data=!4m7!3m6!1s0x47800d42c93c583f:0x5c0575849552416e!8m2!3d44.6708396!4d10.3290927!16s%2Fg%2F1tdc41v5!19sChIJP1g8yUINgEcRbkFSlYR1BVw?authuser=0&hl=tr&rclk=1",
    "website_url": "http://www.landiautomazioni.it/",
    "rating_text": "4,8",
    "stars": null,
    "number_of_reviews": null,
    "price_level": "",
    "open_hours": "",
    "extraction_timestamp": "2025-06-07T16:01:00.664Z",
    "source_name": "google",
    "source_query": "Irrigation Equipment",
    "source_country": "IT",
    "country": "Italy",
    "state": "Emilia-Romagna",
    "city": "Neviano degli Arduini"
  },
  {
    "source_id": "ChIJ69PdR1EvgEcRzaszzDo7sjQ",
    "name": "Nodolini s.n.c.",
    "category": "Nodolini s.n.c.",
    "formatted_address": "5,0(8)",
    "phone_number": "+390522977491",
    "source_url": "https://www.google.com/maps/place/Nodolini+s.n.c./data=!4m7!3m6!1s0x47802f5147ddd3eb:0x34b23b3acc33abcd!8m2!3d44.9541974!4d10.6879499!16s%2Fg%2F11b6j0n4vm!19sChIJ69PdR1EvgEcRzaszzDo7sjQ?authuser=0&hl=tr&rclk=1",
    "website_url": "http://www.nodolini.com/",
    "rating_text": "5,0",
    "stars": null,
    "number_of_reviews": null,
    "price_level": "",
    "open_hours": "",
    "extraction_timestamp": "2025-06-07T16:01:00.665Z",
    "source_name": "google",
    "source_query": "Irrigation Equipment",
    "source_country": "IT",
    "country": "Italy",
    "state": "Emilia-Romagna",
    "city": "Neviano degli Arduini"
  }
]
