[
  {
    "source_id": "ChIJtVDkNgRFgEcRqc6umwWIJuI",
    "name": "Rm Spa",
    "category": "Rm Spa",
    "formatted_address": "4,6(81)",
    "phone_number": "+390521872321",
    "source_url": "https://www.google.com/maps/place/Rm+Spa/data=!4m7!3m6!1s0x4780450436e450b5:0xe22688059baecea9!8m2!3d44.9105406!4d10.2583785!16s%2Fg%2F12hl93byl!19sChIJtVDkNgRFgEcRqc6umwWIJuI?authuser=0&hl=tr&rclk=1",
    "website_url": "http://www.rmirrigation.com/",
    "rating_text": "4,6",
    "stars": null,
    "number_of_reviews": null,
    "price_level": "",
    "open_hours": "",
    "extraction_timestamp": "2025-06-07T16:36:32.787Z",
    "source_name": "google",
    "source_query": "Irrigation Equipment",
    "source_country": "IT",
    "country": "Italy",
    "state": "Emilia-Romagna",
    "city": "Nibbiano"
  },
  {
    "source_id": "ChIJCdwQIfbNgEcRtWOzhvtW0iA",
    "name": "Agrimil Tech Srl",
    "category": "Agrimil Tech Srl",
    "formatted_address": "4,8(9)",
    "phone_number": "+390523849679",
    "source_url": "https://www.google.com/maps/place/Agrimil+Tech+Srl/data=!4m7!3m6!1s0x4780cdf62110dc09:0x20d256fb86b363b5!8m2!3d45.0556557!4d9.5030905!16s%2Fg%2F1tdf9z93!19sChIJCdwQIfbNgEcRtWOzhvtW0iA?authuser=0&hl=tr&rclk=1",
    "website_url": "http://www.agrimil.it/",
    "rating_text": "4,8",
    "stars": null,
    "number_of_reviews": null,
    "price_level": "",
    "open_hours": "",
    "extraction_timestamp": "2025-06-07T16:36:32.789Z",
    "source_name": "google",
    "source_query": "Irrigation Equipment",
    "source_country": "IT",
    "country": "Italy",
    "state": "Emilia-Romagna",
    "city": "Nibbiano"
  },
  {
    "source_id": "ChIJqdtsqMTaf0cRFSqvzNBB5Tw",
    "name": "Ricchetti Irrigazione Snc Di Alberghini Paolo E C.",
    "category": "Ricchetti Irrigazione Snc Di Alberghini Paolo E C.",
    "formatted_address": "4,9(31)",
    "phone_number": "+39051950115",
    "source_url": "https://www.google.com/maps/place/Ricchetti+Irrigazione+Snc+Di+Alberghini+Paolo+E+C./data=!4m7!3m6!1s0x477fdac4a86cdba9:0x3ce541d0ccaf2a15!8m2!3d44.5883369!4d11.1803569!16s%2Fg%2F1vfn5hgh!19sChIJqdtsqMTaf0cRFSqvzNBB5Tw?authuser=0&hl=tr&rclk=1",
    "website_url": "http://www.ricchetti-irrigatori.it/",
    "rating_text": "4,9",
    "stars": null,
    "number_of_reviews": null,
    "price_level": "",
    "open_hours": "",
    "extraction_timestamp": "2025-06-07T16:36:32.791Z",
    "source_name": "google",
    "source_query": "Irrigation Equipment",
    "source_country": "IT",
    "country": "Italy",
    "state": "Emilia-Romagna",
    "city": "Nibbiano"
  },
  {
    "source_id": "ChIJcQG6ul7df0cR3VxKiu5OPBs",
    "name": "Scova Impianti Srl",
    "category": "Scova Impianti Srl",
    "formatted_address": "4,5(64)",
    "phone_number": "+39059923202",
    "source_url": "https://www.google.com/maps/place/Scova+Impianti+Srl/data=!4m7!3m6!1s0x477fdd5ebaba0171:0x1b3c4eee8a4a5cdd!8m2!3d44.6018135!4d11.032294!16s%2Fg%2F1tfzwbfb!19sChIJcQG6ul7df0cR3VxKiu5OPBs?authuser=0&hl=tr&rclk=1",
    "website_url": "https://www.scovaimpianti.com/",
    "rating_text": "4,5",
    "stars": null,
    "number_of_reviews": null,
    "price_level": "",
    "open_hours": "",
    "extraction_timestamp": "2025-06-07T16:36:32.793Z",
    "source_name": "google",
    "source_query": "Irrigation Equipment",
    "source_country": "IT",
    "country": "Italy",
    "state": "Emilia-Romagna",
    "city": "Nibbiano"
  },
  {
    "source_id": "ChIJlfKaqSlRfksRNvergECjVi8",
    "name": "Mannino Sistemi Trattamento Acqua",
    "category": "Mannino Sistemi Trattamento Acqua",
    "formatted_address": "4,8(16)",
    "phone_number": "+393505784936",
    "source_url": "https://www.google.com/maps/place/Mannino+Sistemi+Trattamento+Acqua/data=!4m7!3m6!1s0x4b7e5129a99af295:0x2f56a34080abf736!8m2!3d45.0422201!4d9.6981487!16s%2Fg%2F11q3q46xvv!19sChIJlfKaqSlRfksRNvergECjVi8?authuser=0&hl=tr&rclk=1",
    "website_url": "http://manninodepurazione.it/",
    "rating_text": "4,8",
    "stars": null,
    "number_of_reviews": null,
    "price_level": "",
    "open_hours": "",
    "extraction_timestamp": "2025-06-07T16:36:32.795Z",
    "source_name": "google",
    "source_query": "Irrigation Equipment",
    "source_country": "IT",
    "country": "Italy",
    "state": "Emilia-Romagna",
    "city": "Nibbiano"
  },
  {
    "source_id": "ChIJh3Nd8G0sfkcR_m7VewEmxXM",
    "name": "Irrigarden",
    "category": "Irrigarden",
    "formatted_address": "4,7(158)",
    "phone_number": "+39051782013",
    "source_url": "https://www.google.com/maps/place/Irrigarden/data=!4m7!3m6!1s0x477e2c6df05d7387:0x73c526017bd56efe!8m2!3d44.5096266!4d11.4390897!16s%2Fg%2F1vgw_l7w!19sChIJh3Nd8G0sfkcR_m7VewEmxXM?authuser=0&hl=tr&rclk=1",
    "website_url": "https://www.irrigarden-bo.it/",
    "rating_text": "4,7",
    "stars": null,
    "number_of_reviews": null,
    "price_level": "",
    "open_hours": "",
    "extraction_timestamp": "2025-06-07T16:36:32.798Z",
    "source_name": "google",
    "source_query": "Irrigation Equipment",
    "source_country": "IT",
    "country": "Italy",
    "state": "Emilia-Romagna",
    "city": "Nibbiano"
  },
  {
    "source_id": "ChIJJ6V6lMDgf0cR1SpFsfjDuHg",
    "name": "Ocmis Irrigazione Spa",
    "category": "Ocmis Irrigazione Spa",
    "formatted_address": "3,5(31)",
    "phone_number": "+39059702150",
    "source_url": "https://www.google.com/maps/place/Ocmis+Irrigazione+Spa/data=!4m7!3m6!1s0x477fe0c0947aa527:0x78b8c3f8b1452ad5!8m2!3d44.530494!4d10.9794578!16s%2Fg%2F1vd3tn19!19sChIJJ6V6lMDgf0cR1SpFsfjDuHg?authuser=0&hl=tr&rclk=1",
    "website_url": "http://www.ocmis-irrigazione.it/",
    "rating_text": "3,5",
    "stars": null,
    "number_of_reviews": null,
    "price_level": "",
    "open_hours": "",
    "extraction_timestamp": "2025-06-07T16:36:32.799Z",
    "source_name": "google",
    "source_query": "Irrigation Equipment",
    "source_country": "IT",
    "country": "Italy",
    "state": "Emilia-Romagna",
    "city": "Nibbiano"
  },
  {
    "source_id": "ChIJFW3XPJejLBMRDpQWGwmYqU4",
    "name": "Raggini Irrigazioni e Robot Tosaerba",
    "category": "Raggini Irrigazioni e Robot Tosaerba",
    "formatted_address": "5,0(1)",
    "phone_number": "+393926808947",
    "source_url": "https://www.google.com/maps/place/Raggini+Irrigazioni+e+Robot+Tosaerba/data=!4m7!3m6!1s0x132ca3973cd76d15:0x4ea998091b16940e!8m2!3d44.36369!4d11.8460774!16s%2Fg%2F11dz0bbs9t!19sChIJFW3XPJejLBMRDpQWGwmYqU4?authuser=0&hl=tr&rclk=1",
    "website_url": "",
    "rating_text": "5,0",
    "stars": null,
    "number_of_reviews": null,
    "price_level": "",
    "open_hours": "",
    "extraction_timestamp": "2025-06-07T16:36:32.801Z",
    "source_name": "google",
    "source_query": "Irrigation Equipment",
    "source_country": "IT",
    "country": "Italy",
    "state": "Emilia-Romagna",
    "city": "Nibbiano"
  },
  {
    "source_id": "ChIJ9V7VUGIbEQ4Rd0H8gwcDqwk",
    "name": "Mannino Sistemi Trattamento Acqua",
    "category": "Mannino Sistemi Trattamento Acqua",
    "formatted_address": "3,7(3)",
    "phone_number": "+393505784936",
    "source_url": "https://www.google.com/maps/place/Mannino+Sistemi+Trattamento+Acqua/data=!4m7!3m6!1s0xe111b6250d55ef5:0x9ab030783fc4177!8m2!3d45.0422201!4d9.6981487!16s%2Fg%2F11s33q_spp!19sChIJ9V7VUGIbEQ4Rd0H8gwcDqwk?authuser=0&hl=tr&rclk=1",
    "website_url": "http://www.manninodepurazione.it/",
    "rating_text": "3,7",
    "stars": null,
    "number_of_reviews": null,
    "price_level": "",
    "open_hours": "",
    "extraction_timestamp": "2025-06-07T16:36:32.803Z",
    "source_name": "google",
    "source_query": "Irrigation Equipment",
    "source_country": "IT",
    "country": "Italy",
    "state": "Emilia-Romagna",
    "city": "Nibbiano"
  }
]
