[
  {
    "source_id": "ChIJtVDkNgRFgEcRqc6umwWIJuI",
    "name": "Rm Spa",
    "category": "Rm Spa",
    "formatted_address": "4,6(81)",
    "phone_number": "+390521872321",
    "source_url": "https://www.google.com/maps/place/Rm+Spa/data=!4m7!3m6!1s0x4780450436e450b5:0xe22688059baecea9!8m2!3d44.9105406!4d10.2583785!16s%2Fg%2F12hl93byl!19sChIJtVDkNgRFgEcRqc6umwWIJuI?authuser=0&hl=tr&rclk=1",
    "website_url": "http://www.rmirrigation.com/",
    "rating_text": "4,6",
    "stars": null,
    "number_of_reviews": null,
    "price_level": "",
    "open_hours": "",
    "extraction_timestamp": "2025-06-07T16:42:39.605Z",
    "source_name": "google",
    "source_query": "Irrigation Equipment",
    "source_country": "IT",
    "country": "Italy",
    "state": "Emilia-Romagna",
    "city": "Noceto"
  },
  {
    "source_id": "ChIJy805WcDcgEcRtmGWlwosXQc",
    "name": "IRRIMEC SRL",
    "category": "IRRIMEC SRL",
    "formatted_address": "4,5(90)",
    "phone_number": "+390523760441",
    "source_url": "https://www.google.com/maps/place/IRRIMEC+SRL/data=!4m7!3m6!1s0x4780dcc05939cdcb:0x75d2c0a979661b6!8m2!3d45.0612353!4d9.630829!16s%2Fg%2F1tdgt7d_!19sChIJy805WcDcgEcRtmGWlwosXQc?authuser=0&hl=tr&rclk=1",
    "website_url": "http://www.irrimec.com/",
    "rating_text": "4,5",
    "stars": null,
    "number_of_reviews": null,
    "price_level": "",
    "open_hours": "",
    "extraction_timestamp": "2025-06-07T16:42:39.607Z",
    "source_name": "google",
    "source_query": "Irrigation Equipment",
    "source_country": "IT",
    "country": "Italy",
    "state": "Emilia-Romagna",
    "city": "Noceto"
  },
  {
    "source_id": "ChIJpVxQ379ogEcRqnYi9D6KuWU",
    "name": "Robuschi Giampaolo Trattamento Antiscivolo con prodotti Stonegrip",
    "category": "Robuschi Giampaolo Trattamento Antiscivolo con prodotti Stonegrip",
    "formatted_address": "Güvenlik Ekipmanları Tedarikçisi ·  · Via Ghiaie Superiori, 7724 saat açık · +39 349 479 5701",
    "phone_number": "+39349479570124",
    "source_url": "https://www.google.com/maps/place/Robuschi+Giampaolo+Trattamento+Antiscivolo+con+prodotti+Stonegrip/data=!4m7!3m6!1s0x478068bfdf505ca5:0x65b98a3ef42276aa!8m2!3d44.787987!4d10.185688!16s%2Fg%2F1thxznd5!19sChIJpVxQ379ogEcRqnYi9D6KuWU?authuser=0&hl=tr&rclk=1",
    "website_url": "http://www.trattamentoantiscivolo.com/",
    "rating_text": "",
    "stars": null,
    "number_of_reviews": null,
    "price_level": "",
    "open_hours": "",
    "extraction_timestamp": "2025-06-07T16:42:39.608Z",
    "source_name": "google",
    "source_query": "Irrigation Equipment",
    "source_country": "IT",
    "country": "Italy",
    "state": "Emilia-Romagna",
    "city": "Noceto"
  },
  {
    "source_id": "ChIJvWESljtqgEcRyACWMGuoih0",
    "name": "Idro Verde",
    "category": "Idro Verde",
    "formatted_address": "Çim Yağmurlama Sistemi Yüklenicisi ·  · Via Emilia Ovest, 129Açık ⋅ Kapanış saati: 21:00 · +39 338 397 2503",
    "phone_number": "+393383972503",
    "source_url": "https://www.google.com/maps/place/Idro+Verde/data=!4m7!3m6!1s0x47806a3b961261bd:0x1d8aa86b309600c8!8m2!3d44.8113047!4d10.2811005!16s%2Fg%2F11c6y_k67v!19sChIJvWESljtqgEcRyACWMGuoih0?authuser=0&hl=tr&rclk=1",
    "website_url": "http://idroverdeparma.it/",
    "rating_text": "",
    "stars": null,
    "number_of_reviews": null,
    "price_level": "",
    "open_hours": "",
    "extraction_timestamp": "2025-06-07T16:42:39.610Z",
    "source_name": "google",
    "source_query": "Irrigation Equipment",
    "source_country": "IT",
    "country": "Italy",
    "state": "Emilia-Romagna",
    "city": "Noceto"
  },
  {
    "source_id": "ChIJcQG6ul7df0cR3VxKiu5OPBs",
    "name": "Scova Impianti Srl",
    "category": "Scova Impianti Srl",
    "formatted_address": "4,5(64)",
    "phone_number": "+39059923202",
    "source_url": "https://www.google.com/maps/place/Scova+Impianti+Srl/data=!4m7!3m6!1s0x477fdd5ebaba0171:0x1b3c4eee8a4a5cdd!8m2!3d44.6018135!4d11.032294!16s%2Fg%2F1tfzwbfb!19sChIJcQG6ul7df0cR3VxKiu5OPBs?authuser=0&hl=tr&rclk=1",
    "website_url": "https://www.scovaimpianti.com/",
    "rating_text": "4,5",
    "stars": null,
    "number_of_reviews": null,
    "price_level": "",
    "open_hours": "",
    "extraction_timestamp": "2025-06-07T16:42:39.611Z",
    "source_name": "google",
    "source_query": "Irrigation Equipment",
    "source_country": "IT",
    "country": "Italy",
    "state": "Emilia-Romagna",
    "city": "Noceto"
  },
  {
    "source_id": "ChIJxeimNmNogEcRKepjsMeClXc",
    "name": "COMMISSIONING IMPIANTI| Collaudo e avviamento di impianti di condizionamento, aeraulici, idraulici e di aerazione HVAC",
    "category": "COMMISSIONING IMPIANTI| Collaudo e avviamento di impianti di condizionamento, aeraulici, idraulici e di aerazione HVAC",
    "formatted_address": "COMMISSIONING IMPIANTI| Collaudo e avviamento di impianti di condizionamento, aeraulici, idraulici e di aerazione HVAC",
    "phone_number": "+390521621358",
    "source_url": "https://www.google.com/maps/place/COMMISSIONING+IMPIANTI%7C+Collaudo+e+avviamento+di+impianti+di+condizionamento,+aeraulici,+idraulici+e+di+aerazione+HVAC/data=!4m7!3m6!1s0x4780686336a6e8c5:0x779582c7b063ea29!8m2!3d44.8130526!4d10.1739358!16s%2Fg%2F1ptxzw3sq!19sChIJxeimNmNogEcRKepjsMeClXc?authuser=0&hl=tr&rclk=1",
    "website_url": "https://www.commissioningimpianti.it/",
    "rating_text": "5,0",
    "stars": null,
    "number_of_reviews": null,
    "price_level": "",
    "open_hours": "",
    "extraction_timestamp": "2025-06-07T16:42:39.612Z",
    "source_name": "google",
    "source_query": "Irrigation Equipment",
    "source_country": "IT",
    "country": "Italy",
    "state": "Emilia-Romagna",
    "city": "Noceto"
  },
  {
    "source_id": "ChIJR0cLXhQkgEcRi9oI9GALzlg",
    "name": "IRRILAND",
    "category": "IRRILAND",
    "formatted_address": "4,0(4)",
    "phone_number": "+390522831544",
    "source_url": "https://www.google.com/maps/place/IRRILAND/data=!4m7!3m6!1s0x478024145e0b4747:0x58ce0b60f408da8b!8m2!3d44.891987!4d10.650983!16s%2Fg%2F1tczjb0h!19sChIJR0cLXhQkgEcRi9oI9GALzlg?authuser=0&hl=tr&rclk=1",
    "website_url": "http://www.irriland.it/",
    "rating_text": "4,0",
    "stars": null,
    "number_of_reviews": null,
    "price_level": "",
    "open_hours": "",
    "extraction_timestamp": "2025-06-07T16:42:39.613Z",
    "source_name": "google",
    "source_query": "Irrigation Equipment",
    "source_country": "IT",
    "country": "Italy",
    "state": "Emilia-Romagna",
    "city": "Noceto"
  },
  {
    "source_id": "ChIJ3ffAufBtgEcRCytqNHDLXR4",
    "name": "Del Frate Srl",
    "category": "Del Frate Srl",
    "formatted_address": "4,8(37)",
    "phone_number": "+390521986971",
    "source_url": "https://www.google.com/maps/place/Del+Frate+Srl/data=!4m7!3m6!1s0x47806df0b9c0f7dd:0x1e5dcb70346a2b0b!8m2!3d44.8108795!4d10.3145985!16s%2Fg%2F119w9gdyl!19sChIJ3ffAufBtgEcRCytqNHDLXR4?authuser=0&hl=tr&rclk=1",
    "website_url": "https://delfrate.it/",
    "rating_text": "4,8",
    "stars": null,
    "number_of_reviews": null,
    "price_level": "",
    "open_hours": "",
    "extraction_timestamp": "2025-06-07T16:42:39.615Z",
    "source_name": "google",
    "source_query": "Irrigation Equipment",
    "source_country": "IT",
    "country": "Italy",
    "state": "Emilia-Romagna",
    "city": "Noceto"
  },
  {
    "source_id": "ChIJlZJBvdZngEcRSV1Q2IqLMS4",
    "name": "Campanini Elia",
    "category": "Campanini Elia",
    "formatted_address": "4,3(9)",
    "phone_number": "+390521625271",
    "source_url": "https://www.google.com/maps/place/Campanini+Elia/data=!4m7!3m6!1s0x478067d6bd419295:0x2e318b8ad8505d49!8m2!3d44.8096485!4d10.1791868!16s%2Fg%2F1tgbzm6t!19sChIJlZJBvdZngEcRSV1Q2IqLMS4?authuser=0&hl=tr&rclk=1",
    "website_url": "https://www.facebook.com/arredailtuobagno/",
    "rating_text": "4,3",
    "stars": null,
    "number_of_reviews": null,
    "price_level": "",
    "open_hours": "",
    "extraction_timestamp": "2025-06-07T16:42:39.616Z",
    "source_name": "google",
    "source_query": "Irrigation Equipment",
    "source_country": "IT",
    "country": "Italy",
    "state": "Emilia-Romagna",
    "city": "Noceto"
  },
  {
    "source_id": "ChIJJ6V6lMDgf0cR1SpFsfjDuHg",
    "name": "Ocmis Irrigazione Spa",
    "category": "Ocmis Irrigazione Spa",
    "formatted_address": "3,5(31)",
    "phone_number": "+39059702150",
    "source_url": "https://www.google.com/maps/place/Ocmis+Irrigazione+Spa/data=!4m7!3m6!1s0x477fe0c0947aa527:0x78b8c3f8b1452ad5!8m2!3d44.530494!4d10.9794578!16s%2Fg%2F1vd3tn19!19sChIJJ6V6lMDgf0cR1SpFsfjDuHg?authuser=0&hl=tr&rclk=1",
    "website_url": "http://www.ocmis-irrigazione.it/",
    "rating_text": "3,5",
    "stars": null,
    "number_of_reviews": null,
    "price_level": "",
    "open_hours": "",
    "extraction_timestamp": "2025-06-07T16:42:39.617Z",
    "source_name": "google",
    "source_query": "Irrigation Equipment",
    "source_country": "IT",
    "country": "Italy",
    "state": "Emilia-Romagna",
    "city": "Noceto"
  },
  {
    "source_id": "ChIJKwbFenpogEcRkGqT6EkrP_Q",
    "name": "Agri Garden Il Castoro Di Caberti Roberto",
    "category": "Agri Garden Il Castoro Di Caberti Roberto",
    "formatted_address": "4,5(48)",
    "phone_number": "+390521621262",
    "source_url": "https://www.google.com/maps/place/Agri+Garden+Il+Castoro+Di+Caberti+Roberto/data=!4m7!3m6!1s0x4780687a7ac5062b:0xf43f2b49e8936a90!8m2!3d44.8151757!4d10.1823337!16s%2Fg%2F1tj83q1m!19sChIJKwbFenpogEcRkGqT6EkrP_Q?authuser=0&hl=tr&rclk=1",
    "website_url": "http://www.agricastoro.it/",
    "rating_text": "4,5",
    "stars": null,
    "number_of_reviews": null,
    "price_level": "",
    "open_hours": "",
    "extraction_timestamp": "2025-06-07T16:42:39.619Z",
    "source_name": "google",
    "source_query": "Irrigation Equipment",
    "source_country": "IT",
    "country": "Italy",
    "state": "Emilia-Romagna",
    "city": "Noceto"
  },
  {
    "source_id": "ChIJ90762m6rgUcRrOpHkQtN0qE",
    "name": "ACQUAFERT",
    "category": "ACQUAFERT",
    "formatted_address": "4,8(13)",
    "phone_number": "+390372835672",
    "source_url": "https://www.google.com/maps/place/ACQUAFERT/data=!4m7!3m6!1s0x4781ab6edafa4ef7:0xa1d24d0b9147eaac!8m2!3d45.1695663!4d10.1916537!16s%2Fg%2F11c1ny5b5r!19sChIJ90762m6rgUcRrOpHkQtN0qE?authuser=0&hl=tr&rclk=1",
    "website_url": "https://www.acquafertagri.it/",
    "rating_text": "4,8",
    "stars": null,
    "number_of_reviews": null,
    "price_level": "",
    "open_hours": "",
    "extraction_timestamp": "2025-06-07T16:42:39.619Z",
    "source_name": "google",
    "source_query": "Irrigation Equipment",
    "source_country": "IT",
    "country": "Italy",
    "state": "Emilia-Romagna",
    "city": "Noceto"
  },
  {
    "source_id": "ChIJBVxZ-npogEcRYj_m4hJFw94",
    "name": "Coms Srl",
    "category": "Coms Srl",
    "formatted_address": "5,0(3)",
    "phone_number": "+390521628225",
    "source_url": "https://www.google.com/maps/place/Coms+Srl/data=!4m7!3m6!1s0x4780687afa595c05:0xdec34512e2e63f62!8m2!3d44.8151404!4d10.1832605!16s%2Fg%2F11btnj02_d!19sChIJBVxZ-npogEcRYj_m4hJFw94?authuser=0&hl=tr&rclk=1",
    "website_url": "http://www.comsnet.it/",
    "rating_text": "5,0",
    "stars": null,
    "number_of_reviews": null,
    "price_level": "",
    "open_hours": "",
    "extraction_timestamp": "2025-06-07T16:42:39.620Z",
    "source_name": "google",
    "source_query": "Irrigation Equipment",
    "source_country": "IT",
    "country": "Italy",
    "state": "Emilia-Romagna",
    "city": "Noceto"
  },
  {
    "source_id": "ChIJh3Nd8G0sfkcR_m7VewEmxXM",
    "name": "Irrigarden",
    "category": "Irrigarden",
    "formatted_address": "4,7(158)",
    "phone_number": "+39051782013",
    "source_url": "https://www.google.com/maps/place/Irrigarden/data=!4m7!3m6!1s0x477e2c6df05d7387:0x73c526017bd56efe!8m2!3d44.5096266!4d11.4390897!16s%2Fg%2F1vgw_l7w!19sChIJh3Nd8G0sfkcR_m7VewEmxXM?authuser=0&hl=tr&rclk=1",
    "website_url": "https://www.irrigarden-bo.it/",
    "rating_text": "4,7",
    "stars": null,
    "number_of_reviews": null,
    "price_level": "",
    "open_hours": "",
    "extraction_timestamp": "2025-06-07T16:42:39.621Z",
    "source_name": "google",
    "source_query": "Irrigation Equipment",
    "source_country": "IT",
    "country": "Italy",
    "state": "Emilia-Romagna",
    "city": "Noceto"
  },
  {
    "source_id": "ChIJXbhC79VngEcRpADKVKLJNPQ",
    "name": "La Termoidraulica Di Prospero Racioppo",
    "category": "La Termoidraulica Di Prospero Racioppo",
    "formatted_address": "4,3(4)",
    "phone_number": "+393385823175",
    "source_url": "https://www.google.com/maps/place/La+Termoidraulica+Di+Prospero+Racioppo/data=!4m7!3m6!1s0x478067d5ef42b85d:0xf434c9a254ca00a4!8m2!3d44.8120199!4d10.17186!16s%2Fg%2F1td1hvcr!19sChIJXbhC79VngEcRpADKVKLJNPQ?authuser=0&hl=tr&rclk=1",
    "website_url": "",
    "rating_text": "4,3",
    "stars": null,
    "number_of_reviews": null,
    "price_level": "",
    "open_hours": "",
    "extraction_timestamp": "2025-06-07T16:42:39.623Z",
    "source_name": "google",
    "source_query": "Irrigation Equipment",
    "source_country": "IT",
    "country": "Italy",
    "state": "Emilia-Romagna",
    "city": "Noceto"
  },
  {
    "source_id": "ChIJe0Hlb35ogEcRaLabc5BoOM4",
    "name": "BRICO ITALIANO",
    "category": "BRICO ITALIANO",
    "formatted_address": "4,3(37)",
    "phone_number": "+390521617358",
    "source_url": "https://www.google.com/maps/place/BRICO+ITALIANO/data=!4m7!3m6!1s0x4780687e6fe5417b:0xce386890739bb668!8m2!3d44.8094995!4d10.1754414!16s%2Fg%2F11b6j1ncgk!19sChIJe0Hlb35ogEcRaLabc5BoOM4?authuser=0&hl=tr&rclk=1",
    "website_url": "http://www.bricoitaliano.it/",
    "rating_text": "4,3",
    "stars": null,
    "number_of_reviews": null,
    "price_level": "",
    "open_hours": "",
    "extraction_timestamp": "2025-06-07T16:42:39.624Z",
    "source_name": "google",
    "source_query": "Irrigation Equipment",
    "source_country": "IT",
    "country": "Italy",
    "state": "Emilia-Romagna",
    "city": "Noceto"
  },
  {
    "source_id": "ChIJoWn3Mt1ugEcRuJFECy0B-Rs",
    "name": "Maini Giardinaggio",
    "category": "Maini Giardinaggio",
    "formatted_address": "",
    "phone_number": "+393466905853",
    "source_url": "https://www.google.com/maps/place/Maini+Giardinaggio/data=!4m7!3m6!1s0x47806edd32f769a1:0x1bf9012d0b4491b8!8m2!3d41.29085!4d12.71216!16s%2Fg%2F1tg6tkcp!19sChIJoWn3Mt1ugEcRuJFECy0B-Rs?authuser=0&hl=tr&rclk=1",
    "website_url": "",
    "rating_text": "",
    "stars": null,
    "number_of_reviews": null,
    "price_level": "",
    "open_hours": "",
    "extraction_timestamp": "2025-06-07T16:42:39.624Z",
    "source_name": "google",
    "source_query": "Irrigation Equipment",
    "source_country": "IT",
    "country": "Italy",
    "state": "Emilia-Romagna",
    "city": "Noceto"
  }
]
