[
  {
    "source_id": "ChIJcQG6ul7df0cR3VxKiu5OPBs",
    "name": "Scova Impianti Srl",
    "category": "Scova Impianti Srl",
    "formatted_address": "4,5(64)",
    "phone_number": "+39059923202",
    "source_url": "https://www.google.com/maps/place/Scova+Impianti+Srl/data=!4m7!3m6!1s0x477fdd5ebaba0171:0x1b3c4eee8a4a5cdd!8m2!3d44.6018135!4d11.032294!16s%2Fg%2F1tfzwbfb!19sChIJcQG6ul7df0cR3VxKiu5OPBs?authuser=0&hl=tr&rclk=1",
    "website_url": "https://www.scovaimpianti.com/",
    "rating_text": "4,5",
    "stars": null,
    "number_of_reviews": null,
    "price_level": "",
    "open_hours": "",
    "extraction_timestamp": "2025-06-07T16:17:31.236Z",
    "source_name": "google",
    "source_query": "Irrigation Equipment",
    "source_country": "IT",
    "country": "Italy",
    "state": "Emilia-Romagna",
    "city": "Nonantola"
  },
  {
    "source_id": "ChIJqYD9_kHpf0cRlrr6JcsplvQ",
    "name": "Cetia Srl| Progettazione, installazione e manutenzione di impianti termoidraulici| Modena| Nonantola",
    "category": "Cetia Srl| Progettazione, installazione e manutenzione di impianti termoidraulici| Modena| Nonantola",
    "formatted_address": "Cetia Srl| Progettazione, installazione e manutenzione di impianti termoidraulici| Modena| Nonantola",
    "phone_number": "+390598678119",
    "source_url": "https://www.google.com/maps/place/Cetia+Srl%7C+Progettazione,+installazione+e+manutenzione+di+impianti+termoidraulici%7C+Modena%7C+Nonantola/data=!4m7!3m6!1s0x477fe941fefd80a9:0xf49629cb25faba96!8m2!3d44.6785333!4d11.0322058!16s%2Fg%2F11gpj1gd92!19sChIJqYD9_kHpf0cRlrr6JcsplvQ?authuser=0&hl=tr&rclk=1",
    "website_url": "https://cetiasrl.it/",
    "rating_text": "4,5",
    "stars": null,
    "number_of_reviews": null,
    "price_level": "",
    "open_hours": "",
    "extraction_timestamp": "2025-06-07T16:17:31.236Z",
    "source_name": "google",
    "source_query": "Irrigation Equipment",
    "source_country": "IT",
    "country": "Italy",
    "state": "Emilia-Romagna",
    "city": "Nonantola"
  },
  {
    "source_id": "ChIJ81fmFJ7pf0cRUky6OeUozjk",
    "name": "Dell'Erba Srl",
    "category": "Dell'Erba Srl",
    "formatted_address": "4,5(11)",
    "phone_number": "+39059548432",
    "source_url": "https://www.google.com/maps/place/Dell%27Erba+Srl/data=!4m7!3m6!1s0x477fe99e14e657f3:0x39ce28e539ba4c52!8m2!3d44.6763725!4d11.0149354!16s%2Fg%2F1tl_kkmj!19sChIJ81fmFJ7pf0cRUky6OeUozjk?authuser=0&hl=tr&rclk=1",
    "website_url": "https://www.dellerba.com/",
    "rating_text": "4,5",
    "stars": null,
    "number_of_reviews": null,
    "price_level": "",
    "open_hours": "",
    "extraction_timestamp": "2025-06-07T16:17:31.238Z",
    "source_name": "google",
    "source_query": "Irrigation Equipment",
    "source_country": "IT",
    "country": "Italy",
    "state": "Emilia-Romagna",
    "city": "Nonantola"
  },
  {
    "source_id": "ChIJ00jdTdPof0cR6J8BMYJz2XA",
    "name": "Matra S.p.A.",
    "category": "Matra S.p.A.",
    "formatted_address": "3,7(26)",
    "phone_number": "+39059250407",
    "source_url": "https://www.google.com/maps/place/Matra+S.p.A./data=!4m7!3m6!1s0x477fe8d34ddd48d3:0x70d9738231019fe8!8m2!3d44.6798278!4d11.0262397!16s%2Fg%2F1tqydbl5!19sChIJ00jdTdPof0cR6J8BMYJz2XA?authuser=0&hl=tr&rclk=1",
    "website_url": "http://www.matra.it/",
    "rating_text": "3,7",
    "stars": null,
    "number_of_reviews": null,
    "price_level": "",
    "open_hours": "",
    "extraction_timestamp": "2025-06-07T16:17:31.240Z",
    "source_name": "google",
    "source_query": "Irrigation Equipment",
    "source_country": "IT",
    "country": "Italy",
    "state": "Emilia-Romagna",
    "city": "Nonantola"
  },
  {
    "source_id": "ChIJm2oy4JDpf0cRxJ0SD1Ir3mk",
    "name": "Idraulica Sighinolfi Albano",
    "category": "Idraulica Sighinolfi Albano",
    "formatted_address": "4,5(2)",
    "phone_number": "+39059549602",
    "source_url": "https://www.google.com/maps/place/Idraulica+Sighinolfi+Albano/data=!4m7!3m6!1s0x477fe990e0326a9b:0x69de2b520f129dc4!8m2!3d44.677051!4d11.024316!16s%2Fg%2F1tcwp_56!19sChIJm2oy4JDpf0cRxJ0SD1Ir3mk?authuser=0&hl=tr&rclk=1",
    "website_url": "http://www.sighinolfi.it/",
    "rating_text": "4,5",
    "stars": null,
    "number_of_reviews": null,
    "price_level": "",
    "open_hours": "",
    "extraction_timestamp": "2025-06-07T16:17:31.241Z",
    "source_name": "google",
    "source_query": "Irrigation Equipment",
    "source_country": "IT",
    "country": "Italy",
    "state": "Emilia-Romagna",
    "city": "Nonantola"
  },
  {
    "source_id": "ChIJpbk7X7bpf0cRbqbapCyBL0E",
    "name": "Uniimpianti",
    "category": "Uniimpianti",
    "formatted_address": "5,0(2)",
    "phone_number": "+39059547578",
    "source_url": "https://www.google.com/maps/place/Uniimpianti/data=!4m7!3m6!1s0x477fe9b65f3bb9a5:0x412f812ca4daa66e!8m2!3d44.6776069!4d11.0274899!16s%2Fg%2F11fj81j9dq!19sChIJpbk7X7bpf0cRbqbapCyBL0E?authuser=0&hl=tr&rclk=1",
    "website_url": "https://www.uniimpianti.it/",
    "rating_text": "5,0",
    "stars": null,
    "number_of_reviews": null,
    "price_level": "",
    "open_hours": "",
    "extraction_timestamp": "2025-06-07T16:17:31.243Z",
    "source_name": "google",
    "source_query": "Irrigation Equipment",
    "source_country": "IT",
    "country": "Italy",
    "state": "Emilia-Romagna",
    "city": "Nonantola"
  },
  {
    "source_id": "ChIJJ6V6lMDgf0cR1SpFsfjDuHg",
    "name": "Ocmis Irrigazione Spa",
    "category": "Ocmis Irrigazione Spa",
    "formatted_address": "3,5(31)",
    "phone_number": "+39059702150",
    "source_url": "https://www.google.com/maps/place/Ocmis+Irrigazione+Spa/data=!4m7!3m6!1s0x477fe0c0947aa527:0x78b8c3f8b1452ad5!8m2!3d44.530494!4d10.9794578!16s%2Fg%2F1vd3tn19!19sChIJJ6V6lMDgf0cR1SpFsfjDuHg?authuser=0&hl=tr&rclk=1",
    "website_url": "http://www.ocmis-irrigazione.it/",
    "rating_text": "3,5",
    "stars": null,
    "number_of_reviews": null,
    "price_level": "",
    "open_hours": "",
    "extraction_timestamp": "2025-06-07T16:17:31.244Z",
    "source_name": "google",
    "source_query": "Irrigation Equipment",
    "source_country": "IT",
    "country": "Italy",
    "state": "Emilia-Romagna",
    "city": "Nonantola"
  },
  {
    "source_id": "ChIJHQGz6dXof0cRPD2igQWHtxo",
    "name": "Hidrostar",
    "category": "Hidrostar",
    "formatted_address": "4,8(33)",
    "phone_number": "+39059251056",
    "source_url": "https://www.google.com/maps/place/Hidrostar/data=!4m7!3m6!1s0x477fe8d5e9b3011d:0x1ab7870581a23d3c!8m2!3d44.6584919!4d10.9641811!16s%2Fg%2F1tf9rp0c!19sChIJHQGz6dXof0cRPD2igQWHtxo?authuser=0&hl=tr&rclk=1",
    "website_url": "http://www.hidrostar.it/",
    "rating_text": "4,8",
    "stars": null,
    "number_of_reviews": null,
    "price_level": "",
    "open_hours": "",
    "extraction_timestamp": "2025-06-07T16:17:31.246Z",
    "source_name": "google",
    "source_query": "Irrigation Equipment",
    "source_country": "IT",
    "country": "Italy",
    "state": "Emilia-Romagna",
    "city": "Nonantola"
  },
  {
    "source_id": "ChIJ-aj8-Zvpf0cRFD-o2GFjfmI",
    "name": "Ferrari Technology Srl",
    "category": "Ferrari Technology Srl",
    "formatted_address": "5,0(11)",
    "phone_number": "+39059544475",
    "source_url": "https://www.google.com/maps/place/Ferrari+Technology+Srl/data=!4m7!3m6!1s0x477fe99bf9fca8f9:0x627e6361d8a83f14!8m2!3d44.6771173!4d11.0211852!16s%2Fg%2F1tk4p_m3!19sChIJ-aj8-Zvpf0cRFD-o2GFjfmI?authuser=0&hl=tr&rclk=1",
    "website_url": "http://www.ferraritechnology.com/",
    "rating_text": "5,0",
    "stars": null,
    "number_of_reviews": null,
    "price_level": "",
    "open_hours": "",
    "extraction_timestamp": "2025-06-07T16:17:31.247Z",
    "source_name": "google",
    "source_query": "Irrigation Equipment",
    "source_country": "IT",
    "country": "Italy",
    "state": "Emilia-Romagna",
    "city": "Nonantola"
  },
  {
    "source_id": "ChIJWQf-Uu7pf0cR-5oAluPCngE",
    "name": "Corradini Depuratori S.R.L.",
    "category": "Corradini Depuratori S.R.L.",
    "formatted_address": "5,0(1)",
    "phone_number": "+39059547984",
    "source_url": "https://www.google.com/maps/place/Corradini+Depuratori+S.R.L./data=!4m7!3m6!1s0x477fe9ee52fe0759:0x19ec2e396009afb!8m2!3d44.6768744!4d11.0461047!16s%2Fg%2F1hc5pmg8z!19sChIJWQf-Uu7pf0cR-5oAluPCngE?authuser=0&hl=tr&rclk=1",
    "website_url": "https://www.corradinidepuratori.it/",
    "rating_text": "5,0",
    "stars": null,
    "number_of_reviews": null,
    "price_level": "",
    "open_hours": "",
    "extraction_timestamp": "2025-06-07T16:17:31.248Z",
    "source_name": "google",
    "source_query": "Irrigation Equipment",
    "source_country": "IT",
    "country": "Italy",
    "state": "Emilia-Romagna",
    "city": "Nonantola"
  },
  {
    "source_id": "ChIJQbrhg-3pf0cREDkTNhabgtc",
    "name": "Ferramenta Bozzali",
    "category": "Ferramenta Bozzali",
    "formatted_address": "4,7(292)",
    "phone_number": "+39059549944",
    "source_url": "https://www.google.com/maps/place/Ferramenta+Bozzali/data=!4m7!3m6!1s0x477fe9ed83e1ba41:0xd7829b1636133910!8m2!3d44.6775722!4d11.0268747!16s%2Fg%2F1hc578sqp!19sChIJQbrhg-3pf0cREDkTNhabgtc?authuser=0&hl=tr&rclk=1",
    "website_url": "",
    "rating_text": "4,7",
    "stars": null,
    "number_of_reviews": null,
    "price_level": "",
    "open_hours": "",
    "extraction_timestamp": "2025-06-07T16:17:31.250Z",
    "source_name": "google",
    "source_query": "Irrigation Equipment",
    "source_country": "IT",
    "country": "Italy",
    "state": "Emilia-Romagna",
    "city": "Nonantola"
  },
  {
    "source_id": "ChIJ__W2mrpq5ScRMALwOgXhS4c",
    "name": "Italiana Impianti srl",
    "category": "Italiana Impianti srl",
    "formatted_address": "5,0(11)",
    "phone_number": "+393384446219",
    "source_url": "https://www.google.com/maps/place/Italiana+Impianti+srl/data=!4m7!3m6!1s0x27e56aba9ab6f5ff:0x874be1053af00230!8m2!3d41.29085!4d12.71216!16s%2Fg%2F11x19d9wpw!19sChIJ__W2mrpq5ScRMALwOgXhS4c?authuser=0&hl=tr&rclk=1",
    "website_url": "https://www.italianaimpianti.net/",
    "rating_text": "5,0",
    "stars": null,
    "number_of_reviews": null,
    "price_level": "",
    "open_hours": "",
    "extraction_timestamp": "2025-06-07T16:17:31.251Z",
    "source_name": "google",
    "source_query": "Irrigation Equipment",
    "source_country": "IT",
    "country": "Italy",
    "state": "Emilia-Romagna",
    "city": "Nonantola"
  },
  {
    "source_id": "ChIJPW01-Jnpf0cRu9oAf1piZkY",
    "name": "ETERNOO",
    "category": "ETERNOO",
    "formatted_address": "4,2(45)",
    "phone_number": "+39059544313",
    "source_url": "https://www.google.com/maps/place/ETERNOO/data=!4m7!3m6!1s0x477fe999f8356d3d:0x4666625a7f00dabb!8m2!3d44.6760571!4d11.02561!16s%2Fg%2F12hmtn_h_!19sChIJPW01-Jnpf0cRu9oAf1piZkY?authuser=0&hl=tr&rclk=1",
    "website_url": "http://www.eternoo.it/",
    "rating_text": "4,2",
    "stars": null,
    "number_of_reviews": null,
    "price_level": "",
    "open_hours": "",
    "extraction_timestamp": "2025-06-07T16:17:31.252Z",
    "source_name": "google",
    "source_query": "Irrigation Equipment",
    "source_country": "IT",
    "country": "Italy",
    "state": "Emilia-Romagna",
    "city": "Nonantola"
  },
  {
    "source_id": "ChIJz_dEHODnf0cRbo17tk9lHPw",
    "name": "Bianchi & Maestri Srl",
    "category": "Bianchi & Maestri Srl",
    "formatted_address": "4,6(9)",
    "phone_number": "+39059928589",
    "source_url": "https://www.google.com/maps/place/Bianchi+%26+Maestri+Srl/data=!4m7!3m6!1s0x477fe7e01c44f7cf:0xfc1c654fb67b8d6e!8m2!3d44.6512352!4d10.9620129!16s%2Fg%2F11b6hxdl4h!19sChIJz_dEHODnf0cRbo17tk9lHPw?authuser=0&hl=tr&rclk=1",
    "website_url": "http://www.bianchiemaestrisrl.it/",
    "rating_text": "4,6",
    "stars": null,
    "number_of_reviews": null,
    "price_level": "",
    "open_hours": "",
    "extraction_timestamp": "2025-06-07T16:17:31.253Z",
    "source_name": "google",
    "source_query": "Irrigation Equipment",
    "source_country": "IT",
    "country": "Italy",
    "state": "Emilia-Romagna",
    "city": "Nonantola"
  },
  {
    "source_id": "ChIJ0zX3euTpf0cRKwx_SYmtZn4",
    "name": "Brb Service",
    "category": "Brb Service",
    "formatted_address": "3,4(23)",
    "phone_number": "+39059548631",
    "source_url": "https://www.google.com/maps/place/Brb+Service/data=!4m7!3m6!1s0x477fe9e47af735d3:0x7e66ad89497f0c2b!8m2!3d44.6761607!4d11.0541371!16s%2Fg%2F1tgb664k!19sChIJ0zX3euTpf0cRKwx_SYmtZn4?authuser=0&hl=tr&rclk=1",
    "website_url": "",
    "rating_text": "3,4",
    "stars": null,
    "number_of_reviews": null,
    "price_level": "",
    "open_hours": "",
    "extraction_timestamp": "2025-06-07T16:17:31.254Z",
    "source_name": "google",
    "source_query": "Irrigation Equipment",
    "source_country": "IT",
    "country": "Italy",
    "state": "Emilia-Romagna",
    "city": "Nonantola"
  },
  {
    "source_id": "ChIJ4Ro0tZ7pf0cRWDBLZiKmuo4",
    "name": "Ferramenta 2000",
    "category": "Ferramenta 2000",
    "formatted_address": "4,5(132)",
    "phone_number": "+39059547645",
    "source_url": "https://www.google.com/maps/place/Ferramenta+2000/data=!4m7!3m6!1s0x477fe99eb5341ae1:0x8ebaa622664b3058!8m2!3d44.6764139!4d11.0192888!16s%2Fg%2F1tlbskwr!19sChIJ4Ro0tZ7pf0cRWDBLZiKmuo4?authuser=0&hl=tr&rclk=1",
    "website_url": "http://www.ferr2000.com/",
    "rating_text": "4,5",
    "stars": null,
    "number_of_reviews": null,
    "price_level": "",
    "open_hours": "",
    "extraction_timestamp": "2025-06-07T16:17:31.256Z",
    "source_name": "google",
    "source_query": "Irrigation Equipment",
    "source_country": "IT",
    "country": "Italy",
    "state": "Emilia-Romagna",
    "city": "Nonantola"
  },
  {
    "source_id": "ChIJ-Z_RHvbnf0cRry0jCm7Q5GQ",
    "name": "Scova Impianti",
    "category": "Scova Impianti",
    "formatted_address": "4,0(4)",
    "phone_number": "+39059925910",
    "source_url": "https://www.google.com/maps/place/Scova+Impianti/data=!4m7!3m6!1s0x477fe7f61ed19ff9:0x64e4d06e0a232daf!8m2!3d44.6018937!4d11.0315223!16s%2Fg%2F1td6wznv!19sChIJ-Z_RHvbnf0cRry0jCm7Q5GQ?authuser=0&hl=tr&rclk=1",
    "website_url": "https://scovaimpianti.com/",
    "rating_text": "4,0",
    "stars": null,
    "number_of_reviews": null,
    "price_level": "",
    "open_hours": "",
    "extraction_timestamp": "2025-06-07T16:17:31.257Z",
    "source_name": "google",
    "source_query": "Irrigation Equipment",
    "source_country": "IT",
    "country": "Italy",
    "state": "Emilia-Romagna",
    "city": "Nonantola"
  },
  {
    "source_id": "ChIJGVaSEU_mf0cRrgA6nN7cH8M",
    "name": "Maestri srl",
    "category": "Maestri srl",
    "formatted_address": "4,5(42)",
    "phone_number": "+393401111738",
    "source_url": "https://www.google.com/maps/place/Maestri+srl/data=!4m7!3m6!1s0x477fe64f11925619:0xc31fdcde9c3a00ae!8m2!3d44.5987781!4d10.9708138!16s%2Fg%2F11cn5m2cz2!19sChIJGVaSEU_mf0cRrgA6nN7cH8M?authuser=0&hl=tr&rclk=1",
    "website_url": "http://www.maestrisrl.it/",
    "rating_text": "4,5",
    "stars": null,
    "number_of_reviews": null,
    "price_level": "",
    "open_hours": "",
    "extraction_timestamp": "2025-06-07T16:17:31.258Z",
    "source_name": "google",
    "source_query": "Irrigation Equipment",
    "source_country": "IT",
    "country": "Italy",
    "state": "Emilia-Romagna",
    "city": "Nonantola"
  },
  {
    "source_id": "ChIJhT-kpAXff0cRKJQqKYwIulA",
    "name": "Irrigo",
    "category": "Irrigo",
    "formatted_address": "4,7(36)",
    "phone_number": "+393473096499",
    "source_url": "https://www.google.com/maps/place/Irrigo/data=!4m7!3m6!1s0x477fdf05a4a43f85:0x50ba088c292a9428!8m2!3d44.5018172!4d11.005272!16s%2Fg%2F11hdjcp5pk!19sChIJhT-kpAXff0cRKJQqKYwIulA?authuser=0&hl=tr&rclk=1",
    "website_url": "https://www.irrigovignola.it/",
    "rating_text": "4,7",
    "stars": null,
    "number_of_reviews": null,
    "price_level": "",
    "open_hours": "",
    "extraction_timestamp": "2025-06-07T16:17:31.259Z",
    "source_name": "google",
    "source_query": "Irrigation Equipment",
    "source_country": "IT",
    "country": "Italy",
    "state": "Emilia-Romagna",
    "city": "Nonantola"
  },
  {
    "source_id": "ChIJKbolVjnpf0cRiyR_Lfnmahs",
    "name": "CETIA impianti s.r.l.",
    "category": "CETIA impianti s.r.l.",
    "formatted_address": "5,0(3)",
    "phone_number": "+39059284898",
    "source_url": "https://www.google.com/maps/place/CETIA+impianti+s.r.l./data=!4m7!3m6!1s0x477fe9395625ba29:0x1b6ae6f92d7f248b!8m2!3d44.6405078!4d10.9706771!16s%2Fg%2F11hgsxpcn6!19sChIJKbolVjnpf0cRiyR_Lfnmahs?authuser=0&hl=tr&rclk=1",
    "website_url": "http://cetiaimpianti.com/",
    "rating_text": "5,0",
    "stars": null,
    "number_of_reviews": null,
    "price_level": "",
    "open_hours": "",
    "extraction_timestamp": "2025-06-07T16:17:31.260Z",
    "source_name": "google",
    "source_query": "Irrigation Equipment",
    "source_country": "IT",
    "country": "Italy",
    "state": "Emilia-Romagna",
    "city": "Nonantola"
  },
  {
    "source_id": "ChIJM1YDrdvQf0cR04ugW7FgB5o",
    "name": "Green Blue Italia srl",
    "category": "Green Blue Italia srl",
    "formatted_address": "4,7(17)",
    "phone_number": "+390510492100",
    "source_url": "https://www.google.com/maps/place/Green+Blue+Italia+srl/data=!4m7!3m6!1s0x477fd0dbad035633:0x9a0760b15ba08bd3!8m2!3d44.5324593!4d11.2320285!16s%2Fg%2F11gr3cvb1v!19sChIJM1YDrdvQf0cR04ugW7FgB5o?authuser=0&hl=tr&rclk=1",
    "website_url": "",
    "rating_text": "4,7",
    "stars": null,
    "number_of_reviews": null,
    "price_level": "",
    "open_hours": "",
    "extraction_timestamp": "2025-06-07T16:17:31.262Z",
    "source_name": "google",
    "source_query": "Irrigation Equipment",
    "source_country": "IT",
    "country": "Italy",
    "state": "Emilia-Romagna",
    "city": "Nonantola"
  },
  {
    "source_id": "ChIJqdtsqMTaf0cRFSqvzNBB5Tw",
    "name": "Ricchetti Irrigazione Snc Di Alberghini Paolo E C.",
    "category": "Ricchetti Irrigazione Snc Di Alberghini Paolo E C.",
    "formatted_address": "4,9(31)",
    "phone_number": "+39051950115",
    "source_url": "https://www.google.com/maps/place/Ricchetti+Irrigazione+Snc+Di+Alberghini+Paolo+E+C./data=!4m7!3m6!1s0x477fdac4a86cdba9:0x3ce541d0ccaf2a15!8m2!3d44.5883369!4d11.1803569!16s%2Fg%2F1vfn5hgh!19sChIJqdtsqMTaf0cRFSqvzNBB5Tw?authuser=0&hl=tr&rclk=1",
    "website_url": "http://www.ricchetti-irrigatori.it/",
    "rating_text": "4,9",
    "stars": null,
    "number_of_reviews": null,
    "price_level": "",
    "open_hours": "",
    "extraction_timestamp": "2025-06-07T16:17:31.264Z",
    "source_name": "google",
    "source_query": "Irrigation Equipment",
    "source_country": "IT",
    "country": "Italy",
    "state": "Emilia-Romagna",
    "city": "Nonantola"
  },
  {
    "source_id": "ChIJtbN9A-8rgEcRVZtaRSESNOU",
    "name": "Perazzi Irrigatori",
    "category": "Perazzi Irrigatori",
    "formatted_address": "5,0(1)",
    "phone_number": "+390376535952",
    "source_url": "https://www.google.com/maps/place/Perazzi+Irrigatori/data=!4m7!3m6!1s0x47802bef037db3b5:0xe5341221455a9b55!8m2!3d44.9841775!4d10.7699573!16s%2Fg%2F1vd74s01!19sChIJtbN9A-8rgEcRVZtaRSESNOU?authuser=0&hl=tr&rclk=1",
    "website_url": "http://www.gedanken-italia.com/",
    "rating_text": "5,0",
    "stars": null,
    "number_of_reviews": null,
    "price_level": "",
    "open_hours": "",
    "extraction_timestamp": "2025-06-07T16:17:31.265Z",
    "source_name": "google",
    "source_query": "Irrigation Equipment",
    "source_country": "IT",
    "country": "Italy",
    "state": "Emilia-Romagna",
    "city": "Nonantola"
  },
  {
    "source_id": "ChIJLZo0Lbfof0cRw147ZKWAof0",
    "name": "Idraulica Emiliana S.p.A.",
    "category": "Idraulica Emiliana S.p.A.",
    "formatted_address": "4,2(25)",
    "phone_number": "+39059281590",
    "source_url": "https://www.google.com/maps/place/Idraulica+Emiliana+S.p.A./data=!4m7!3m6!1s0x477fe8b72d349a2d:0xfda180a5643b5ec3!8m2!3d44.6361288!4d10.9602628!16s%2Fg%2F11c575qsr1!19sChIJLZo0Lbfof0cRw147ZKWAof0?authuser=0&hl=tr&rclk=1",
    "website_url": "http://www.idraulicaemiliana.com/",
    "rating_text": "4,2",
    "stars": null,
    "number_of_reviews": null,
    "price_level": "",
    "open_hours": "",
    "extraction_timestamp": "2025-06-07T16:17:31.266Z",
    "source_name": "google",
    "source_query": "Irrigation Equipment",
    "source_country": "IT",
    "country": "Italy",
    "state": "Emilia-Romagna",
    "city": "Nonantola"
  },
  {
    "source_id": "ChIJg-OOmnrvf0cR9_nMO65afdo",
    "name": "Bertani S.p.a. - Magazzino di Modena",
    "category": "Bertani S.p.a. - Magazzino di Modena",
    "formatted_address": "4,2(18)",
    "phone_number": "+39059332561",
    "source_url": "https://www.google.com/maps/place/Bertani+S.p.a.+-+Magazzino+di+Modena/data=!4m7!3m6!1s0x477fef7a9a8ee383:0xda7d5aae3bccf9f7!8m2!3d44.650081!4d10.8922866!16s%2Fg%2F11h3rx7zy2!19sChIJg-OOmnrvf0cR9_nMO65afdo?authuser=0&hl=tr&rclk=1",
    "website_url": "https://www.bertani.it/it_IT/punti-vendita/magazzino-modena",
    "rating_text": "4,2",
    "stars": null,
    "number_of_reviews": null,
    "price_level": "",
    "open_hours": "",
    "extraction_timestamp": "2025-06-07T16:17:31.267Z",
    "source_name": "google",
    "source_query": "Irrigation Equipment",
    "source_country": "IT",
    "country": "Italy",
    "state": "Emilia-Romagna",
    "city": "Nonantola"
  },
  {
    "source_id": "ChIJa8flob_wf0cRa7XVBodnL2I",
    "name": "Arag Srl",
    "category": "Arag Srl",
    "formatted_address": "4,6(141)",
    "phone_number": "+390522622011",
    "source_url": "https://www.google.com/maps/place/Arag+Srl/data=!4m7!3m6!1s0x477ff0bfa1e5c76b:0x622f678706d5b56b!8m2!3d44.6556162!4d10.7922409!16s%2Fg%2F1tdnd2vb!19sChIJa8flob_wf0cRa7XVBodnL2I?authuser=0&hl=tr&rclk=1",
    "website_url": "http://www.aragnet.com/",
    "rating_text": "4,6",
    "stars": null,
    "number_of_reviews": null,
    "price_level": "",
    "open_hours": "",
    "extraction_timestamp": "2025-06-07T16:17:31.269Z",
    "source_name": "google",
    "source_query": "Irrigation Equipment",
    "source_country": "IT",
    "country": "Italy",
    "state": "Emilia-Romagna",
    "city": "Nonantola"
  },
  {
    "source_id": "ChIJc_FRC6Ltf0cRdOFGl6sEcxM",
    "name": "Emmebi Agrotecnica",
    "category": "Emmebi Agrotecnica",
    "formatted_address": "4,5(123)",
    "phone_number": "+39059566838",
    "source_url": "https://www.google.com/maps/place/Emmebi+Agrotecnica/data=!4m7!3m6!1s0x477feda20b51f173:0x137304ab9746e174!8m2!3d44.7330703!4d10.9184999!16s%2Fg%2F1q62bql9t!19sChIJc_FRC6Ltf0cRdOFGl6sEcxM?authuser=0&hl=tr&rclk=1",
    "website_url": "https://www.gogoverde.it/",
    "rating_text": "4,5",
    "stars": null,
    "number_of_reviews": null,
    "price_level": "",
    "open_hours": "",
    "extraction_timestamp": "2025-06-07T16:17:31.270Z",
    "source_name": "google",
    "source_query": "Irrigation Equipment",
    "source_country": "IT",
    "country": "Italy",
    "state": "Emilia-Romagna",
    "city": "Nonantola"
  },
  {
    "source_id": "ChIJi_RpPBfmf0cRvUkcd1LG8CU",
    "name": "Emiltecnica S.r.l",
    "category": "Emiltecnica S.r.l",
    "formatted_address": "4,4(35)",
    "phone_number": "+39059282640",
    "source_url": "https://www.google.com/maps/place/Emiltecnica+S.r.l/data=!4m7!3m6!1s0x477fe6173c69f48b:0x25f0c652771c49bd!8m2!3d44.6107292!4d10.9571313!16s%2Fg%2F1tfc5g6g!19sChIJi_RpPBfmf0cRvUkcd1LG8CU?authuser=0&hl=tr&rclk=1",
    "website_url": "http://www.emiltecnica.com/",
    "rating_text": "4,4",
    "stars": null,
    "number_of_reviews": null,
    "price_level": "",
    "open_hours": "",
    "extraction_timestamp": "2025-06-07T16:17:31.271Z",
    "source_name": "google",
    "source_query": "Irrigation Equipment",
    "source_country": "IT",
    "country": "Italy",
    "state": "Emilia-Romagna",
    "city": "Nonantola"
  },
  {
    "source_id": "ChIJzWyZEf8dgEcRM0sVtbJE3TI",
    "name": "Impiantistica LAVONE",
    "category": "Impiantistica LAVONE",
    "formatted_address": "5,0(3)",
    "phone_number": "+393514759408",
    "source_url": "https://www.google.com/maps/place/Impiantistica+LAVONE/data=!4m7!3m6!1s0x47801dff11996ccd:0x32dd44b2b5154b33!8m2!3d44.7120611!4d10.6241549!16s%2Fg%2F11lp1gdrnd!19sChIJzWyZEf8dgEcRM0sVtbJE3TI?authuser=0&hl=tr&rclk=1",
    "website_url": "",
    "rating_text": "5,0",
    "stars": null,
    "number_of_reviews": null,
    "price_level": "",
    "open_hours": "",
    "extraction_timestamp": "2025-06-07T16:17:31.272Z",
    "source_name": "google",
    "source_query": "Irrigation Equipment",
    "source_country": "IT",
    "country": "Italy",
    "state": "Emilia-Romagna",
    "city": "Nonantola"
  },
  {
    "source_id": "ChIJb-HKI5jof0cRDyyKqVUI0VA",
    "name": "UNICOM Modena (Banco vendita)",
    "category": "UNICOM Modena (Banco vendita)",
    "formatted_address": "4,3(140)",
    "phone_number": "+39059284871",
    "source_url": "https://www.google.com/maps/place/UNICOM+Modena+%28Banco+vendita%29/data=!4m7!3m6!1s0x477fe89823cae16f:0x50d10855a98a2c0f!8m2!3d44.6293781!4d10.9733717!16s%2Fg%2F1tdj_fsy!19sChIJb-HKI5jof0cRDyyKqVUI0VA?authuser=0&hl=tr&rclk=1",
    "website_url": "https://www.unicom.it/?utm_campaign=gmb-listing&utm_medium=organic&utm_source=google&utm_term=modena",
    "rating_text": "4,3",
    "stars": null,
    "number_of_reviews": null,
    "price_level": "",
    "open_hours": "",
    "extraction_timestamp": "2025-06-07T16:17:31.273Z",
    "source_name": "google",
    "source_query": "Irrigation Equipment",
    "source_country": "IT",
    "country": "Italy",
    "state": "Emilia-Romagna",
    "city": "Nonantola"
  }
]
