[
  {
    "source_id": "ChIJf-q8rN6RLBMRo4AKILq1RFw",
    "name": "Nova Garden",
    "category": "Nova Garden",
    "formatted_address": "5,0(11)",
    "phone_number": "+393203723086",
    "source_url": "https://www.google.com/maps/place/Nova+Garden/data=!4m7!3m6!1s0x132c91deacbcea7f:0x5c44b5ba200a80a3!8m2!3d43.8882879!4d12.2875765!16s%2Fg%2F11snqvnt7d!19sChIJf-q8rN6RLBMRo4AKILq1RFw?authuser=0&hl=tr&rclk=1",
    "website_url": "",
    "rating_text": "5,0",
    "stars": null,
    "number_of_reviews": null,
    "price_level": "",
    "open_hours": "",
    "extraction_timestamp": "2025-06-07T15:43:25.930Z",
    "source_name": "google",
    "source_query": "Irrigation Equipment",
    "source_country": "IT",
    "country": "Italy",
    "state": "Emilia-Romagna",
    "city": "Novafeltria"
  },
  {
    "source_id": "ChIJ38uxeTqQLBMRYwo2X7TKxYc",
    "name": "Agr.In.Ar. Market",
    "category": "Agr.In.Ar. Market",
    "formatted_address": "4,8(104)",
    "phone_number": "+390541921841",
    "source_url": "https://www.google.com/maps/place/Agr.In.Ar.+Market/data=!4m7!3m6!1s0x132c903a79b1cbdf:0x87c5cab45f360a63!8m2!3d43.8988546!4d12.2889024!16s%2Fg%2F1vpgzy75!19sChIJ38uxeTqQLBMRYwo2X7TKxYc?authuser=0&hl=tr&rclk=1",
    "website_url": "",
    "rating_text": "4,8",
    "stars": null,
    "number_of_reviews": null,
    "price_level": "",
    "open_hours": "",
    "extraction_timestamp": "2025-06-07T15:43:25.931Z",
    "source_name": "google",
    "source_query": "Irrigation Equipment",
    "source_country": "IT",
    "country": "Italy",
    "state": "Emilia-Romagna",
    "city": "Novafeltria"
  },
  {
    "source_id": "ChIJvcl8uzqQLBMRSj_hM-N64qo",
    "name": "Ferramenta Montefeltro",
    "category": "Ferramenta Montefeltro",
    "formatted_address": "4,4(120)",
    "phone_number": "+390541920126",
    "source_url": "https://www.google.com/maps/place/Ferramenta+Montefeltro/data=!4m7!3m6!1s0x132c903abb7cc9bd:0xaae27ae333e13f4a!8m2!3d43.8974443!4d12.2887065!16s%2Fg%2F1tgkqlqy!19sChIJvcl8uzqQLBMRSj_hM-N64qo?authuser=0&hl=tr&rclk=1",
    "website_url": "",
    "rating_text": "4,4",
    "stars": null,
    "number_of_reviews": null,
    "price_level": "",
    "open_hours": "",
    "extraction_timestamp": "2025-06-07T15:43:25.932Z",
    "source_name": "google",
    "source_query": "Irrigation Equipment",
    "source_country": "IT",
    "country": "Italy",
    "state": "Emilia-Romagna",
    "city": "Novafeltria"
  },
  {
    "source_id": "ChIJ9X_DI6LDLBMR84MeChQNUCU",
    "name": "Irriverde - Il Paesaggio S.r.l.",
    "category": "Irriverde - Il Paesaggio S.r.l.",
    "formatted_address": "4,8(15)",
    "phone_number": "+393939275801",
    "source_url": "https://www.google.com/maps/place/Irriverde+-+Il+Paesaggio+S.r.l./data=!4m7!3m6!1s0x132cc3a223c37ff5:0x25500d140a1e83f3!8m2!3d43.982224!4d12.5281091!16s%2Fg%2F1ptz65rjr!19sChIJ9X_DI6LDLBMR84MeChQNUCU?authuser=0&hl=tr&rclk=1",
    "website_url": "",
    "rating_text": "4,8",
    "stars": null,
    "number_of_reviews": null,
    "price_level": "",
    "open_hours": "",
    "extraction_timestamp": "2025-06-07T15:43:25.933Z",
    "source_name": "google",
    "source_query": "Irrigation Equipment",
    "source_country": "IT",
    "country": "Italy",
    "state": "Emilia-Romagna",
    "city": "Novafeltria"
  },
  {
    "source_id": "ChIJy4AVn9C-LBMRn6nsnuZl82A",
    "name": "Ramilli Irrigazioni S.R.L.",
    "category": "Ramilli Irrigazioni S.R.L.",
    "formatted_address": "4,3(52)",
    "phone_number": "+390541945335",
    "source_url": "https://www.google.com/maps/place/Ramilli+Irrigazioni+S.R.L./data=!4m7!3m6!1s0x132cbed09f1580cb:0x60f365e69eeca99f!8m2!3d44.0923156!4d12.3843691!16s%2Fg%2F1ts2ls1r!19sChIJy4AVn9C-LBMRn6nsnuZl82A?authuser=0&hl=tr&rclk=1",
    "website_url": "",
    "rating_text": "4,3",
    "stars": null,
    "number_of_reviews": null,
    "price_level": "",
    "open_hours": "",
    "extraction_timestamp": "2025-06-07T15:43:25.934Z",
    "source_name": "google",
    "source_query": "Irrigation Equipment",
    "source_country": "IT",
    "country": "Italy",
    "state": "Emilia-Romagna",
    "city": "Novafeltria"
  },
  {
    "source_id": "ChIJOy1Wt0SRLBMRn4jhgnI_KE8",
    "name": "PiùMe Novafeltria",
    "category": "PiùMe Novafeltria",
    "formatted_address": "3,6(15)",
    "phone_number": "+390541207585",
    "source_url": "https://www.google.com/maps/place/Pi%C3%B9Me+Novafeltria/data=!4m7!3m6!1s0x132c9144b7562d3b:0x4f283f7282e1889f!8m2!3d43.8933613!4d12.29016!16s%2Fg%2F11smw0772g!19sChIJOy1Wt0SRLBMRn4jhgnI_KE8?authuser=0&hl=tr&rclk=1",
    "website_url": "",
    "rating_text": "3,6",
    "stars": null,
    "number_of_reviews": null,
    "price_level": "",
    "open_hours": "",
    "extraction_timestamp": "2025-06-07T15:43:25.935Z",
    "source_name": "google",
    "source_query": "Irrigation Equipment",
    "source_country": "IT",
    "country": "Italy",
    "state": "Emilia-Romagna",
    "city": "Novafeltria"
  },
  {
    "source_id": "ChIJeVi_2TWQLBMRlj1AbNGYo3g",
    "name": "Ferramenta Metro Di Sartini Luca & C. Snc",
    "category": "Ferramenta Metro Di Sartini Luca & C. Snc",
    "formatted_address": "4,7(188)",
    "phone_number": "+390541922045",
    "source_url": "https://www.google.com/maps/place/Ferramenta+Metro+Di+Sartini+Luca+%26+C.+Snc/data=!4m7!3m6!1s0x132c9035d9bf5879:0x78a398d16c403d96!8m2!3d43.9004034!4d12.2925713!16s%2Fg%2F1tdpjb0b!19sChIJeVi_2TWQLBMRlj1AbNGYo3g?authuser=0&hl=tr&rclk=1",
    "website_url": "",
    "rating_text": "4,7",
    "stars": null,
    "number_of_reviews": null,
    "price_level": "",
    "open_hours": "",
    "extraction_timestamp": "2025-06-07T15:43:25.936Z",
    "source_name": "google",
    "source_query": "Irrigation Equipment",
    "source_country": "IT",
    "country": "Italy",
    "state": "Emilia-Romagna",
    "city": "Novafeltria"
  },
  {
    "source_id": "ChIJhXan1DaQLBMRIWQD4KLRY8U",
    "name": "Gabrielli Gianluigi E Marino Snc",
    "category": "Gabrielli Gianluigi E Marino Snc",
    "formatted_address": "5,0(6)",
    "phone_number": "+390541920518",
    "source_url": "https://www.google.com/maps/place/Gabrielli+Gianluigi+E+Marino+Snc/data=!4m7!3m6!1s0x132c9036d4a77685:0xc563d1a2e0036421!8m2!3d43.900022!4d12.2925884!16s%2Fg%2F1ttl0__y!19sChIJhXan1DaQLBMRIWQD4KLRY8U?authuser=0&hl=tr&rclk=1",
    "website_url": "",
    "rating_text": "5,0",
    "stars": null,
    "number_of_reviews": null,
    "price_level": "",
    "open_hours": "",
    "extraction_timestamp": "2025-06-07T15:43:25.937Z",
    "source_name": "google",
    "source_query": "Irrigation Equipment",
    "source_country": "IT",
    "country": "Italy",
    "state": "Emilia-Romagna",
    "city": "Novafeltria"
  },
  {
    "source_id": "ChIJTf8ozrWRLBMRseegl3QPpvQ",
    "name": "Nova Store",
    "category": "Nova Store",
    "formatted_address": "4,2(66)",
    "phone_number": "+390541783245",
    "source_url": "https://www.google.com/maps/place/Nova+Store/data=!4m7!3m6!1s0x132c91b5ce28ff4d:0xf4a60f7497a0e7b1!8m2!3d43.9003631!4d12.2915966!16s%2Fg%2F11j1t0108k!19sChIJTf8ozrWRLBMRseegl3QPpvQ?authuser=0&hl=tr&rclk=1",
    "website_url": "",
    "rating_text": "4,2",
    "stars": null,
    "number_of_reviews": null,
    "price_level": "",
    "open_hours": "",
    "extraction_timestamp": "2025-06-07T15:43:25.938Z",
    "source_name": "google",
    "source_query": "Irrigation Equipment",
    "source_country": "IT",
    "country": "Italy",
    "state": "Emilia-Romagna",
    "city": "Novafeltria"
  },
  {
    "source_id": "ChIJ1xYfYTK7LBMRH8fF3soqxIc",
    "name": "Caselli Mirco",
    "category": "Caselli Mirco",
    "formatted_address": "4,7(75)",
    "phone_number": "+390547645010",
    "source_url": "https://www.google.com/maps/place/Caselli+Mirco/data=!4m7!3m6!1s0x132cbb32611f16d7:0x87c42acadec5c71f!8m2!3d44.1180337!4d12.306261!16s%2Fg%2F1hc61vjd1!19sChIJ1xYfYTK7LBMRH8fF3soqxIc?authuser=0&hl=tr&rclk=1",
    "website_url": "",
    "rating_text": "4,7",
    "stars": null,
    "number_of_reviews": null,
    "price_level": "",
    "open_hours": "",
    "extraction_timestamp": "2025-06-07T15:43:25.939Z",
    "source_name": "google",
    "source_query": "Irrigation Equipment",
    "source_country": "IT",
    "country": "Italy",
    "state": "Emilia-Romagna",
    "city": "Novafeltria"
  },
  {
    "source_id": "ChIJX6xj3S-QLBMRyohuk_gX86E",
    "name": "La Ferramenta Di Sebastiani Riccardo",
    "category": "La Ferramenta Di Sebastiani Riccardo",
    "formatted_address": "5,0(1)",
    "phone_number": "+390541920897",
    "source_url": "https://www.google.com/maps/place/La+Ferramenta+Di+Sebastiani+Riccardo/data=!4m7!3m6!1s0x132c902fdd63ac5f:0xa1f317f8936e88ca!8m2!3d43.8949415!4d12.2907675!16s%2Fg%2F1hc2fx5zd!19sChIJX6xj3S-QLBMRyohuk_gX86E?authuser=0&hl=tr&rclk=1",
    "website_url": "",
    "rating_text": "5,0",
    "stars": null,
    "number_of_reviews": null,
    "price_level": "",
    "open_hours": "",
    "extraction_timestamp": "2025-06-07T15:43:25.940Z",
    "source_name": "google",
    "source_query": "Irrigation Equipment",
    "source_country": "IT",
    "country": "Italy",
    "state": "Emilia-Romagna",
    "city": "Novafeltria"
  },
  {
    "source_id": "ChIJ85cgpku6LBMRfX081ZX-wQQ",
    "name": "Idroget Atomizzatori Di Bianchi Carlo E C. (S.N.C.)",
    "category": "Idroget Atomizzatori Di Bianchi Carlo E C. (S.N.C.)",
    "formatted_address": "4,7(10)",
    "phone_number": "+390547300163",
    "source_url": "https://www.google.com/maps/place/Idroget+Atomizzatori+Di+Bianchi+Carlo+E+C.+%28S.N.C.%29/data=!4m7!3m6!1s0x132cba4ba62097f3:0x4c1fe95d53c7d7d!8m2!3d44.1418046!4d12.3078685!16s%2Fg%2F11b6j8p8p3!19sChIJ85cgpku6LBMRfX081ZX-wQQ?authuser=0&hl=tr&rclk=1",
    "website_url": "",
    "rating_text": "4,7",
    "stars": null,
    "number_of_reviews": null,
    "price_level": "",
    "open_hours": "",
    "extraction_timestamp": "2025-06-07T15:43:25.941Z",
    "source_name": "google",
    "source_query": "Irrigation Equipment",
    "source_country": "IT",
    "country": "Italy",
    "state": "Emilia-Romagna",
    "city": "Novafeltria"
  },
  {
    "source_id": "ChIJ-ZYke-VfLBMRSl_s0b4UacM",
    "name": "Valducci Web S.r.l.",
    "category": "Valducci Web S.r.l.",
    "formatted_address": "5,0(1)",
    "phone_number": "+393371267358",
    "source_url": "https://www.google.com/maps/place/Valducci+Web+S.r.l./data=!4m7!3m6!1s0x132c5fe57b2496f9:0xc36914bed1ec5f4a!8m2!3d43.6598005!4d12.5231511!16s%2Fg%2F11f66g3g7d!19sChIJ-ZYke-VfLBMRSl_s0b4UacM?authuser=0&hl=tr&rclk=1",
    "website_url": "",
    "rating_text": "5,0",
    "stars": null,
    "number_of_reviews": null,
    "price_level": "",
    "open_hours": "",
    "extraction_timestamp": "2025-06-07T15:43:25.942Z",
    "source_name": "google",
    "source_query": "Irrigation Equipment",
    "source_country": "IT",
    "country": "Italy",
    "state": "Emilia-Romagna",
    "city": "Novafeltria"
  }
]
