[
  {
    "source_id": "ChIJ295NtF4ggEcRloixKLlMDiA",
    "name": "SAG Tubi S.p.a.",
    "category": "SAG Tubi S.p.a.",
    "formatted_address": "4,6(15)",
    "phone_number": "+390522654407",
    "source_url": "https://www.google.com/maps/place/SAG+Tubi+S.p.a./data=!4m7!3m6!1s0x4780205eb44ddedb:0x200e4cb928b18896!8m2!3d44.8285792!4d10.711402!16s%2Fg%2F1v96kn3m!19sChIJ295NtF4ggEcRloixKLlMDiA?authuser=0&hl=tr&rclk=1",
    "website_url": "https://sagtubi.com/it/",
    "rating_text": "4,6",
    "stars": null,
    "number_of_reviews": null,
    "price_level": "",
    "open_hours": "",
    "extraction_timestamp": "2025-06-07T15:54:29.809Z",
    "source_name": "google",
    "source_query": "Irrigation Equipment",
    "source_country": "IT",
    "country": "Italy",
    "state": "Emilia-Romagna",
    "city": "Novellara"
  },
  {
    "source_id": "ChIJi24mSbsggEcRb26xfRLERzM",
    "name": "Garden Store",
    "category": "Garden Store",
    "formatted_address": "4,5(73)",
    "phone_number": "+393351499648",
    "source_url": "https://www.google.com/maps/place/Garden+Store/data=!4m7!3m6!1s0x478020bb49266e8b:0x3347c4127db16e6f!8m2!3d44.8472938!4d10.7413978!16s%2Fg%2F119x3dp7l!19sChIJi24mSbsggEcRb26xfRLERzM?authuser=0&hl=tr&rclk=1",
    "website_url": "http://www.gardenstoresrl.it/",
    "rating_text": "4,5",
    "stars": null,
    "number_of_reviews": null,
    "price_level": "",
    "open_hours": "",
    "extraction_timestamp": "2025-06-07T15:54:29.811Z",
    "source_name": "google",
    "source_query": "Irrigation Equipment",
    "source_country": "IT",
    "country": "Italy",
    "state": "Emilia-Romagna",
    "city": "Novellara"
  },
  {
    "source_id": "ChIJnXLId6ohgEcRwrVrLeDRY6c",
    "name": "Installatore Immergas GRUPPO VALENTE NOVELLARA - Punto EDISON Business Partner",
    "category": "Installatore Immergas GRUPPO VALENTE NOVELLARA - Punto EDISON Business Partner",
    "formatted_address": "5,0(1)",
    "phone_number": "+393534268341",
    "source_url": "https://www.google.com/maps/place/Installatore+Immergas+GRUPPO+VALENTE+NOVELLARA+-+Punto+EDISON+Business+Partner/data=!4m7!3m6!1s0x478021aa77c8729d:0xa763d1e02d6bb5c2!8m2!3d44.8463399!4d10.7242874!16s%2Fg%2F11vzsggc5z!19sChIJnXLId6ohgEcRwrVrLeDRY6c?authuser=0&hl=tr&rclk=1",
    "website_url": "https://gruppovalenteimpianti.it/",
    "rating_text": "5,0",
    "stars": null,
    "number_of_reviews": null,
    "price_level": "",
    "open_hours": "",
    "extraction_timestamp": "2025-06-07T15:54:29.812Z",
    "source_name": "google",
    "source_query": "Irrigation Equipment",
    "source_country": "IT",
    "country": "Italy",
    "state": "Emilia-Romagna",
    "city": "Novellara"
  },
  {
    "source_id": "ChIJ8_wyzvMggEcRnpx9iKglzNQ",
    "name": "Slanzi Oleodinamica Srl",
    "category": "Slanzi Oleodinamica Srl",
    "formatted_address": "5,0(4)",
    "phone_number": "+390522651298",
    "source_url": "https://www.google.com/maps/place/Slanzi+Oleodinamica+Srl/data=!4m7!3m6!1s0x478020f3ce32fcf3:0xd4cc25a8887d9c9e!8m2!3d44.8392601!4d10.7175197!16s%2Fg%2F1tmz5svt!19sChIJ8_wyzvMggEcRnpx9iKglzNQ?authuser=0&hl=tr&rclk=1",
    "website_url": "https://www.slanzi.it/",
    "rating_text": "5,0",
    "stars": null,
    "number_of_reviews": null,
    "price_level": "",
    "open_hours": "",
    "extraction_timestamp": "2025-06-07T15:54:29.814Z",
    "source_name": "google",
    "source_query": "Irrigation Equipment",
    "source_country": "IT",
    "country": "Italy",
    "state": "Emilia-Romagna",
    "city": "Novellara"
  },
  {
    "source_id": "ChIJ3f5iSbsggEcR6hOm9t4wtbU",
    "name": "Agrigarden",
    "category": "Agrigarden",
    "formatted_address": "2,5(2)",
    "phone_number": "+390522654629",
    "source_url": "https://www.google.com/maps/place/Agrigarden/data=!4m7!3m6!1s0x478020bb4962fedd:0xb5b530def6a613ea!8m2!3d44.8551501!4d10.7394301!16s%2Fg%2F1tczp6bx!19sChIJ3f5iSbsggEcR6hOm9t4wtbU?authuser=0&hl=tr&rclk=1",
    "website_url": "",
    "rating_text": "2,5",
    "stars": null,
    "number_of_reviews": null,
    "price_level": "",
    "open_hours": "",
    "extraction_timestamp": "2025-06-07T15:54:29.815Z",
    "source_name": "google",
    "source_query": "Irrigation Equipment",
    "source_country": "IT",
    "country": "Italy",
    "state": "Emilia-Romagna",
    "city": "Novellara"
  },
  {
    "source_id": "ChIJ27jQCJoggEcRZknblt5mZ9g",
    "name": "Sain Termosanitari S.R.L.",
    "category": "Sain Termosanitari S.R.L.",
    "formatted_address": "4,5(51)",
    "phone_number": "+390522662733",
    "source_url": "https://www.google.com/maps/place/Sain+Termosanitari+S.R.L./data=!4m7!3m6!1s0x4780209a08d0b8db:0xd86766de96db4966!8m2!3d44.8440208!4d10.7358922!16s%2Fg%2F1tftvtjm!19sChIJ27jQCJoggEcRZknblt5mZ9g?authuser=0&hl=tr&rclk=1",
    "website_url": "",
    "rating_text": "4,5",
    "stars": null,
    "number_of_reviews": null,
    "price_level": "",
    "open_hours": "",
    "extraction_timestamp": "2025-06-07T15:54:29.816Z",
    "source_name": "google",
    "source_query": "Irrigation Equipment",
    "source_country": "IT",
    "country": "Italy",
    "state": "Emilia-Romagna",
    "city": "Novellara"
  },
  {
    "source_id": "ChIJ69PdR1EvgEcRzaszzDo7sjQ",
    "name": "Nodolini s.n.c.",
    "category": "Nodolini s.n.c.",
    "formatted_address": "5,0(8)",
    "phone_number": "+390522977491",
    "source_url": "https://www.google.com/maps/place/Nodolini+s.n.c./data=!4m7!3m6!1s0x47802f5147ddd3eb:0x34b23b3acc33abcd!8m2!3d44.9541974!4d10.6879499!16s%2Fg%2F11b6j0n4vm!19sChIJ69PdR1EvgEcRzaszzDo7sjQ?authuser=0&hl=tr&rclk=1",
    "website_url": "http://www.nodolini.com/",
    "rating_text": "5,0",
    "stars": null,
    "number_of_reviews": null,
    "price_level": "",
    "open_hours": "",
    "extraction_timestamp": "2025-06-07T15:54:29.818Z",
    "source_name": "google",
    "source_query": "Irrigation Equipment",
    "source_country": "IT",
    "country": "Italy",
    "state": "Emilia-Romagna",
    "city": "Novellara"
  },
  {
    "source_id": "ChIJAcsK30Lzf0cRaTFJPma9CoA",
    "name": "G.F. Srl - Enjoy the garden",
    "category": "G.F. Srl - Enjoy the garden",
    "formatted_address": "4,1(9)",
    "phone_number": "+390522637311",
    "source_url": "https://www.google.com/maps/place/G.F.+Srl+-+Enjoy+the+garden/data=!4m7!3m6!1s0x477ff342df0acb01:0x800abd663e493169!8m2!3d44.7681164!4d10.8260182!16s%2Fg%2F12mm851w6!19sChIJAcsK30Lzf0cRaTFJPma9CoA?authuser=0&hl=tr&rclk=1",
    "website_url": "http://www.gfgarden.it/",
    "rating_text": "4,1",
    "stars": null,
    "number_of_reviews": null,
    "price_level": "",
    "open_hours": "",
    "extraction_timestamp": "2025-06-07T15:54:29.819Z",
    "source_name": "google",
    "source_query": "Irrigation Equipment",
    "source_country": "IT",
    "country": "Italy",
    "state": "Emilia-Romagna",
    "city": "Novellara"
  },
  {
    "source_id": "ChIJ94X6MF8ggEcRm6BtTZXU11Y",
    "name": "Tecno Tmg Srl",
    "category": "Tecno Tmg Srl",
    "formatted_address": "Makine Atölyesi ·  · Via Andre Marie Ampere, 12/14Kapalı ⋅ Açılış zamanı: Pzt 08:00 · +39 0522 661393",
    "phone_number": "+390522661393",
    "source_url": "https://www.google.com/maps/place/Tecno+Tmg+Srl/data=!4m7!3m6!1s0x4780205f30fa85f7:0x56d7d4954d6da09b!8m2!3d44.831509!4d10.714161!16s%2Fg%2F1tt0pzr2!19sChIJ94X6MF8ggEcRm6BtTZXU11Y?authuser=0&hl=tr&rclk=1",
    "website_url": "http://www.tecnotmg.it/",
    "rating_text": "",
    "stars": null,
    "number_of_reviews": null,
    "price_level": "",
    "open_hours": "",
    "extraction_timestamp": "2025-06-07T15:54:29.820Z",
    "source_name": "google",
    "source_query": "Irrigation Equipment",
    "source_country": "IT",
    "country": "Italy",
    "state": "Emilia-Romagna",
    "city": "Novellara"
  },
  {
    "source_id": "ChIJqyhG2lgggEcR20vHb5idU78",
    "name": "Motorservice",
    "category": "Motorservice",
    "formatted_address": "4,9(13)",
    "phone_number": "+390522654936",
    "source_url": "https://www.google.com/maps/place/Motorservice/data=!4m7!3m6!1s0x47802058da4628ab:0xbf539d986fc74bdb!8m2!3d44.8531837!4d10.7136678!16s%2Fg%2F1tt0pzr1!19sChIJqyhG2lgggEcR20vHb5idU78?authuser=0&hl=tr&rclk=1",
    "website_url": "https://www.motorservicenovellara.it/",
    "rating_text": "4,9",
    "stars": null,
    "number_of_reviews": null,
    "price_level": "",
    "open_hours": "",
    "extraction_timestamp": "2025-06-07T15:54:29.821Z",
    "source_name": "google",
    "source_query": "Irrigation Equipment",
    "source_country": "IT",
    "country": "Italy",
    "state": "Emilia-Romagna",
    "city": "Novellara"
  },
  {
    "source_id": "ChIJLVTV-zkggEcRYla_WLnCM2g",
    "name": "Società Italiana Werisan Mangimi spa",
    "category": "Società Italiana Werisan Mangimi spa",
    "formatted_address": "4,6(10)",
    "phone_number": "+390522653289",
    "source_url": "https://www.google.com/maps/place/Societ%C3%A0+Italiana+Werisan+Mangimi+spa/data=!4m7!3m6!1s0x47802039fbd5542d:0x6833c2b958bf5662!8m2!3d44.8350904!4d10.7131012!16s%2Fg%2F1vrq8hcn!19sChIJLVTV-zkggEcRYla_WLnCM2g?authuser=0&hl=tr&rclk=1",
    "website_url": "http://www.werisanmangimi.it/",
    "rating_text": "4,6",
    "stars": null,
    "number_of_reviews": null,
    "price_level": "",
    "open_hours": "",
    "extraction_timestamp": "2025-06-07T15:54:29.823Z",
    "source_name": "google",
    "source_query": "Irrigation Equipment",
    "source_country": "IT",
    "country": "Italy",
    "state": "Emilia-Romagna",
    "city": "Novellara"
  },
  {
    "source_id": "ChIJ8S_H450fgEcRen1BwvkupIc",
    "name": "Agro-system Snc di Bassoli - Piscine e Macchine giardino - Reggio Emilia",
    "category": "Agro-system Snc di Bassoli - Piscine e Macchine giardino - Reggio Emilia",
    "formatted_address": "4,6(88)",
    "phone_number": "+390522954100",
    "source_url": "https://www.google.com/maps/place/Agro-system+Snc+di+Bassoli+-+Piscine+e+Macchine+giardino+-+Reggio+Emilia/data=!4m7!3m6!1s0x47801f9de3c72ff1:0x87a42ef9c2417d7a!8m2!3d44.797091!4d10.686568!16s%2Fg%2F1tfb5f45!19sChIJ8S_H450fgEcRen1BwvkupIc?authuser=0&hl=tr&rclk=1",
    "website_url": "https://agrosystem.info/",
    "rating_text": "4,6",
    "stars": null,
    "number_of_reviews": null,
    "price_level": "",
    "open_hours": "",
    "extraction_timestamp": "2025-06-07T15:54:29.824Z",
    "source_name": "google",
    "source_query": "Irrigation Equipment",
    "source_country": "IT",
    "country": "Italy",
    "state": "Emilia-Romagna",
    "city": "Novellara"
  },
  {
    "source_id": "ChIJR0cLXhQkgEcRi9oI9GALzlg",
    "name": "IRRILAND",
    "category": "IRRILAND",
    "formatted_address": "4,0(4)",
    "phone_number": "+390522831544",
    "source_url": "https://www.google.com/maps/place/IRRILAND/data=!4m7!3m6!1s0x478024145e0b4747:0x58ce0b60f408da8b!8m2!3d44.891987!4d10.650983!16s%2Fg%2F1tczjb0h!19sChIJR0cLXhQkgEcRi9oI9GALzlg?authuser=0&hl=tr&rclk=1",
    "website_url": "http://www.irriland.it/",
    "rating_text": "4,0",
    "stars": null,
    "number_of_reviews": null,
    "price_level": "",
    "open_hours": "",
    "extraction_timestamp": "2025-06-07T15:54:29.826Z",
    "source_name": "google",
    "source_query": "Irrigation Equipment",
    "source_country": "IT",
    "country": "Italy",
    "state": "Emilia-Romagna",
    "city": "Novellara"
  },
  {
    "source_id": "ChIJv7mZ05AggEcREIcIZE4hblU",
    "name": "Fercolor Snc",
    "category": "Fercolor Snc",
    "formatted_address": "4,4(220)",
    "phone_number": "+390522662871",
    "source_url": "https://www.google.com/maps/place/Fercolor+Snc/data=!4m7!3m6!1s0x47802090d399b9bf:0x556e214e64088710!8m2!3d44.8459028!4d10.7316993!16s%2Fg%2F1tf74cs7!19sChIJv7mZ05AggEcREIcIZE4hblU?authuser=0&hl=tr&rclk=1",
    "website_url": "https://www.cercatrovaonline.it/it/inserzione-ricerca/fercolor-snc",
    "rating_text": "4,4",
    "stars": null,
    "number_of_reviews": null,
    "price_level": "",
    "open_hours": "",
    "extraction_timestamp": "2025-06-07T15:54:29.827Z",
    "source_name": "google",
    "source_query": "Irrigation Equipment",
    "source_country": "IT",
    "country": "Italy",
    "state": "Emilia-Romagna",
    "city": "Novellara"
  },
  {
    "source_id": "ChIJtzLXV34mgEcR9sDfnfgzOxg",
    "name": "Sime Idromeccanica S.R.L.",
    "category": "Sime Idromeccanica S.R.L.",
    "formatted_address": "4,8(22)",
    "phone_number": "+390522824724",
    "source_url": "https://www.google.com/maps/place/Sime+Idromeccanica+S.R.L./data=!4m7!3m6!1s0x4780267e57d732b7:0x183b33f89ddfc0f6!8m2!3d44.8931121!4d10.6571392!16s%2Fg%2F1tx1s13m!19sChIJtzLXV34mgEcR9sDfnfgzOxg?authuser=0&hl=tr&rclk=1",
    "website_url": "",
    "rating_text": "4,8",
    "stars": null,
    "number_of_reviews": null,
    "price_level": "",
    "open_hours": "",
    "extraction_timestamp": "2025-06-07T15:54:29.828Z",
    "source_name": "google",
    "source_query": "Irrigation Equipment",
    "source_country": "IT",
    "country": "Italy",
    "state": "Emilia-Romagna",
    "city": "Novellara"
  },
  {
    "source_id": "ChIJJUgrWOkhgEcR_tAQWf4v1gk",
    "name": "Pompe Ferrari s.n.c.",
    "category": "Pompe Ferrari s.n.c.",
    "formatted_address": "Üretici ·  · Via Tintoretto, 3Kapalı ⋅ Açılış zamanı: Pzt 07:30 · +39 0522 662506",
    "phone_number": "+390522662506",
    "source_url": "https://www.google.com/maps/place/Pompe+Ferrari+s.n.c./data=!4m7!3m6!1s0x478021e9582b4825:0x9d62ffe5910d0fe!8m2!3d44.8521865!4d10.7338807!16s%2Fg%2F11l3nw32dr!19sChIJJUgrWOkhgEcR_tAQWf4v1gk?authuser=0&hl=tr&rclk=1",
    "website_url": "https://ferraripompe.it/",
    "rating_text": "",
    "stars": null,
    "number_of_reviews": null,
    "price_level": "",
    "open_hours": "",
    "extraction_timestamp": "2025-06-07T15:54:29.830Z",
    "source_name": "google",
    "source_query": "Irrigation Equipment",
    "source_country": "IT",
    "country": "Italy",
    "state": "Emilia-Romagna",
    "city": "Novellara"
  },
  {
    "source_id": "ChIJK1jiR8IhgEcRx8lt_MV4hhM",
    "name": "Impianto IDROVORO di sollevamento S. MARIA",
    "category": "Impianto IDROVORO di sollevamento S. MARIA",
    "formatted_address": "4,0(2)",
    "phone_number": "",
    "source_url": "https://www.google.com/maps/place/Impianto+IDROVORO+di+sollevamento+S.+MARIA/data=!4m7!3m6!1s0x478021c247e2582b:0x138678c5fc6dc9c7!8m2!3d44.8013111!4d10.6923356!16s%2Fg%2F11p5lvk0gy!19sChIJK1jiR8IhgEcRx8lt_MV4hhM?authuser=0&hl=tr&rclk=1",
    "website_url": "",
    "rating_text": "4,0",
    "stars": null,
    "number_of_reviews": null,
    "price_level": "",
    "open_hours": "",
    "extraction_timestamp": "2025-06-07T15:54:29.831Z",
    "source_name": "google",
    "source_query": "Irrigation Equipment",
    "source_country": "IT",
    "country": "Italy",
    "state": "Emilia-Romagna",
    "city": "Novellara"
  },
  {
    "source_id": "ChIJs2Uz-JkggEcRH4gG-9n1yVg",
    "name": "Piscina Comunale - Coopernuoto Novellara",
    "category": "Piscina Comunale - Coopernuoto Novellara",
    "formatted_address": "4,2(331)",
    "phone_number": "+390522662900",
    "source_url": "https://www.google.com/maps/place/Piscina+Comunale+-+Coopernuoto+Novellara/data=!4m7!3m6!1s0x47802099f83365b3:0x58c9f5d9fb06881f!8m2!3d44.8458672!4d10.7372334!16s%2Fg%2F1hc2d5rlf!19sChIJs2Uz-JkggEcRH4gG-9n1yVg?authuser=0&hl=tr&rclk=1",
    "website_url": "http://www.coopernuoto.it/",
    "rating_text": "4,2",
    "stars": null,
    "number_of_reviews": null,
    "price_level": "",
    "open_hours": "",
    "extraction_timestamp": "2025-06-07T15:54:29.832Z",
    "source_name": "google",
    "source_query": "Irrigation Equipment",
    "source_country": "IT",
    "country": "Italy",
    "state": "Emilia-Romagna",
    "city": "Novellara"
  },
  {
    "source_id": "ChIJpwUSWP2Jf0cRV34anXfZMkU",
    "name": "Davolio Bianco",
    "category": "Davolio Bianco",
    "formatted_address": "4,5(4)",
    "phone_number": "+390522661421",
    "source_url": "https://www.google.com/maps/place/Davolio+Bianco/data=!4m7!3m6!1s0x477f89fd581205a7:0x4532d9779d1a7e57!8m2!3d44.875503!4d10.759603!16s%2Fg%2F1hc1n_w96!19sChIJpwUSWP2Jf0cRV34anXfZMkU?authuser=0&hl=tr&rclk=1",
    "website_url": "",
    "rating_text": "4,5",
    "stars": null,
    "number_of_reviews": null,
    "price_level": "",
    "open_hours": "",
    "extraction_timestamp": "2025-06-07T15:54:29.833Z",
    "source_name": "google",
    "source_query": "Irrigation Equipment",
    "source_country": "IT",
    "country": "Italy",
    "state": "Emilia-Romagna",
    "city": "Novellara"
  },
  {
    "source_id": "ChIJQyDw8N_0f0cRhE_m36C06SU",
    "name": "Irrigreen",
    "category": "Irrigreen",
    "formatted_address": "4,3(3)",
    "phone_number": "+390522642318",
    "source_url": "https://www.google.com/maps/place/Irrigreen/data=!4m7!3m6!1s0x477ff4dff0f02043:0x25e9b4a0dfe64f84!8m2!3d45.1836109!4d10.6267461!16s%2Fg%2F1tddwm9t!19sChIJQyDw8N_0f0cRhE_m36C06SU?authuser=0&hl=tr&rclk=1",
    "website_url": "http://www.irrigreen.it/",
    "rating_text": "4,3",
    "stars": null,
    "number_of_reviews": null,
    "price_level": "",
    "open_hours": "",
    "extraction_timestamp": "2025-06-07T15:54:29.834Z",
    "source_name": "google",
    "source_query": "Irrigation Equipment",
    "source_country": "IT",
    "country": "Italy",
    "state": "Emilia-Romagna",
    "city": "Novellara"
  },
  {
    "source_id": "ChIJNUxmUXGJf0cRSCx0_feqVX4",
    "name": "Rovatti Pompe (SPA)",
    "category": "Rovatti Pompe (SPA)",
    "formatted_address": "4,2(10)",
    "phone_number": "+390522665000",
    "source_url": "https://www.google.com/maps/place/Rovatti+Pompe+%28SPA%29/data=!4m7!3m6!1s0x477f897151664c35:0x7e55aaf7fd742c48!8m2!3d44.8738517!4d10.8130664!16s%2Fg%2F1tn4x002!19sChIJNUxmUXGJf0cRSCx0_feqVX4?authuser=0&hl=tr&rclk=1",
    "website_url": "https://www.rovatti.it/",
    "rating_text": "4,2",
    "stars": null,
    "number_of_reviews": null,
    "price_level": "",
    "open_hours": "",
    "extraction_timestamp": "2025-06-07T15:54:29.835Z",
    "source_name": "google",
    "source_query": "Irrigation Equipment",
    "source_country": "IT",
    "country": "Italy",
    "state": "Emilia-Romagna",
    "city": "Novellara"
  },
  {
    "source_id": "ChIJu07AB0rif0cRnS0vXUM4l0M",
    "name": "IDROPLAST",
    "category": "IDROPLAST",
    "formatted_address": "4,1(66)",
    "phone_number": "+390536946864",
    "source_url": "https://www.google.com/maps/place/IDROPLAST/data=!4m7!3m6!1s0x477fe24a07c04ebb:0x439738435d2f2d9d!8m2!3d44.5278928!4d10.8902028!16s%2Fg%2F11b6jh694_!19sChIJu07AB0rif0cRnS0vXUM4l0M?authuser=0&hl=tr&rclk=1",
    "website_url": "",
    "rating_text": "4,1",
    "stars": null,
    "number_of_reviews": null,
    "price_level": "",
    "open_hours": "",
    "extraction_timestamp": "2025-06-07T15:54:29.836Z",
    "source_name": "google",
    "source_query": "Irrigation Equipment",
    "source_country": "IT",
    "country": "Italy",
    "state": "Emilia-Romagna",
    "city": "Novellara"
  },
  {
    "source_id": "ChIJ90762m6rgUcRrOpHkQtN0qE",
    "name": "ACQUAFERT",
    "category": "ACQUAFERT",
    "formatted_address": "4,8(13)",
    "phone_number": "+390372835672",
    "source_url": "https://www.google.com/maps/place/ACQUAFERT/data=!4m7!3m6!1s0x4781ab6edafa4ef7:0xa1d24d0b9147eaac!8m2!3d45.1695663!4d10.1916537!16s%2Fg%2F11c1ny5b5r!19sChIJ90762m6rgUcRrOpHkQtN0qE?authuser=0&hl=tr&rclk=1",
    "website_url": "https://www.acquafertagri.it/",
    "rating_text": "4,8",
    "stars": null,
    "number_of_reviews": null,
    "price_level": "",
    "open_hours": "",
    "extraction_timestamp": "2025-06-07T15:54:29.838Z",
    "source_name": "google",
    "source_query": "Irrigation Equipment",
    "source_country": "IT",
    "country": "Italy",
    "state": "Emilia-Romagna",
    "city": "Novellara"
  },
  {
    "source_id": "ChIJwbFrw9wdgEcRUkQQWLvaJmc",
    "name": "Depurtecnica Trattamento Acque",
    "category": "Depurtecnica Trattamento Acque",
    "formatted_address": "4,7(19)",
    "phone_number": "+390522215085",
    "source_url": "https://www.google.com/maps/place/Depurtecnica+Trattamento+Acque/data=!4m7!3m6!1s0x47801ddcc36bb1c1:0x6726dabb58104452!8m2!3d44.7154811!4d10.6721644!16s%2Fg%2F11b75gdbf2!19sChIJwbFrw9wdgEcRUkQQWLvaJmc?authuser=0&hl=tr&rclk=1",
    "website_url": "https://depurtecnica.com/",
    "rating_text": "4,7",
    "stars": null,
    "number_of_reviews": null,
    "price_level": "",
    "open_hours": "",
    "extraction_timestamp": "2025-06-07T15:54:29.839Z",
    "source_name": "google",
    "source_query": "Irrigation Equipment",
    "source_country": "IT",
    "country": "Italy",
    "state": "Emilia-Romagna",
    "city": "Novellara"
  },
  {
    "source_id": "ChIJa8flob_wf0cRa7XVBodnL2I",
    "name": "Arag Srl",
    "category": "Arag Srl",
    "formatted_address": "4,6(141)",
    "phone_number": "+390522622011",
    "source_url": "https://www.google.com/maps/place/Arag+Srl/data=!4m7!3m6!1s0x477ff0bfa1e5c76b:0x622f678706d5b56b!8m2!3d44.6556162!4d10.7922409!16s%2Fg%2F1tdnd2vb!19sChIJa8flob_wf0cRa7XVBodnL2I?authuser=0&hl=tr&rclk=1",
    "website_url": "http://www.aragnet.com/",
    "rating_text": "4,6",
    "stars": null,
    "number_of_reviews": null,
    "price_level": "",
    "open_hours": "",
    "extraction_timestamp": "2025-06-07T15:54:29.840Z",
    "source_name": "google",
    "source_query": "Irrigation Equipment",
    "source_country": "IT",
    "country": "Italy",
    "state": "Emilia-Romagna",
    "city": "Novellara"
  },
  {
    "source_id": "ChIJk1xf3gocgEcR7YDnq1JIXQQ",
    "name": "Idraulica Emiliana S.p.A.",
    "category": "Idraulica Emiliana S.p.A.",
    "formatted_address": "4,4(32)",
    "phone_number": "+390522383297",
    "source_url": "https://www.google.com/maps/place/Idraulica+Emiliana+S.p.A./data=!4m7!3m6!1s0x47801c0ade5f5c93:0x45d4852abe780ed!8m2!3d44.7129186!4d10.6066972!16s%2Fg%2F11bzs43my6!19sChIJk1xf3gocgEcR7YDnq1JIXQQ?authuser=0&hl=tr&rclk=1",
    "website_url": "http://www.idraulicaemiliana.com/",
    "rating_text": "4,4",
    "stars": null,
    "number_of_reviews": null,
    "price_level": "",
    "open_hours": "",
    "extraction_timestamp": "2025-06-07T15:54:29.841Z",
    "source_name": "google",
    "source_query": "Irrigation Equipment",
    "source_country": "IT",
    "country": "Italy",
    "state": "Emilia-Romagna",
    "city": "Novellara"
  },
  {
    "source_id": "ChIJtbN9A-8rgEcRVZtaRSESNOU",
    "name": "Perazzi Irrigatori",
    "category": "Perazzi Irrigatori",
    "formatted_address": "5,0(1)",
    "phone_number": "+390376535952",
    "source_url": "https://www.google.com/maps/place/Perazzi+Irrigatori/data=!4m7!3m6!1s0x47802bef037db3b5:0xe5341221455a9b55!8m2!3d44.9841775!4d10.7699573!16s%2Fg%2F1vd74s01!19sChIJtbN9A-8rgEcRVZtaRSESNOU?authuser=0&hl=tr&rclk=1",
    "website_url": "http://www.gedanken-italia.com/",
    "rating_text": "5,0",
    "stars": null,
    "number_of_reviews": null,
    "price_level": "",
    "open_hours": "",
    "extraction_timestamp": "2025-06-07T15:54:29.843Z",
    "source_name": "google",
    "source_query": "Irrigation Equipment",
    "source_country": "IT",
    "country": "Italy",
    "state": "Emilia-Romagna",
    "city": "Novellara"
  },
  {
    "source_id": "ChIJM1YDrdvQf0cR04ugW7FgB5o",
    "name": "Green Blue Italia srl",
    "category": "Green Blue Italia srl",
    "formatted_address": "4,7(17)",
    "phone_number": "+390510492100",
    "source_url": "https://www.google.com/maps/place/Green+Blue+Italia+srl/data=!4m7!3m6!1s0x477fd0dbad035633:0x9a0760b15ba08bd3!8m2!3d44.5324593!4d11.2320285!16s%2Fg%2F11gr3cvb1v!19sChIJM1YDrdvQf0cR04ugW7FgB5o?authuser=0&hl=tr&rclk=1",
    "website_url": "",
    "rating_text": "4,7",
    "stars": null,
    "number_of_reviews": null,
    "price_level": "",
    "open_hours": "",
    "extraction_timestamp": "2025-06-07T15:54:29.844Z",
    "source_name": "google",
    "source_query": "Irrigation Equipment",
    "source_country": "IT",
    "country": "Italy",
    "state": "Emilia-Romagna",
    "city": "Novellara"
  },
  {
    "source_id": "ChIJh5ntU4UegEcRhIP4fbjkHS8",
    "name": "Attrezzature zootecniche - Nuova Cagi",
    "category": "Attrezzature zootecniche - Nuova Cagi",
    "formatted_address": "5,0(4)",
    "phone_number": "+390522517651",
    "source_url": "https://www.google.com/maps/place/Attrezzature+zootecniche+-+Nuova+Cagi/data=!4m7!3m6!1s0x47801e8553ed9987:0x2f1de4b87df88384!8m2!3d44.7357516!4d10.647524!16s%2Fg%2F1tf34tbn!19sChIJh5ntU4UegEcRhIP4fbjkHS8?authuser=0&hl=tr&rclk=1",
    "website_url": "https://nuovacagi.com/",
    "rating_text": "5,0",
    "stars": null,
    "number_of_reviews": null,
    "price_level": "",
    "open_hours": "",
    "extraction_timestamp": "2025-06-07T15:54:29.845Z",
    "source_name": "google",
    "source_query": "Irrigation Equipment",
    "source_country": "IT",
    "country": "Italy",
    "state": "Emilia-Romagna",
    "city": "Novellara"
  }
]
