[
  {
    "source_id": "ChIJGQkuu-WOf0cRUeH0aQjIVCA",
    "name": "Andreoli Engineering Srl",
    "category": "Andreoli Engineering Srl",
    "formatted_address": "4,8(39)",
    "phone_number": "+39059670164",
    "source_url": "https://www.google.com/maps/place/Andreoli+Engineering+Srl/data=!4m7!3m6!1s0x477f8ee5bb2e0919:0x2054c80869f4e151!8m2!3d44.8900794!4d10.8964681!16s%2Fg%2F11b6hwm6m0!19sChIJGQkuu-WOf0cRUeH0aQjIVCA?authuser=0&hl=tr&rclk=1",
    "website_url": "https://www.andreoliengineering.it/",
    "rating_text": "4,8",
    "stars": null,
    "number_of_reviews": null,
    "price_level": "",
    "open_hours": "",
    "extraction_timestamp": "2025-06-07T16:13:31.044Z",
    "source_name": "google",
    "source_query": "Irrigation Equipment",
    "source_country": "IT",
    "country": "Italy",
    "state": "Emilia-Romagna",
    "city": "Novi di Modena"
  },
  {
    "source_id": "ChIJcQG6ul7df0cR3VxKiu5OPBs",
    "name": "Scova Impianti Srl",
    "category": "Scova Impianti Srl",
    "formatted_address": "4,5(64)",
    "phone_number": "+39059923202",
    "source_url": "https://www.google.com/maps/place/Scova+Impianti+Srl/data=!4m7!3m6!1s0x477fdd5ebaba0171:0x1b3c4eee8a4a5cdd!8m2!3d44.6018135!4d11.032294!16s%2Fg%2F1tfzwbfb!19sChIJcQG6ul7df0cR3VxKiu5OPBs?authuser=0&hl=tr&rclk=1",
    "website_url": "https://www.scovaimpianti.com/",
    "rating_text": "4,5",
    "stars": null,
    "number_of_reviews": null,
    "price_level": "",
    "open_hours": "",
    "extraction_timestamp": "2025-06-07T16:13:31.044Z",
    "source_name": "google",
    "source_query": "Irrigation Equipment",
    "source_country": "IT",
    "country": "Italy",
    "state": "Emilia-Romagna",
    "city": "Novi di Modena"
  },
  {
    "source_id": "ChIJVeCa6gOPf0cRXQYC6Z4VRHQ",
    "name": "Ferramenta Guicciardi Carlo",
    "category": "Ferramenta Guicciardi Carlo",
    "formatted_address": "4,8(22)",
    "phone_number": "+39059670318",
    "source_url": "https://www.google.com/maps/place/Ferramenta+Guicciardi+Carlo/data=!4m7!3m6!1s0x477f8f03ea9ae055:0x7444159ee902065d!8m2!3d44.8940403!4d10.9011788!16s%2Fg%2F1tg809qq!19sChIJVeCa6gOPf0cRXQYC6Z4VRHQ?authuser=0&hl=tr&rclk=1",
    "website_url": "",
    "rating_text": "4,8",
    "stars": null,
    "number_of_reviews": null,
    "price_level": "",
    "open_hours": "",
    "extraction_timestamp": "2025-06-07T16:13:31.044Z",
    "source_name": "google",
    "source_query": "Irrigation Equipment",
    "source_country": "IT",
    "country": "Italy",
    "state": "Emilia-Romagna",
    "city": "Novi di Modena"
  },
  {
    "source_id": "ChIJJ6V6lMDgf0cR1SpFsfjDuHg",
    "name": "Ocmis Irrigazione Spa",
    "category": "Ocmis Irrigazione Spa",
    "formatted_address": "3,5(31)",
    "phone_number": "+39059702150",
    "source_url": "https://www.google.com/maps/place/Ocmis+Irrigazione+Spa/data=!4m7!3m6!1s0x477fe0c0947aa527:0x78b8c3f8b1452ad5!8m2!3d44.530494!4d10.9794578!16s%2Fg%2F1vd3tn19!19sChIJJ6V6lMDgf0cR1SpFsfjDuHg?authuser=0&hl=tr&rclk=1",
    "website_url": "http://www.ocmis-irrigazione.it/",
    "rating_text": "3,5",
    "stars": null,
    "number_of_reviews": null,
    "price_level": "",
    "open_hours": "",
    "extraction_timestamp": "2025-06-07T16:13:31.045Z",
    "source_name": "google",
    "source_query": "Irrigation Equipment",
    "source_country": "IT",
    "country": "Italy",
    "state": "Emilia-Romagna",
    "city": "Novi di Modena"
  },
  {
    "source_id": "ChIJE7Ms6OORf0cRaeGvVT5KndY",
    "name": "Alle Idraulica",
    "category": "Alle Idraulica",
    "formatted_address": "5,0(2)",
    "phone_number": "+393482806568",
    "source_url": "https://www.google.com/maps/place/Alle+Idraulica/data=!4m7!3m6!1s0x477f91e3e82cb313:0xd69d4a3e55afe169!8m2!3d44.8997468!4d10.8876347!16s%2Fg%2F11b6hwzn33!19sChIJE7Ms6OORf0cRaeGvVT5KndY?authuser=0&hl=tr&rclk=1",
    "website_url": "http://alleidraulica.it/",
    "rating_text": "5,0",
    "stars": null,
    "number_of_reviews": null,
    "price_level": "",
    "open_hours": "",
    "extraction_timestamp": "2025-06-07T16:13:31.045Z",
    "source_name": "google",
    "source_query": "Irrigation Equipment",
    "source_country": "IT",
    "country": "Italy",
    "state": "Emilia-Romagna",
    "city": "Novi di Modena"
  },
  {
    "source_id": "ChIJHQGz6dXof0cRPD2igQWHtxo",
    "name": "Hidrostar",
    "category": "Hidrostar",
    "formatted_address": "4,8(33)",
    "phone_number": "+39059251056",
    "source_url": "https://www.google.com/maps/place/Hidrostar/data=!4m7!3m6!1s0x477fe8d5e9b3011d:0x1ab7870581a23d3c!8m2!3d44.6584919!4d10.9641811!16s%2Fg%2F1tf9rp0c!19sChIJHQGz6dXof0cRPD2igQWHtxo?authuser=0&hl=tr&rclk=1",
    "website_url": "http://www.hidrostar.it/",
    "rating_text": "4,8",
    "stars": null,
    "number_of_reviews": null,
    "price_level": "",
    "open_hours": "",
    "extraction_timestamp": "2025-06-07T16:13:31.045Z",
    "source_name": "google",
    "source_query": "Irrigation Equipment",
    "source_country": "IT",
    "country": "Italy",
    "state": "Emilia-Romagna",
    "city": "Novi di Modena"
  },
  {
    "source_id": "ChIJGQkuu-WOf0cRH6r16keQPDs",
    "name": "Agrizoo San Felice Srl",
    "category": "Agrizoo San Felice Srl",
    "formatted_address": "4,5(108)",
    "phone_number": "+39059670343",
    "source_url": "https://www.google.com/maps/place/Agrizoo+San+Felice+Srl/data=!4m7!3m6!1s0x477f8ee5bb2e0919:0x3b3c9047eaf5aa1f!8m2!3d44.888384!4d10.8961053!16s%2Fg%2F1hc10dcph!19sChIJGQkuu-WOf0cRH6r16keQPDs?authuser=0&hl=tr&rclk=1",
    "website_url": "",
    "rating_text": "4,5",
    "stars": null,
    "number_of_reviews": null,
    "price_level": "",
    "open_hours": "",
    "extraction_timestamp": "2025-06-07T16:13:31.046Z",
    "source_name": "google",
    "source_query": "Irrigation Equipment",
    "source_country": "IT",
    "country": "Italy",
    "state": "Emilia-Romagna",
    "city": "Novi di Modena"
  },
  {
    "source_id": "ChIJhT-kpAXff0cRKJQqKYwIulA",
    "name": "Irrigo",
    "category": "Irrigo",
    "formatted_address": "4,7(36)",
    "phone_number": "+393473096499",
    "source_url": "https://www.google.com/maps/place/Irrigo/data=!4m7!3m6!1s0x477fdf05a4a43f85:0x50ba088c292a9428!8m2!3d44.5018172!4d11.005272!16s%2Fg%2F11hdjcp5pk!19sChIJhT-kpAXff0cRKJQqKYwIulA?authuser=0&hl=tr&rclk=1",
    "website_url": "https://www.irrigovignola.it/",
    "rating_text": "4,7",
    "stars": null,
    "number_of_reviews": null,
    "price_level": "",
    "open_hours": "",
    "extraction_timestamp": "2025-06-07T16:13:31.046Z",
    "source_name": "google",
    "source_query": "Irrigation Equipment",
    "source_country": "IT",
    "country": "Italy",
    "state": "Emilia-Romagna",
    "city": "Novi di Modena"
  },
  {
    "source_id": "ChIJtdJC5j6Zf0cRmmVcuMyNEW0",
    "name": "Tadei | Impianti irrigazione | Robot tagliaerba | Barbecue | Outdoor",
    "category": "Tadei | Impianti irrigazione | Robot tagliaerba | Barbecue | Outdoor",
    "formatted_address": "4,6(69)",
    "phone_number": "+390386733460",
    "source_url": "https://www.google.com/maps/place/Tadei+%7C+Impianti+irrigazione+%7C+Robot+tagliaerba+%7C+Barbecue+%7C+Outdoor/data=!4m7!3m6!1s0x477f993ee642d2b5:0x6d118dccb85c659a!8m2!3d44.9680645!4d11.1076526!16s%2Fg%2F113dpgnd_!19sChIJtdJC5j6Zf0cRmmVcuMyNEW0?authuser=0&hl=tr&rclk=1",
    "website_url": "https://www.irrigazionetadei.it/",
    "rating_text": "4,6",
    "stars": null,
    "number_of_reviews": null,
    "price_level": "",
    "open_hours": "",
    "extraction_timestamp": "2025-06-07T16:13:31.046Z",
    "source_name": "google",
    "source_query": "Irrigation Equipment",
    "source_country": "IT",
    "country": "Italy",
    "state": "Emilia-Romagna",
    "city": "Novi di Modena"
  },
  {
    "source_id": "ChIJD12C7QOPf0cREaN4KDahhc0",
    "name": "Ferramenta Giovannini",
    "category": "Ferramenta Giovannini",
    "formatted_address": "4,8(65)",
    "phone_number": "+39059670177",
    "source_url": "https://www.google.com/maps/place/Ferramenta+Giovannini/data=!4m7!3m6!1s0x477f8f03ed825d0f:0xcd85a1362878a311!8m2!3d44.8945449!4d10.9015878!16s%2Fg%2F11hbt4j2xs!19sChIJD12C7QOPf0cREaN4KDahhc0?authuser=0&hl=tr&rclk=1",
    "website_url": "",
    "rating_text": "4,8",
    "stars": null,
    "number_of_reviews": null,
    "price_level": "",
    "open_hours": "",
    "extraction_timestamp": "2025-06-07T16:13:31.047Z",
    "source_name": "google",
    "source_query": "Irrigation Equipment",
    "source_country": "IT",
    "country": "Italy",
    "state": "Emilia-Romagna",
    "city": "Novi di Modena"
  },
  {
    "source_id": "ChIJa2MgKTKPf0cR8U-fvCLOGwA",
    "name": "Marassi Claudio - Impianti Termoidraulici",
    "category": "Marassi Claudio - Impianti Termoidraulici",
    "formatted_address": "5,0(1)",
    "phone_number": "+39335343977",
    "source_url": "https://www.google.com/maps/place/Marassi+Claudio+-+Impianti+Termoidraulici/data=!4m7!3m6!1s0x477f8f322920636b:0x1bce22bc9f4ff1!8m2!3d44.8854947!4d10.9143264!16s%2Fg%2F11nmnh2btg!19sChIJa2MgKTKPf0cR8U-fvCLOGwA?authuser=0&hl=tr&rclk=1",
    "website_url": "https://www.cercatrovaonline.it/it/inserzione-ricerca/marassi-claudio",
    "rating_text": "5,0",
    "stars": null,
    "number_of_reviews": null,
    "price_level": "",
    "open_hours": "",
    "extraction_timestamp": "2025-06-07T16:13:31.047Z",
    "source_name": "google",
    "source_query": "Irrigation Equipment",
    "source_country": "IT",
    "country": "Italy",
    "state": "Emilia-Romagna",
    "city": "Novi di Modena"
  },
  {
    "source_id": "ChIJg3c-wAOPf0cR35_GSkUqMsU",
    "name": "Ferrari Roberto",
    "category": "Ferrari Roberto",
    "formatted_address": "4,2(19)",
    "phone_number": "+39059677545",
    "source_url": "https://www.google.com/maps/place/Ferrari+Roberto/data=!4m7!3m6!1s0x477f8f03c03e7783:0xc5322a454ac69fdf!8m2!3d44.8939605!4d10.9012358!16s%2Fg%2F1ptwk1p5s!19sChIJg3c-wAOPf0cR35_GSkUqMsU?authuser=0&hl=tr&rclk=1",
    "website_url": "https://www.cercatrovaonline.it/it/inserzione/carpi/ditta-ferrari-roberto",
    "rating_text": "4,2",
    "stars": null,
    "number_of_reviews": null,
    "price_level": "",
    "open_hours": "",
    "extraction_timestamp": "2025-06-07T16:13:31.047Z",
    "source_name": "google",
    "source_query": "Irrigation Equipment",
    "source_country": "IT",
    "country": "Italy",
    "state": "Emilia-Romagna",
    "city": "Novi di Modena"
  }
]
