[
  {
    "source_id": "ChIJgU9VAPZrfkcRdWk2YSB5qi0",
    "name": "OFFICINA MECCANICA GUANDALINI di Roberto ed Elisa",
    "category": "OFFICINA MECCANICA GUANDALINI di Roberto ed Elisa",
    "formatted_address": "4,7(38)",
    "phone_number": "+393464117854",
    "source_url": "https://www.google.com/maps/place/OFFICINA+MECCANICA+GUANDALINI+di+Roberto+ed+Elisa/data=!4m7!3m6!1s0x477e6bf600554f81:0x2daa792061366975!8m2!3d44.7335842!4d11.9425618!16s%2Fg%2F1pp2x9yrm!19sChIJgU9VAPZrfkcRdWk2YSB5qi0?authuser=0&hl=tr&rclk=1",
    "website_url": "",
    "rating_text": "4,7",
    "stars": null,
    "number_of_reviews": null,
    "price_level": "",
    "open_hours": "",
    "extraction_timestamp": "2025-06-07T16:49:58.584Z",
    "source_name": "google",
    "source_query": "Irrigation Equipment",
    "source_country": "IT",
    "country": "Italy",
    "state": "Emilia-Romagna",
    "city": "Ostellato"
  },
  {
    "source_id": "ChIJT6Lzf_NrfkcRTQWomhLNGcI",
    "name": "Melktrade",
    "category": "Melktrade",
    "formatted_address": "Sanitasyon Hizmeti ·  · Via Don Giovanni Minzoni, 9/E24 saat açık · +39 328 198 8624",
    "phone_number": "+39328198862424",
    "source_url": "https://www.google.com/maps/place/Melktrade/data=!4m7!3m6!1s0x477e6bf37ff3a24f:0xc219cd129aa8054d!8m2!3d44.7452072!4d11.9418498!16s%2Fg%2F11rsjlyqyj!19sChIJT6Lzf_NrfkcRTQWomhLNGcI?authuser=0&hl=tr&rclk=1",
    "website_url": "https://www.melktrade.it/",
    "rating_text": "",
    "stars": null,
    "number_of_reviews": null,
    "price_level": "",
    "open_hours": "",
    "extraction_timestamp": "2025-06-07T16:49:58.586Z",
    "source_name": "google",
    "source_query": "Irrigation Equipment",
    "source_country": "IT",
    "country": "Italy",
    "state": "Emilia-Romagna",
    "city": "Ostellato"
  },
  {
    "source_id": "ChIJtSD0RGZrfkcRqvxG9hq_SGA",
    "name": "Cald Fred di Torelli Maurizio",
    "category": "Cald Fred di Torelli Maurizio",
    "formatted_address": "Isıtma Sistemleri · Via Roma, 10Kapalı ⋅ Açılış zamanı: Pzt 09:00 · +39 340 525 3753",
    "phone_number": "+393405253753",
    "source_url": "https://www.google.com/maps/place/Cald+Fred+di+Torelli+Maurizio/data=!4m7!3m6!1s0x477e6b6644f420b5:0x6048bf1af646fcaa!8m2!3d44.745949!4d11.9407166!16s%2Fg%2F11wn72bb5y!19sChIJtSD0RGZrfkcRqvxG9hq_SGA?authuser=0&hl=tr&rclk=1",
    "website_url": "https://www.caldfred.com/",
    "rating_text": "",
    "stars": null,
    "number_of_reviews": null,
    "price_level": "",
    "open_hours": "",
    "extraction_timestamp": "2025-06-07T16:49:58.587Z",
    "source_name": "google",
    "source_query": "Irrigation Equipment",
    "source_country": "IT",
    "country": "Italy",
    "state": "Emilia-Romagna",
    "city": "Ostellato"
  },
  {
    "source_id": "ChIJEd0BZMdzfkcR393SfsFxrSk",
    "name": "FRI-EL Greenhouse",
    "category": "FRI-EL Greenhouse",
    "formatted_address": "3,9(127)",
    "phone_number": "+39053357411",
    "source_url": "https://www.google.com/maps/place/FRI-EL+Greenhouse/data=!4m7!3m6!1s0x477e73c76401dd11:0x29ad71c17ed2dddf!8m2!3d44.7132911!4d12.0965805!16s%2Fg%2F11c6cws_r2!19sChIJEd0BZMdzfkcR393SfsFxrSk?authuser=0&hl=tr&rclk=1",
    "website_url": "http://www.h2orto.it/",
    "rating_text": "3,9",
    "stars": null,
    "number_of_reviews": null,
    "price_level": "",
    "open_hours": "",
    "extraction_timestamp": "2025-06-07T16:49:58.588Z",
    "source_name": "google",
    "source_query": "Irrigation Equipment",
    "source_country": "IT",
    "country": "Italy",
    "state": "Emilia-Romagna",
    "city": "Ostellato"
  },
  {
    "source_id": "ChIJc1dYhn5pfkcRjGkPGtcweT4",
    "name": "Impianto Idrovoro Tersallo",
    "category": "Impianto Idrovoro Tersallo",
    "formatted_address": "3,0(4)",
    "phone_number": "",
    "source_url": "https://www.google.com/maps/place/Impianto+Idrovoro+Tersallo/data=!4m7!3m6!1s0x477e697e86585773:0x3e7930d71a0f698c!8m2!3d44.7538874!4d11.9088418!16s%2Fg%2F11fzsjzw32!19sChIJc1dYhn5pfkcRjGkPGtcweT4?authuser=0&hl=tr&rclk=1",
    "website_url": "http://www.bonificaferrara.it/",
    "rating_text": "3,0",
    "stars": null,
    "number_of_reviews": null,
    "price_level": "",
    "open_hours": "",
    "extraction_timestamp": "2025-06-07T16:49:58.590Z",
    "source_name": "google",
    "source_query": "Irrigation Equipment",
    "source_country": "IT",
    "country": "Italy",
    "state": "Emilia-Romagna",
    "city": "Ostellato"
  },
  {
    "source_id": "ChIJoQF3JwBxfkcRVzzK9JMZPtI",
    "name": "Depuratore \"Zona Sipro\" di Ostellato",
    "category": "Depuratore \"Zona Sipro\" di Ostellato",
    "formatted_address": "1,0(1)",
    "phone_number": "",
    "source_url": "https://www.google.com/maps/place/Depuratore+%22Zona+Sipro%22+di+Ostellato/data=!4m7!3m6!1s0x477e7100277701a1:0xd23e1993f4ca3c57!8m2!3d44.7368457!4d12.047757!16s%2Fg%2F11vy__x77n!19sChIJoQF3JwBxfkcRVzzK9JMZPtI?authuser=0&hl=tr&rclk=1",
    "website_url": "",
    "rating_text": "1,0",
    "stars": null,
    "number_of_reviews": null,
    "price_level": "",
    "open_hours": "",
    "extraction_timestamp": "2025-06-07T16:49:58.590Z",
    "source_name": "google",
    "source_query": "Irrigation Equipment",
    "source_country": "IT",
    "country": "Italy",
    "state": "Emilia-Romagna",
    "city": "Ostellato"
  },
  {
    "source_id": "ChIJR87jut9rfkcR90s5aBZfdIE",
    "name": "Ferramenta CHENDI",
    "category": "Ferramenta CHENDI",
    "formatted_address": "5,0(4)",
    "phone_number": "",
    "source_url": "https://www.google.com/maps/place/Ferramenta+CHENDI/data=!4m7!3m6!1s0x477e6bdfbae3ce47:0x81745f1668394bf7!8m2!3d44.7452182!4d11.9404465!16s%2Fg%2F11nf_r08__!19sChIJR87jut9rfkcR90s5aBZfdIE?authuser=0&hl=tr&rclk=1",
    "website_url": "",
    "rating_text": "5,0",
    "stars": null,
    "number_of_reviews": null,
    "price_level": "",
    "open_hours": "",
    "extraction_timestamp": "2025-06-07T16:49:58.591Z",
    "source_name": "google",
    "source_query": "Irrigation Equipment",
    "source_country": "IT",
    "country": "Italy",
    "state": "Emilia-Romagna",
    "city": "Ostellato"
  },
  {
    "source_id": "ChIJcQG6ul7df0cR3VxKiu5OPBs",
    "name": "Scova Impianti Srl",
    "category": "Scova Impianti Srl",
    "formatted_address": "4,5(64)",
    "phone_number": "+39059923202",
    "source_url": "https://www.google.com/maps/place/Scova+Impianti+Srl/data=!4m7!3m6!1s0x477fdd5ebaba0171:0x1b3c4eee8a4a5cdd!8m2!3d44.6018135!4d11.032294!16s%2Fg%2F1tfzwbfb!19sChIJcQG6ul7df0cR3VxKiu5OPBs?authuser=0&hl=tr&rclk=1",
    "website_url": "https://www.scovaimpianti.com/",
    "rating_text": "4,5",
    "stars": null,
    "number_of_reviews": null,
    "price_level": "",
    "open_hours": "",
    "extraction_timestamp": "2025-06-07T16:49:58.592Z",
    "source_name": "google",
    "source_query": "Irrigation Equipment",
    "source_country": "IT",
    "country": "Italy",
    "state": "Emilia-Romagna",
    "city": "Ostellato"
  },
  {
    "source_id": "ChIJh3Nd8G0sfkcR_m7VewEmxXM",
    "name": "Irrigarden",
    "category": "Irrigarden",
    "formatted_address": "4,7(158)",
    "phone_number": "+39051782013",
    "source_url": "https://www.google.com/maps/place/Irrigarden/data=!4m7!3m6!1s0x477e2c6df05d7387:0x73c526017bd56efe!8m2!3d44.5096266!4d11.4390897!16s%2Fg%2F1vgw_l7w!19sChIJh3Nd8G0sfkcR_m7VewEmxXM?authuser=0&hl=tr&rclk=1",
    "website_url": "https://www.irrigarden-bo.it/",
    "rating_text": "4,7",
    "stars": null,
    "number_of_reviews": null,
    "price_level": "",
    "open_hours": "",
    "extraction_timestamp": "2025-06-07T16:49:58.593Z",
    "source_name": "google",
    "source_query": "Irrigation Equipment",
    "source_country": "IT",
    "country": "Italy",
    "state": "Emilia-Romagna",
    "city": "Ostellato"
  },
  {
    "source_id": "ChIJJ6V6lMDgf0cR1SpFsfjDuHg",
    "name": "Ocmis Irrigazione Spa",
    "category": "Ocmis Irrigazione Spa",
    "formatted_address": "3,5(31)",
    "phone_number": "+39059702150",
    "source_url": "https://www.google.com/maps/place/Ocmis+Irrigazione+Spa/data=!4m7!3m6!1s0x477fe0c0947aa527:0x78b8c3f8b1452ad5!8m2!3d44.530494!4d10.9794578!16s%2Fg%2F1vd3tn19!19sChIJJ6V6lMDgf0cR1SpFsfjDuHg?authuser=0&hl=tr&rclk=1",
    "website_url": "http://www.ocmis-irrigazione.it/",
    "rating_text": "3,5",
    "stars": null,
    "number_of_reviews": null,
    "price_level": "",
    "open_hours": "",
    "extraction_timestamp": "2025-06-07T16:49:58.594Z",
    "source_name": "google",
    "source_query": "Irrigation Equipment",
    "source_country": "IT",
    "country": "Italy",
    "state": "Emilia-Romagna",
    "city": "Ostellato"
  },
  {
    "source_id": "ChIJyXgg68QrfkcRAaJCOMJ3PxY",
    "name": "hidrisistem",
    "category": "hidrisistem",
    "formatted_address": "5,0(1)",
    "phone_number": "+39366448310824",
    "source_url": "https://www.google.com/maps/place/hidrisistem/data=!4m7!3m6!1s0x477e2bc4eb2078c9:0x163f77c23842a201!8m2!3d44.496029!4d11.402638!16s%2Fg%2F11w_zjhjy3!19sChIJyXgg68QrfkcRAaJCOMJ3PxY?authuser=0&hl=tr&rclk=1",
    "website_url": "",
    "rating_text": "5,0",
    "stars": null,
    "number_of_reviews": null,
    "price_level": "",
    "open_hours": "",
    "extraction_timestamp": "2025-06-07T16:49:58.595Z",
    "source_name": "google",
    "source_query": "Irrigation Equipment",
    "source_country": "IT",
    "country": "Italy",
    "state": "Emilia-Romagna",
    "city": "Ostellato"
  },
  {
    "source_id": "ChIJZ-ptQ_jHk6oRoSE8Bi0A69U",
    "name": "MCP - Trattamento Acqua",
    "category": "MCP - Trattamento Acqua",
    "formatted_address": "",
    "phone_number": "+393385255156",
    "source_url": "https://www.google.com/maps/place/MCP+-+Trattamento+Acqua/data=!4m7!3m6!1s0xaa93c7f8436dea67:0xd5eb002d063c21a1!8m2!3d41.29085!4d12.71216!16s%2Fg%2F11wwnqdy84!19sChIJZ-ptQ_jHk6oRoSE8Bi0A69U?authuser=0&hl=tr&rclk=1",
    "website_url": "",
    "rating_text": "",
    "stars": null,
    "number_of_reviews": null,
    "price_level": "",
    "open_hours": "",
    "extraction_timestamp": "2025-06-07T16:49:58.596Z",
    "source_name": "google",
    "source_query": "Irrigation Equipment",
    "source_country": "IT",
    "country": "Italy",
    "state": "Emilia-Romagna",
    "city": "Ostellato"
  }
]
