[
  {
    "source_id": "ChIJE_3jOnMtfkcRkxtTFj3Ym9E",
    "name": "Irrigation Scarabelli Srl",
    "category": "Irrigation Scarabelli Srl",
    "formatted_address": "4,5(23)",
    "phone_number": "+39051763363",
    "source_url": "https://www.google.com/maps/place/Irrigation+Scarabelli+Srl/data=!4m7!3m6!1s0x477e2d733ae3fd13:0xd19bd83d16531b93!8m2!3d44.5426053!4d11.4189136!16s%2Fg%2F11gzdz6vf!19sChIJE_3jOnMtfkcRkxtTFj3Ym9E?authuser=0&hl=tr&rclk=1",
    "website_url": "",
    "rating_text": "4,5",
    "stars": null,
    "number_of_reviews": null,
    "price_level": "",
    "open_hours": "",
    "extraction_timestamp": "2025-06-07T16:13:06.001Z",
    "source_name": "google",
    "source_query": "Irrigation Equipment",
    "source_country": "IT",
    "country": "Italy",
    "state": "Emilia-Romagna",
    "city": "Ozzano dell'Emilia"
  },
  {
    "source_id": "ChIJSSMzGN4pfkcRxNrEMhpqts8",
    "name": "Hydro Ware srl",
    "category": "Hydro Ware srl",
    "formatted_address": "4,5(2)",
    "phone_number": "+390510404329",
    "source_url": "https://www.google.com/maps/place/Hydro+Ware+srl/data=!4m7!3m6!1s0x477e29de18332349:0xcfb66a1a32c4dac4!8m2!3d44.4442053!4d11.4850842!16s%2Fg%2F11h55y8w7d!19sChIJSSMzGN4pfkcRxNrEMhpqts8?authuser=0&hl=tr&rclk=1",
    "website_url": "http://www.hydroware.it/it/",
    "rating_text": "4,5",
    "stars": null,
    "number_of_reviews": null,
    "price_level": "",
    "open_hours": "",
    "extraction_timestamp": "2025-06-07T16:13:06.002Z",
    "source_name": "google",
    "source_query": "Irrigation Equipment",
    "source_country": "IT",
    "country": "Italy",
    "state": "Emilia-Romagna",
    "city": "Ozzano dell'Emilia"
  },
  {
    "source_id": "ChIJh3Nd8G0sfkcR_m7VewEmxXM",
    "name": "Irrigarden",
    "category": "Irrigarden",
    "formatted_address": "4,7(158)",
    "phone_number": "+39051782013",
    "source_url": "https://www.google.com/maps/place/Irrigarden/data=!4m7!3m6!1s0x477e2c6df05d7387:0x73c526017bd56efe!8m2!3d44.5096266!4d11.4390897!16s%2Fg%2F1vgw_l7w!19sChIJh3Nd8G0sfkcR_m7VewEmxXM?authuser=0&hl=tr&rclk=1",
    "website_url": "https://www.irrigarden-bo.it/",
    "rating_text": "4,7",
    "stars": null,
    "number_of_reviews": null,
    "price_level": "",
    "open_hours": "",
    "extraction_timestamp": "2025-06-07T16:13:06.004Z",
    "source_name": "google",
    "source_query": "Irrigation Equipment",
    "source_country": "IT",
    "country": "Italy",
    "state": "Emilia-Romagna",
    "city": "Ozzano dell'Emilia"
  },
  {
    "source_id": "ChIJUQemEbQpfkcRXfu8r_HVYV8",
    "name": "Top Impianti",
    "category": "Top Impianti",
    "formatted_address": "4,8(65)",
    "phone_number": "+390514985861",
    "source_url": "https://www.google.com/maps/place/Top+Impianti/data=!4m7!3m6!1s0x477e29b411a60751:0x5f61d5f1afbcfb5d!8m2!3d44.4466349!4d11.4671869!16s%2Fg%2F11sj5d32n6!19sChIJUQemEbQpfkcRXfu8r_HVYV8?authuser=0&hl=tr&rclk=1",
    "website_url": "https://www.topimpianti.eu/",
    "rating_text": "4,8",
    "stars": null,
    "number_of_reviews": null,
    "price_level": "",
    "open_hours": "",
    "extraction_timestamp": "2025-06-07T16:13:06.005Z",
    "source_name": "google",
    "source_query": "Irrigation Equipment",
    "source_country": "IT",
    "country": "Italy",
    "state": "Emilia-Romagna",
    "city": "Ozzano dell'Emilia"
  },
  {
    "source_id": "ChIJyXgg68QrfkcRAaJCOMJ3PxY",
    "name": "hidrisistem",
    "category": "hidrisistem",
    "formatted_address": "5,0(1)",
    "phone_number": "+39366448310824",
    "source_url": "https://www.google.com/maps/place/hidrisistem/data=!4m7!3m6!1s0x477e2bc4eb2078c9:0x163f77c23842a201!8m2!3d44.496029!4d11.402638!16s%2Fg%2F11w_zjhjy3!19sChIJyXgg68QrfkcRAaJCOMJ3PxY?authuser=0&hl=tr&rclk=1",
    "website_url": "",
    "rating_text": "5,0",
    "stars": null,
    "number_of_reviews": null,
    "price_level": "",
    "open_hours": "",
    "extraction_timestamp": "2025-06-07T16:13:06.006Z",
    "source_name": "google",
    "source_query": "Irrigation Equipment",
    "source_country": "IT",
    "country": "Italy",
    "state": "Emilia-Romagna",
    "city": "Ozzano dell'Emilia"
  },
  {
    "source_id": "ChIJ_SYf2IMsfkcRVw9xVhrnjyI",
    "name": "Irrigazione Bragaglia",
    "category": "Irrigazione Bragaglia",
    "formatted_address": "4,7(30)",
    "phone_number": "+39051534865",
    "source_url": "https://www.google.com/maps/place/Irrigazione+Bragaglia/data=!4m7!3m6!1s0x477e2c83d81f26fd:0x228fe71a56710f57!8m2!3d44.5053735!4d11.412403!16s%2Fg%2F1vp6z0gf!19sChIJ_SYf2IMsfkcRVw9xVhrnjyI?authuser=0&hl=tr&rclk=1",
    "website_url": "http://www.irrigazionebragaglia.it/",
    "rating_text": "4,7",
    "stars": null,
    "number_of_reviews": null,
    "price_level": "",
    "open_hours": "",
    "extraction_timestamp": "2025-06-07T16:13:06.008Z",
    "source_name": "google",
    "source_query": "Irrigation Equipment",
    "source_country": "IT",
    "country": "Italy",
    "state": "Emilia-Romagna",
    "city": "Ozzano dell'Emilia"
  },
  {
    "source_id": "ChIJ6xsv0r4pfkcRC8wGVgF9R4I",
    "name": "Sphera Group S.n.c.",
    "category": "Sphera Group S.n.c.",
    "formatted_address": "Klima Sistemleri · Via Giacomo Leopardi, 3Kapalı ⋅ Açılış zamanı: Pzt 09:00 · +39 051 028 3594",
    "phone_number": "+390510283594",
    "source_url": "https://www.google.com/maps/place/Sphera+Group+S.n.c./data=!4m7!3m6!1s0x477e29bed22f1beb:0x82477d015606cc0b!8m2!3d44.4433152!4d11.4706293!16s%2Fg%2F11b6d4dvdl!19sChIJ6xsv0r4pfkcRC8wGVgF9R4I?authuser=0&hl=tr&rclk=1",
    "website_url": "http://www.spheragroupbo.com/",
    "rating_text": "",
    "stars": null,
    "number_of_reviews": null,
    "price_level": "",
    "open_hours": "",
    "extraction_timestamp": "2025-06-07T16:13:06.009Z",
    "source_name": "google",
    "source_query": "Irrigation Equipment",
    "source_country": "IT",
    "country": "Italy",
    "state": "Emilia-Romagna",
    "city": "Ozzano dell'Emilia"
  },
  {
    "source_id": "ChIJmUKn41cofkcRiwC10xP_mc8",
    "name": "DIPIA s.r.l.",
    "category": "DIPIA s.r.l.",
    "formatted_address": "4,6(15)",
    "phone_number": "+39051797912",
    "source_url": "https://www.google.com/maps/place/DIPIA+s.r.l./data=!4m7!3m6!1s0x477e2857e3a74299:0xcf99ff13d3b5008b!8m2!3d44.455748!4d11.504322!16s%2Fg%2F11cn3m04ql!19sChIJmUKn41cofkcRiwC10xP_mc8?authuser=0&hl=tr&rclk=1",
    "website_url": "https://www.dipia.it/",
    "rating_text": "4,6",
    "stars": null,
    "number_of_reviews": null,
    "price_level": "",
    "open_hours": "",
    "extraction_timestamp": "2025-06-07T16:13:06.010Z",
    "source_name": "google",
    "source_query": "Irrigation Equipment",
    "source_country": "IT",
    "country": "Italy",
    "state": "Emilia-Romagna",
    "city": "Ozzano dell'Emilia"
  },
  {
    "source_id": "ChIJ3_H07bQpfkcRLyZ3IM8cH3E",
    "name": "Farlan Impianti Tecnologici",
    "category": "Farlan Impianti Tecnologici",
    "formatted_address": "5,0(1)",
    "phone_number": "+39051790399",
    "source_url": "https://www.google.com/maps/place/Farlan+Impianti+Tecnologici/data=!4m7!3m6!1s0x477e29b4edf4f1df:0x711f1ccf2077262f!8m2!3d44.442479!4d11.486913!16s%2Fg%2F1w6r7369!19sChIJ3_H07bQpfkcRLyZ3IM8cH3E?authuser=0&hl=tr&rclk=1",
    "website_url": "",
    "rating_text": "5,0",
    "stars": null,
    "number_of_reviews": null,
    "price_level": "",
    "open_hours": "",
    "extraction_timestamp": "2025-06-07T16:13:06.012Z",
    "source_name": "google",
    "source_query": "Irrigation Equipment",
    "source_country": "IT",
    "country": "Italy",
    "state": "Emilia-Romagna",
    "city": "Ozzano dell'Emilia"
  },
  {
    "source_id": "ChIJj6lqi20sfkcRzOHfxextuA0",
    "name": "La Pioggia",
    "category": "La Pioggia",
    "formatted_address": "4,6(54)",
    "phone_number": "+39051781194",
    "source_url": "https://www.google.com/maps/place/La+Pioggia/data=!4m7!3m6!1s0x477e2c6d8b6aa98f:0xdb86decc5dfe1cc!8m2!3d44.5092215!4d11.4394615!16s%2Fg%2F1tffc0h0!19sChIJj6lqi20sfkcRzOHfxextuA0?authuser=0&hl=tr&rclk=1",
    "website_url": "http://www.lapioggia.it/",
    "rating_text": "4,6",
    "stars": null,
    "number_of_reviews": null,
    "price_level": "",
    "open_hours": "",
    "extraction_timestamp": "2025-06-07T16:13:06.013Z",
    "source_name": "google",
    "source_query": "Irrigation Equipment",
    "source_country": "IT",
    "country": "Italy",
    "state": "Emilia-Romagna",
    "city": "Ozzano dell'Emilia"
  },
  {
    "source_id": "ChIJF2LQITEpfkcRt1zrqr-e88o",
    "name": "Brico Ok - Ozzano dell'Emilia",
    "category": "Brico Ok - Ozzano dell'Emilia",
    "formatted_address": "3,7(67)",
    "phone_number": "+390510195953",
    "source_url": "https://www.google.com/maps/place/Brico+Ok+-+Ozzano+dell%27Emilia/data=!4m7!3m6!1s0x477e293121d06217:0xcaf39ebfaaeb5cb7!8m2!3d44.4397704!4d11.4882952!16s%2Fg%2F11vm6q4xvs!19sChIJF2LQITEpfkcRt1zrqr-e88o?authuser=0&hl=tr&rclk=1",
    "website_url": "https://www.bricook.it/",
    "rating_text": "3,7",
    "stars": null,
    "number_of_reviews": null,
    "price_level": "",
    "open_hours": "",
    "extraction_timestamp": "2025-06-07T16:13:06.015Z",
    "source_name": "google",
    "source_query": "Irrigation Equipment",
    "source_country": "IT",
    "country": "Italy",
    "state": "Emilia-Romagna",
    "city": "Ozzano dell'Emilia"
  },
  {
    "source_id": "ChIJo38Iz0oofkcRV2inyACrtAM",
    "name": "Ferramenta Ozzanese S.N.C.",
    "category": "Ferramenta Ozzanese S.N.C.",
    "formatted_address": "4,4(431)",
    "phone_number": "+39051799285",
    "source_url": "https://www.google.com/maps/place/Ferramenta+Ozzanese+S.N.C./data=!4m7!3m6!1s0x477e284acf087fa3:0x3b4ab00c8a76857!8m2!3d44.4396548!4d11.4892875!16s%2Fg%2F1w97t72s!19sChIJo38Iz0oofkcRV2inyACrtAM?authuser=0&hl=tr&rclk=1",
    "website_url": "",
    "rating_text": "4,4",
    "stars": null,
    "number_of_reviews": null,
    "price_level": "",
    "open_hours": "",
    "extraction_timestamp": "2025-06-07T16:13:06.016Z",
    "source_name": "google",
    "source_query": "Irrigation Equipment",
    "source_country": "IT",
    "country": "Italy",
    "state": "Emilia-Romagna",
    "city": "Ozzano dell'Emilia"
  },
  {
    "source_id": "ChIJI_Yx0MgrfkcRfkeGxrLfjdU",
    "name": "OPIELLE IMPIANTI S.R.L. Oleodinamica-Pneumatica-Lubrificazione",
    "category": "OPIELLE IMPIANTI S.R.L. Oleodinamica-Pneumatica-Lubrificazione",
    "formatted_address": "5,0(2)",
    "phone_number": "+390510933969",
    "source_url": "https://www.google.com/maps/place/OPIELLE+IMPIANTI+S.R.L.+Oleodinamica-Pneumatica-Lubrificazione/data=!4m7!3m6!1s0x477e2bc8d031f623:0xd58ddfb2c686477e!8m2!3d44.470623!4d11.4344806!16s%2Fg%2F11xbwjc09!19sChIJI_Yx0MgrfkcRfkeGxrLfjdU?authuser=0&hl=tr&rclk=1",
    "website_url": "http://www.opielle.it/",
    "rating_text": "5,0",
    "stars": null,
    "number_of_reviews": null,
    "price_level": "",
    "open_hours": "",
    "extraction_timestamp": "2025-06-07T16:13:06.018Z",
    "source_name": "google",
    "source_query": "Irrigation Equipment",
    "source_country": "IT",
    "country": "Italy",
    "state": "Emilia-Romagna",
    "city": "Ozzano dell'Emilia"
  },
  {
    "source_id": "ChIJCXuseTHTf0cRzptQ0pGelFU",
    "name": "Alpe Hydraulic Systems Water Meters",
    "category": "Alpe Hydraulic Systems Water Meters",
    "formatted_address": "Su Hizmeti Sağlayıcısı · Via del Gomito, 23+39 051 326854",
    "phone_number": "+39051326854",
    "source_url": "https://www.google.com/maps/place/Alpe+Hydraulic+Systems+Water+Meters/data=!4m7!3m6!1s0x477fd33179ac7b09:0x55949e91d2509bce!8m2!3d44.531701!4d11.3753288!16s%2Fg%2F1tjt0slq!19sChIJCXuseTHTf0cRzptQ0pGelFU?authuser=0&hl=tr&rclk=1",
    "website_url": "http://www.ahs.it/",
    "rating_text": "",
    "stars": null,
    "number_of_reviews": null,
    "price_level": "",
    "open_hours": "",
    "extraction_timestamp": "2025-06-07T16:13:06.019Z",
    "source_name": "google",
    "source_query": "Irrigation Equipment",
    "source_country": "IT",
    "country": "Italy",
    "state": "Emilia-Romagna",
    "city": "Ozzano dell'Emilia"
  },
  {
    "source_id": "ChIJneG4xqQrfkcRXZ2DBzQAOco",
    "name": "Elettromeccanica Gruppioni",
    "category": "Elettromeccanica Gruppioni",
    "formatted_address": "4,1(7)",
    "phone_number": "+39051462110",
    "source_url": "https://www.google.com/maps/place/Elettromeccanica+Gruppioni/data=!4m7!3m6!1s0x477e2ba4c6b8e19d:0xca39003407839d5d!8m2!3d44.4774004!4d11.4187028!16s%2Fg%2F1wc46tr7!19sChIJneG4xqQrfkcRXZ2DBzQAOco?authuser=0&hl=tr&rclk=1",
    "website_url": "https://www.elettromeccanica-gruppioni.com/",
    "rating_text": "4,1",
    "stars": null,
    "number_of_reviews": null,
    "price_level": "",
    "open_hours": "",
    "extraction_timestamp": "2025-06-07T16:13:06.020Z",
    "source_name": "google",
    "source_query": "Irrigation Equipment",
    "source_country": "IT",
    "country": "Italy",
    "state": "Emilia-Romagna",
    "city": "Ozzano dell'Emilia"
  },
  {
    "source_id": "ChIJdbi1mvUlfkcRw_VX1yUWxp8",
    "name": "Hydro Italia srl - Trattamento e Depurazione Acque Industriali",
    "category": "Hydro Italia srl - Trattamento e Depurazione Acque Industriali",
    "formatted_address": "4,0(2)",
    "phone_number": "+39051856263",
    "source_url": "https://www.google.com/maps/place/Hydro+Italia+srl+-+Trattamento+e+Depurazione+Acque+Industriali/data=!4m7!3m6!1s0x477e25f59ab5b875:0x9fc61625d757f5c3!8m2!3d44.5025405!4d11.560667!16s%2Fg%2F1tdjp_4w!19sChIJdbi1mvUlfkcRw_VX1yUWxp8?authuser=0&hl=tr&rclk=1",
    "website_url": "https://www.hydroitalia.com/?utm_source=google&utm_medium=mybusiness&utm_campaign=url-sito",
    "rating_text": "4,0",
    "stars": null,
    "number_of_reviews": null,
    "price_level": "",
    "open_hours": "",
    "extraction_timestamp": "2025-06-07T16:13:06.021Z",
    "source_name": "google",
    "source_query": "Irrigation Equipment",
    "source_country": "IT",
    "country": "Italy",
    "state": "Emilia-Romagna",
    "city": "Ozzano dell'Emilia"
  },
  {
    "source_id": "ChIJTbVQ3LYpfkcRdVho-FnXmp0",
    "name": "Vetefar srl",
    "category": "Vetefar srl",
    "formatted_address": "4,4(246)",
    "phone_number": "+39051798658",
    "source_url": "https://www.google.com/maps/place/Vetefar+srl/data=!4m7!3m6!1s0x477e29b6dc50b54d:0x9d9ad759f8685875!8m2!3d44.440099!4d11.4896814!16s%2Fg%2F1hc11m3sb!19sChIJTbVQ3LYpfkcRdVho-FnXmp0?authuser=0&hl=tr&rclk=1",
    "website_url": "http://www.vetefar.it/",
    "rating_text": "4,4",
    "stars": null,
    "number_of_reviews": null,
    "price_level": "",
    "open_hours": "",
    "extraction_timestamp": "2025-06-07T16:13:06.022Z",
    "source_name": "google",
    "source_query": "Irrigation Equipment",
    "source_country": "IT",
    "country": "Italy",
    "state": "Emilia-Romagna",
    "city": "Ozzano dell'Emilia"
  },
  {
    "source_id": "ChIJCf5GXp9ywgwRjOaHi3EuOyk",
    "name": "T.R.I. italia srl irrigazione",
    "category": "T.R.I. italia srl irrigazione",
    "formatted_address": "",
    "phone_number": "+393492227322",
    "source_url": "https://www.google.com/maps/place/T.R.I.+italia+srl+irrigazione/data=!4m7!3m6!1s0xcc2729f5e46fe09:0x293b2e718b87e68c!8m2!3d41.29085!4d12.71216!16s%2Fg%2F11wqp9bx1c!19sChIJCf5GXp9ywgwRjOaHi3EuOyk?authuser=0&hl=tr&rclk=1",
    "website_url": "",
    "rating_text": "",
    "stars": null,
    "number_of_reviews": null,
    "price_level": "",
    "open_hours": "",
    "extraction_timestamp": "2025-06-07T16:13:06.023Z",
    "source_name": "google",
    "source_query": "Irrigation Equipment",
    "source_country": "IT",
    "country": "Italy",
    "state": "Emilia-Romagna",
    "city": "Ozzano dell'Emilia"
  },
  {
    "source_id": "ChIJ9UosqzHbASoR02d0Tw_sUAk",
    "name": "TRI italia srl",
    "category": "TRI italia srl",
    "formatted_address": "",
    "phone_number": "+393492227322",
    "source_url": "https://www.google.com/maps/place/TRI+italia+srl/data=!4m7!3m6!1s0x2a01db31ab2c4af5:0x950ec0f4f7467d3!8m2!3d41.29085!4d12.71216!16s%2Fg%2F11wqp8w6f4!19sChIJ9UosqzHbASoR02d0Tw_sUAk?authuser=0&hl=tr&rclk=1",
    "website_url": "",
    "rating_text": "",
    "stars": null,
    "number_of_reviews": null,
    "price_level": "",
    "open_hours": "",
    "extraction_timestamp": "2025-06-07T16:13:06.024Z",
    "source_name": "google",
    "source_query": "Irrigation Equipment",
    "source_country": "IT",
    "country": "Italy",
    "state": "Emilia-Romagna",
    "city": "Ozzano dell'Emilia"
  }
]
