[
  {
    "source_id": "ChIJJ8lHSN-lLBMRyK6NjPORcgI",
    "name": "Techoil S.r.l.",
    "category": "Techoil S.r.l.",
    "formatted_address": "5,0(12)",
    "phone_number": "+390543745321",
    "source_url": "https://www.google.com/maps/place/Techoil+S.r.l./data=!4m7!3m6!1s0x132ca5df4847c927:0x27291f38c8daec8!8m2!3d44.1775705!4d12.1640636!16s%2Fg%2F11b5wj3qqz!19sChIJJ8lHSN-lLBMRyK6NjPORcgI?authuser=0&hl=tr&rclk=1",
    "website_url": "http://www.techoil.it/",
    "rating_text": "5,0",
    "stars": null,
    "number_of_reviews": null,
    "price_level": "",
    "open_hours": "",
    "extraction_timestamp": "2025-06-07T15:59:47.167Z",
    "source_name": "google",
    "source_query": "Irrigation Equipment",
    "source_country": "IT",
    "country": "Italy",
    "state": "Emilia-Romagna",
    "city": "Panighina"
  },
  {
    "source_id": "ChIJy4AVn9C-LBMRn6nsnuZl82A",
    "name": "Ramilli Irrigazioni S.R.L.",
    "category": "Ramilli Irrigazioni S.R.L.",
    "formatted_address": "4,3(52)",
    "phone_number": "+390541945335",
    "source_url": "https://www.google.com/maps/place/Ramilli+Irrigazioni+S.R.L./data=!4m7!3m6!1s0x132cbed09f1580cb:0x60f365e69eeca99f!8m2!3d44.0923156!4d12.3843691!16s%2Fg%2F1ts2ls1r!19sChIJy4AVn9C-LBMRn6nsnuZl82A?authuser=0&hl=tr&rclk=1",
    "website_url": "https://www.ramilli.it/",
    "rating_text": "4,3",
    "stars": null,
    "number_of_reviews": null,
    "price_level": "",
    "open_hours": "",
    "extraction_timestamp": "2025-06-07T15:59:47.167Z",
    "source_name": "google",
    "source_query": "Irrigation Equipment",
    "source_country": "IT",
    "country": "Italy",
    "state": "Emilia-Romagna",
    "city": "Panighina"
  },
  {
    "source_id": "ChIJtdPsi7ClLBMRByefwWrMyPY",
    "name": "Hidrosystem Italia S.r.l.",
    "category": "Hidrosystem Italia S.r.l.",
    "formatted_address": "5,0(2)",
    "phone_number": "+3905471796484",
    "source_url": "https://www.google.com/maps/place/Hidrosystem+Italia+S.r.l./data=!4m7!3m6!1s0x132ca5b08becd3b5:0xf6c8cc6ac19f2707!8m2!3d44.1683298!4d12.1606274!16s%2Fg%2F11g1b1dqk2!19sChIJtdPsi7ClLBMRByefwWrMyPY?authuser=0&hl=tr&rclk=1",
    "website_url": "http://www.hidrosystem.eu/",
    "rating_text": "5,0",
    "stars": null,
    "number_of_reviews": null,
    "price_level": "",
    "open_hours": "",
    "extraction_timestamp": "2025-06-07T15:59:47.168Z",
    "source_name": "google",
    "source_query": "Irrigation Equipment",
    "source_country": "IT",
    "country": "Italy",
    "state": "Emilia-Romagna",
    "city": "Panighina"
  },
  {
    "source_id": "ChIJFW3XPJejLBMRDpQWGwmYqU4",
    "name": "Raggini Irrigazioni e Robot Tosaerba",
    "category": "Raggini Irrigazioni e Robot Tosaerba",
    "formatted_address": "5,0(1)",
    "phone_number": "+393926808947",
    "source_url": "https://www.google.com/maps/place/Raggini+Irrigazioni+e+Robot+Tosaerba/data=!4m7!3m6!1s0x132ca3973cd76d15:0x4ea998091b16940e!8m2!3d44.36369!4d11.8460774!16s%2Fg%2F11dz0bbs9t!19sChIJFW3XPJejLBMRDpQWGwmYqU4?authuser=0&hl=tr&rclk=1",
    "website_url": "",
    "rating_text": "5,0",
    "stars": null,
    "number_of_reviews": null,
    "price_level": "",
    "open_hours": "",
    "extraction_timestamp": "2025-06-07T15:59:47.168Z",
    "source_name": "google",
    "source_query": "Irrigation Equipment",
    "source_country": "IT",
    "country": "Italy",
    "state": "Emilia-Romagna",
    "city": "Panighina"
  }
]
