[
  {
    "source_id": "ChIJtVDkNgRFgEcRqc6umwWIJuI",
    "name": "Rm Spa",
    "category": "Rm Spa",
    "formatted_address": "4,6(81)",
    "phone_number": "+390521872321",
    "source_url": "https://www.google.com/maps/place/Rm+Spa/data=!4m7!3m6!1s0x4780450436e450b5:0xe22688059baecea9!8m2!3d44.9105406!4d10.2583785!16s%2Fg%2F12hl93byl!19sChIJtVDkNgRFgEcRqc6umwWIJuI?authuser=0&hl=tr&rclk=1",
    "website_url": "",
    "rating_text": "4,6",
    "stars": null,
    "number_of_reviews": null,
    "price_level": "",
    "open_hours": "",
    "extraction_timestamp": "2025-06-07T16:59:48.636Z",
    "source_name": "google",
    "source_query": "Irrigation Equipment",
    "source_country": "IT",
    "country": "Italy",
    "state": "Emilia-Romagna",
    "city": "Parma"
  },
  {
    "source_id": "ChIJv-LktyZAgEcR4FCP_T_dgwo",
    "name": "Tecnomat",
    "category": "Tecnomat",
    "formatted_address": "4,2(6.681)",
    "phone_number": "+390283905463",
    "source_url": "https://www.google.com/maps/place/Tecnomat/data=!4m7!3m6!1s0x47804026b7e4e2bf:0xa83dd3ffd8f50e0!8m2!3d44.8338762!4d10.3376824!16s%2Fg%2F11b5pj9j55!19sChIJv-LktyZAgEcR4FCP_T_dgwo?authuser=0&hl=tr&rclk=1",
    "website_url": "",
    "rating_text": "4,2",
    "stars": null,
    "number_of_reviews": null,
    "price_level": "",
    "open_hours": "",
    "extraction_timestamp": "2025-06-07T16:59:48.637Z",
    "source_name": "google",
    "source_query": "Irrigation Equipment",
    "source_country": "IT",
    "country": "Italy",
    "state": "Emilia-Romagna",
    "city": "Parma"
  },
  {
    "source_id": "ChIJ3ffAufBtgEcRCytqNHDLXR4",
    "name": "Del Frate Srl",
    "category": "Del Frate Srl",
    "formatted_address": "4,8(37)",
    "phone_number": "+390521986971",
    "source_url": "https://www.google.com/maps/place/Del+Frate+Srl/data=!4m7!3m6!1s0x47806df0b9c0f7dd:0x1e5dcb70346a2b0b!8m2!3d44.8108795!4d10.3145985!16s%2Fg%2F119w9gdyl!19sChIJ3ffAufBtgEcRCytqNHDLXR4?authuser=0&hl=tr&rclk=1",
    "website_url": "",
    "rating_text": "4,8",
    "stars": null,
    "number_of_reviews": null,
    "price_level": "",
    "open_hours": "",
    "extraction_timestamp": "2025-06-07T16:59:48.637Z",
    "source_name": "google",
    "source_query": "Irrigation Equipment",
    "source_country": "IT",
    "country": "Italy",
    "state": "Emilia-Romagna",
    "city": "Parma"
  },
  {
    "source_id": "ChIJFVDnN95rgEcRCofHBagiDCk",
    "name": "AFIS Parma (Magazzino)",
    "category": "AFIS Parma (Magazzino)",
    "formatted_address": "4,5(79)",
    "phone_number": "+3905211390000",
    "source_url": "https://www.google.com/maps/place/AFIS+Parma+%28Magazzino%29/data=!4m7!3m6!1s0x47806bde37e75015:0x290c22a805c7870a!8m2!3d44.8121118!4d10.3080465!16s%2Fg%2F11hyp5wjjt!19sChIJFVDnN95rgEcRCofHBagiDCk?authuser=0&hl=tr&rclk=1",
    "website_url": "",
    "rating_text": "4,5",
    "stars": null,
    "number_of_reviews": null,
    "price_level": "",
    "open_hours": "",
    "extraction_timestamp": "2025-06-07T16:59:48.637Z",
    "source_name": "google",
    "source_query": "Irrigation Equipment",
    "source_country": "IT",
    "country": "Italy",
    "state": "Emilia-Romagna",
    "city": "Parma"
  },
  {
    "source_id": "ChIJC4I8YwsVgEcRCOpZEnLtD1c",
    "name": "Bertani S.p.a. - Magazzino di Parma",
    "category": "Bertani S.p.a. - Magazzino di Parma",
    "formatted_address": "4,9(14)",
    "phone_number": "+390521798182",
    "source_url": "https://www.google.com/maps/place/Bertani+S.p.a.+-+Magazzino+di+Parma/data=!4m7!3m6!1s0x4780150b633c820b:0x570fed721259ea08!8m2!3d44.8100767!4d10.3630365!16s%2Fg%2F11s8dp6_25!19sChIJC4I8YwsVgEcRCOpZEnLtD1c?authuser=0&hl=tr&rclk=1",
    "website_url": "",
    "rating_text": "4,9",
    "stars": null,
    "number_of_reviews": null,
    "price_level": "",
    "open_hours": "",
    "extraction_timestamp": "2025-06-07T16:59:48.638Z",
    "source_name": "google",
    "source_query": "Irrigation Equipment",
    "source_country": "IT",
    "country": "Italy",
    "state": "Emilia-Romagna",
    "city": "Parma"
  },
  {
    "source_id": "ChIJny4rZN1rgEcRMizSk7aYE_k",
    "name": "Parmatek Idraulica - Riparazioni e Certificazioni Impianti a Parma",
    "category": "Parmatek Idraulica - Riparazioni e Certificazioni Impianti a Parma",
    "formatted_address": "5,0(61)",
    "phone_number": "+39347294021924",
    "source_url": "https://www.google.com/maps/place/Parmatek+Idraulica+-+Riparazioni+e+Certificazioni+Impianti+a+Parma/data=!4m7!3m6!1s0x47806bdd642b2e9f:0xf91398b693d22c32!8m2!3d44.8171153!4d10.3293141!16s%2Fg%2F11w4rk6g26!19sChIJny4rZN1rgEcRMizSk7aYE_k?authuser=0&hl=tr&rclk=1",
    "website_url": "",
    "rating_text": "5,0",
    "stars": null,
    "number_of_reviews": null,
    "price_level": "",
    "open_hours": "",
    "extraction_timestamp": "2025-06-07T16:59:48.638Z",
    "source_name": "google",
    "source_query": "Irrigation Equipment",
    "source_country": "IT",
    "country": "Italy",
    "state": "Emilia-Romagna",
    "city": "Parma"
  },
  {
    "source_id": "ChIJEyv6InRHgEcRUQtoj18c7bM",
    "name": "Tesoro Impianti Idraulico Parma",
    "category": "Tesoro Impianti Idraulico Parma",
    "formatted_address": "4,8(80)",
    "phone_number": "+39328852121024",
    "source_url": "https://www.google.com/maps/place/Tesoro+Impianti+Idraulico+Parma/data=!4m7!3m6!1s0x4780477422fa2b13:0xb3ed1c5f8f680b51!8m2!3d44.7997131!4d10.3374215!16s%2Fg%2F11ll7cv3r4!19sChIJEyv6InRHgEcRUQtoj18c7bM?authuser=0&hl=tr&rclk=1",
    "website_url": "",
    "rating_text": "4,8",
    "stars": null,
    "number_of_reviews": null,
    "price_level": "",
    "open_hours": "",
    "extraction_timestamp": "2025-06-07T16:59:48.638Z",
    "source_name": "google",
    "source_query": "Irrigation Equipment",
    "source_country": "IT",
    "country": "Italy",
    "state": "Emilia-Romagna",
    "city": "Parma"
  },
  {
    "source_id": "ChIJvWESljtqgEcRyACWMGuoih0",
    "name": "Idro Verde",
    "category": "Idro Verde",
    "formatted_address": "Çim Yağmurlama Sistemi Yüklenicisi ·  · Via Emilia Ovest, 129Açık ⋅ Kapanış saati: 21:00 · +39 338 397 2503",
    "phone_number": "+393383972503",
    "source_url": "https://www.google.com/maps/place/Idro+Verde/data=!4m7!3m6!1s0x47806a3b961261bd:0x1d8aa86b309600c8!8m2!3d44.8113047!4d10.2811005!16s%2Fg%2F11c6y_k67v!19sChIJvWESljtqgEcRyACWMGuoih0?authuser=0&hl=tr&rclk=1",
    "website_url": "",
    "rating_text": "",
    "stars": null,
    "number_of_reviews": null,
    "price_level": "",
    "open_hours": "",
    "extraction_timestamp": "2025-06-07T16:59:48.639Z",
    "source_name": "google",
    "source_query": "Irrigation Equipment",
    "source_country": "IT",
    "country": "Italy",
    "state": "Emilia-Romagna",
    "city": "Parma"
  },
  {
    "source_id": "ChIJ30RJaL9qgEcRNHGGsivmkDs",
    "name": "Gazza Anselmo",
    "category": "Gazza Anselmo",
    "formatted_address": "4,8(13)",
    "phone_number": "+390521784943",
    "source_url": "https://www.google.com/maps/place/Gazza+Anselmo/data=!4m7!3m6!1s0x47806abf684944df:0x3b90e62bb2867134!8m2!3d44.8122901!4d10.3403136!16s%2Fg%2F11bc7nlnjr!19sChIJ30RJaL9qgEcRNHGGsivmkDs?authuser=0&hl=tr&rclk=1",
    "website_url": "",
    "rating_text": "4,8",
    "stars": null,
    "number_of_reviews": null,
    "price_level": "",
    "open_hours": "",
    "extraction_timestamp": "2025-06-07T16:59:48.639Z",
    "source_name": "google",
    "source_query": "Irrigation Equipment",
    "source_country": "IT",
    "country": "Italy",
    "state": "Emilia-Romagna",
    "city": "Parma"
  },
  {
    "source_id": "ChIJW6_4YAdrgEcRr9Ewwgwp5wM",
    "name": "Idraulica Emiliana S.p.A.",
    "category": "Idraulica Emiliana S.p.A.",
    "formatted_address": "4,4(15)",
    "phone_number": "+390521953311",
    "source_url": "https://www.google.com/maps/place/Idraulica+Emiliana+S.p.A./data=!4m7!3m6!1s0x47806b0760f8af5b:0x3e7290cc230d1af!8m2!3d44.7899429!4d10.3052022!16s%2Fg%2F11c6v98y5k!19sChIJW6_4YAdrgEcRr9Ewwgwp5wM?authuser=0&hl=tr&rclk=1",
    "website_url": "",
    "rating_text": "4,4",
    "stars": null,
    "number_of_reviews": null,
    "price_level": "",
    "open_hours": "",
    "extraction_timestamp": "2025-06-07T16:59:48.639Z",
    "source_name": "google",
    "source_query": "Irrigation Equipment",
    "source_country": "IT",
    "country": "Italy",
    "state": "Emilia-Romagna",
    "city": "Parma"
  },
  {
    "source_id": "ChIJv8HEBmw-gEcRVNdR6E-nqBU",
    "name": "SACCO' WT S.r.l. - Trattamento Acqua",
    "category": "SACCO' WT S.r.l. - Trattamento Acqua",
    "formatted_address": "5,0(2)",
    "phone_number": "+3905211511405",
    "source_url": "https://www.google.com/maps/place/SACCO%27+WT+S.r.l.+-+Trattamento+Acqua/data=!4m7!3m6!1s0x47803e6c06c4c1bf:0x15a8a74fe851d754!8m2!3d44.7516192!4d10.3312489!16s%2Fg%2F1vvywybb!19sChIJv8HEBmw-gEcRVNdR6E-nqBU?authuser=0&hl=tr&rclk=1",
    "website_url": "",
    "rating_text": "5,0",
    "stars": null,
    "number_of_reviews": null,
    "price_level": "",
    "open_hours": "",
    "extraction_timestamp": "2025-06-07T16:59:48.655Z",
    "source_name": "google",
    "source_query": "Irrigation Equipment",
    "source_country": "IT",
    "country": "Italy",
    "state": "Emilia-Romagna",
    "city": "Parma"
  },
  {
    "source_id": "ChIJr-Ej5xlqgEcR4151q3Mxkms",
    "name": "Idro Alexander S.N.C.",
    "category": "Idro Alexander S.N.C.",
    "formatted_address": "4,6(11)",
    "phone_number": "+390521671107",
    "source_url": "https://www.google.com/maps/place/Idro+Alexander+S.N.C./data=!4m7!3m6!1s0x47806a19e723e1af:0x6b923173ab755ee3!8m2!3d44.8204807!4d10.2802481!16s%2Fg%2F11b6hs_2hl!19sChIJr-Ej5xlqgEcR4151q3Mxkms?authuser=0&hl=tr&rclk=1",
    "website_url": "",
    "rating_text": "4,6",
    "stars": null,
    "number_of_reviews": null,
    "price_level": "",
    "open_hours": "",
    "extraction_timestamp": "2025-06-07T16:59:48.658Z",
    "source_name": "google",
    "source_query": "Irrigation Equipment",
    "source_country": "IT",
    "country": "Italy",
    "state": "Emilia-Romagna",
    "city": "Parma"
  },
  {
    "source_id": "ChIJ7W4u4kJqgEcRmHxRDr8ltC4",
    "name": "Tekna Parma",
    "category": "Tekna Parma",
    "formatted_address": "3,5(2)",
    "phone_number": "+390521294824",
    "source_url": "https://www.google.com/maps/place/Tekna+Parma/data=!4m7!3m6!1s0x47806a42e22e6eed:0x2eb425bf0e517c98!8m2!3d44.812968!4d10.2993676!16s%2Fg%2F1wj_s3fc!19sChIJ7W4u4kJqgEcRmHxRDr8ltC4?authuser=0&hl=tr&rclk=1",
    "website_url": "",
    "rating_text": "3,5",
    "stars": null,
    "number_of_reviews": null,
    "price_level": "",
    "open_hours": "",
    "extraction_timestamp": "2025-06-07T16:59:48.659Z",
    "source_name": "google",
    "source_query": "Irrigation Equipment",
    "source_country": "IT",
    "country": "Italy",
    "state": "Emilia-Romagna",
    "city": "Parma"
  },
  {
    "source_id": "ChIJfcxGZexrgEcRMWX-716QAsk",
    "name": "Ce.R'Id",
    "category": "Ce.R'Id",
    "formatted_address": "5,0(6)",
    "phone_number": "+393356047668",
    "source_url": "https://www.google.com/maps/place/Ce.R%27Id/data=!4m7!3m6!1s0x47806bec6546cc7d:0xc902905eeffe6531!8m2!3d44.7749237!4d10.2711479!16s%2Fg%2F1tqpy2qb!19sChIJfcxGZexrgEcRMWX-716QAsk?authuser=0&hl=tr&rclk=1",
    "website_url": "",
    "rating_text": "5,0",
    "stars": null,
    "number_of_reviews": null,
    "price_level": "",
    "open_hours": "",
    "extraction_timestamp": "2025-06-07T16:59:48.661Z",
    "source_name": "google",
    "source_query": "Irrigation Equipment",
    "source_country": "IT",
    "country": "Italy",
    "state": "Emilia-Romagna",
    "city": "Parma"
  },
  {
    "source_id": "ChIJAW-JIx0VgEcR__Ud2UbFFWk",
    "name": "Bertani | Impianti idrosanitari - Riscaldamento - Condizionamento",
    "category": "Bertani | Impianti idrosanitari - Riscaldamento - Condizionamento",
    "formatted_address": "3,1(8)",
    "phone_number": "+390521487570",
    "source_url": "https://www.google.com/maps/place/Bertani+%7C+Impianti+idrosanitari+-+Riscaldamento+-+Condizionamento/data=!4m7!3m6!1s0x4780151d23896f01:0x6915c546d91df5ff!8m2!3d44.7929653!4d10.3586298!16s%2Fg%2F11gh_79kky!19sChIJAW-JIx0VgEcR__Ud2UbFFWk?authuser=0&hl=tr&rclk=1",
    "website_url": "",
    "rating_text": "3,1",
    "stars": null,
    "number_of_reviews": null,
    "price_level": "",
    "open_hours": "",
    "extraction_timestamp": "2025-06-07T16:59:48.662Z",
    "source_name": "google",
    "source_query": "Irrigation Equipment",
    "source_country": "IT",
    "country": "Italy",
    "state": "Emilia-Romagna",
    "city": "Parma"
  },
  {
    "source_id": "ChIJHxpPDJVpgEcRg0ITgKft63I",
    "name": "Decathlon Parma",
    "category": "Decathlon Parma",
    "formatted_address": "4,2(3.505)",
    "phone_number": "+390521674344",
    "source_url": "https://www.google.com/maps/place/Decathlon+Parma/data=!4m7!3m6!1s0x478069950c4f1a1f:0x72ebeda780134283!8m2!3d44.817209!4d10.259103!16s%2Fg%2F1q65d2xfr!19sChIJHxpPDJVpgEcRg0ITgKft63I?authuser=0&hl=tr&rclk=1",
    "website_url": "",
    "rating_text": "4,2",
    "stars": null,
    "number_of_reviews": null,
    "price_level": "",
    "open_hours": "",
    "extraction_timestamp": "2025-06-07T16:59:48.664Z",
    "source_name": "google",
    "source_query": "Irrigation Equipment",
    "source_country": "IT",
    "country": "Italy",
    "state": "Emilia-Romagna",
    "city": "Parma"
  },
  {
    "source_id": "ChIJ3aOjU4RqgEcRgzBtKyewXNY",
    "name": "Maxima Nord Emilia S.R.L.",
    "category": "Maxima Nord Emilia S.R.L.",
    "formatted_address": "4,7(15)",
    "phone_number": "+390521798481",
    "source_url": "https://www.google.com/maps/place/Maxima+Nord+Emilia+S.R.L./data=!4m7!3m6!1s0x47806a8453a3a3dd:0xd65cb0272b6d3083!8m2!3d44.824663!4d10.32439!16s%2Fg%2F11g_97ggk!19sChIJ3aOjU4RqgEcRgzBtKyewXNY?authuser=0&hl=tr&rclk=1",
    "website_url": "",
    "rating_text": "4,7",
    "stars": null,
    "number_of_reviews": null,
    "price_level": "",
    "open_hours": "",
    "extraction_timestamp": "2025-06-07T16:59:48.665Z",
    "source_name": "google",
    "source_query": "Irrigation Equipment",
    "source_country": "IT",
    "country": "Italy",
    "state": "Emilia-Romagna",
    "city": "Parma"
  },
  {
    "source_id": "ChIJmWc1TyFqgEcRfqs0MaTNrXk",
    "name": "Ghini termoidraulica",
    "category": "Ghini termoidraulica",
    "formatted_address": "4,4(7)",
    "phone_number": "+3905211680349",
    "source_url": "https://www.google.com/maps/place/Ghini+termoidraulica/data=!4m7!3m6!1s0x47806a214f356799:0x79adcda43134ab7e!8m2!3d44.8094671!4d10.319417!16s%2Fg%2F11b6jh587f!19sChIJmWc1TyFqgEcRfqs0MaTNrXk?authuser=0&hl=tr&rclk=1",
    "website_url": "",
    "rating_text": "4,4",
    "stars": null,
    "number_of_reviews": null,
    "price_level": "",
    "open_hours": "",
    "extraction_timestamp": "2025-06-07T16:59:48.666Z",
    "source_name": "google",
    "source_query": "Irrigation Equipment",
    "source_country": "IT",
    "country": "Italy",
    "state": "Emilia-Romagna",
    "city": "Parma"
  },
  {
    "source_id": "ChIJf2MBM0VqgEcRVgfjvumBlBA",
    "name": "Würth Store & MODYF Parma",
    "category": "Würth Store & MODYF Parma",
    "formatted_address": "4,2(25)",
    "phone_number": "+390471828596",
    "source_url": "https://www.google.com/maps/place/W%C3%BCrth+Store+%26+MODYF+Parma/data=!4m7!3m6!1s0x47806a453301637f:0x109481e9bee30756!8m2!3d44.8075051!4d10.2993214!16s%2Fg%2F11g8wcnh2k!19sChIJf2MBM0VqgEcRVgfjvumBlBA?authuser=0&hl=tr&rclk=1",
    "website_url": "",
    "rating_text": "4,2",
    "stars": null,
    "number_of_reviews": null,
    "price_level": "",
    "open_hours": "",
    "extraction_timestamp": "2025-06-07T16:59:48.667Z",
    "source_name": "google",
    "source_query": "Irrigation Equipment",
    "source_country": "IT",
    "country": "Italy",
    "state": "Emilia-Romagna",
    "city": "Parma"
  },
  {
    "source_id": "ChIJM1jkGpVqgEcRhDzl07d1x00",
    "name": "Ghi.M.A.Srl Ferramenta & Forniture",
    "category": "Ghi.M.A.Srl Ferramenta & Forniture",
    "formatted_address": "4,5(83)",
    "phone_number": "+390521771555",
    "source_url": "https://www.google.com/maps/place/Ghi.M.A.Srl+Ferramenta+%26+Forniture/data=!4m7!3m6!1s0x47806a951ae45833:0x4dc775b7d3e53c84!8m2!3d44.8139552!4d10.334777!16s%2Fg%2F1v75qrjz!19sChIJM1jkGpVqgEcRhDzl07d1x00?authuser=0&hl=tr&rclk=1",
    "website_url": "",
    "rating_text": "4,5",
    "stars": null,
    "number_of_reviews": null,
    "price_level": "",
    "open_hours": "",
    "extraction_timestamp": "2025-06-07T16:59:48.668Z",
    "source_name": "google",
    "source_query": "Irrigation Equipment",
    "source_country": "IT",
    "country": "Italy",
    "state": "Emilia-Romagna",
    "city": "Parma"
  },
  {
    "source_id": "ChIJMVBuDdgUgEcRkPj9kSWPRsg",
    "name": "L'Isola dei Tesori",
    "category": "L'Isola dei Tesori",
    "formatted_address": "4,4(465)",
    "phone_number": "+390521462624",
    "source_url": "https://www.google.com/maps/place/L%27Isola+dei+Tesori/data=!4m7!3m6!1s0x478014d80d6e5031:0xc8468f2591fdf890!8m2!3d44.7900196!4d10.3645897!16s%2Fg%2F1tj9581x!19sChIJMVBuDdgUgEcRkPj9kSWPRsg?authuser=0&hl=tr&rclk=1",
    "website_url": "",
    "rating_text": "4,4",
    "stars": null,
    "number_of_reviews": null,
    "price_level": "",
    "open_hours": "",
    "extraction_timestamp": "2025-06-07T16:59:48.669Z",
    "source_name": "google",
    "source_query": "Irrigation Equipment",
    "source_country": "IT",
    "country": "Italy",
    "state": "Emilia-Romagna",
    "city": "Parma"
  },
  {
    "source_id": "ChIJecPAIDUVgEcR5ANC4zgW7Zk",
    "name": "METRO PARMA",
    "category": "METRO PARMA",
    "formatted_address": "3,8(562)",
    "phone_number": "+390521965111",
    "source_url": "https://www.google.com/maps/place/METRO+PARMA/data=!4m7!3m6!1s0x4780153520c0c379:0x99ed1638e34203e4!8m2!3d44.8072022!4d10.3610806!16s%2Fg%2F1tf9m2yl!19sChIJecPAIDUVgEcR5ANC4zgW7Zk?authuser=0&hl=tr&rclk=1",
    "website_url": "",
    "rating_text": "3,8",
    "stars": null,
    "number_of_reviews": null,
    "price_level": "",
    "open_hours": "",
    "extraction_timestamp": "2025-06-07T16:59:48.670Z",
    "source_name": "google",
    "source_query": "Irrigation Equipment",
    "source_country": "IT",
    "country": "Italy",
    "state": "Emilia-Romagna",
    "city": "Parma"
  },
  {
    "source_id": "ChIJpSVsxOUUgEcRAOtvXEtiTF4",
    "name": "Cambielli S.p.A.",
    "category": "Cambielli S.p.A.",
    "formatted_address": "4,0(9)",
    "phone_number": "+390521242106",
    "source_url": "https://www.google.com/maps/place/Cambielli+S.p.A./data=!4m7!3m6!1s0x478014e5c46c25a5:0x5e4c624b5c6feb00!8m2!3d44.7806147!4d10.3797598!16s%2Fg%2F1td6r288!19sChIJpSVsxOUUgEcRAOtvXEtiTF4?authuser=0&hl=tr&rclk=1",
    "website_url": "",
    "rating_text": "4,0",
    "stars": null,
    "number_of_reviews": null,
    "price_level": "",
    "open_hours": "",
    "extraction_timestamp": "2025-06-07T16:59:48.671Z",
    "source_name": "google",
    "source_query": "Irrigation Equipment",
    "source_country": "IT",
    "country": "Italy",
    "state": "Emilia-Romagna",
    "city": "Parma"
  },
  {
    "source_id": "ChIJs8_3BwBrgEcRdleE8WuXWEI",
    "name": "Gogogen",
    "category": "Gogogen",
    "formatted_address": "5,0(2)",
    "phone_number": "+390521668426",
    "source_url": "https://www.google.com/maps/place/Gogogen/data=!4m7!3m6!1s0x47806b0007f7cfb3:0x4258976bf1845776!8m2!3d44.7953818!4d10.3413275!16s%2Fg%2F11h31xqkjq!19sChIJs8_3BwBrgEcRdleE8WuXWEI?authuser=0&hl=tr&rclk=1",
    "website_url": "",
    "rating_text": "5,0",
    "stars": null,
    "number_of_reviews": null,
    "price_level": "",
    "open_hours": "",
    "extraction_timestamp": "2025-06-07T16:59:48.672Z",
    "source_name": "google",
    "source_query": "Irrigation Equipment",
    "source_country": "IT",
    "country": "Italy",
    "state": "Emilia-Romagna",
    "city": "Parma"
  },
  {
    "source_id": "ChIJfchOFoRqgEcRyBEZZ-sr3IM",
    "name": "Ferramenta Comat",
    "category": "Ferramenta Comat",
    "formatted_address": "4,5(105)",
    "phone_number": "+390521492448",
    "source_url": "https://www.google.com/maps/place/Ferramenta+Comat/data=!4m7!3m6!1s0x47806a84164ec87d:0x83dc2beb671911c8!8m2!3d44.8265323!4d10.3250411!16s%2Fg%2F1vlz968p!19sChIJfchOFoRqgEcRyBEZZ-sr3IM?authuser=0&hl=tr&rclk=1",
    "website_url": "",
    "rating_text": "4,5",
    "stars": null,
    "number_of_reviews": null,
    "price_level": "",
    "open_hours": "",
    "extraction_timestamp": "2025-06-07T16:59:48.674Z",
    "source_name": "google",
    "source_query": "Irrigation Equipment",
    "source_country": "IT",
    "country": "Italy",
    "state": "Emilia-Romagna",
    "city": "Parma"
  },
  {
    "source_id": "ChIJi1NKOVMVgEcRd7LzNtkbn4E",
    "name": "Decathlon",
    "category": "Decathlon",
    "formatted_address": "4,0(1.573)",
    "phone_number": "",
    "source_url": "https://www.google.com/maps/place/Decathlon/data=!4m7!3m6!1s0x47801553394a538b:0x819f1bd936f3b277!8m2!3d44.8364705!4d10.3684061!16s%2Fg%2F1pv61104c!19sChIJi1NKOVMVgEcRd7LzNtkbn4E?authuser=0&hl=tr&rclk=1",
    "website_url": "",
    "rating_text": "4,0",
    "stars": null,
    "number_of_reviews": null,
    "price_level": "",
    "open_hours": "",
    "extraction_timestamp": "2025-06-07T16:59:48.676Z",
    "source_name": "google",
    "source_query": "Irrigation Equipment",
    "source_country": "IT",
    "country": "Italy",
    "state": "Emilia-Romagna",
    "city": "Parma"
  },
  {
    "source_id": "ChIJaVJpA0FrgEcRKXfS87gA26s",
    "name": "Cambielli S.p.A.",
    "category": "Cambielli S.p.A.",
    "formatted_address": "4,5(17)",
    "phone_number": "+390521804264",
    "source_url": "https://www.google.com/maps/place/Cambielli+S.p.A./data=!4m7!3m6!1s0x47806b4103695269:0xabdb00b8f3d27729!8m2!3d44.7727947!4d10.2602099!16s%2Fg%2F11gnpl3klv!19sChIJaVJpA0FrgEcRKXfS87gA26s?authuser=0&hl=tr&rclk=1",
    "website_url": "",
    "rating_text": "4,5",
    "stars": null,
    "number_of_reviews": null,
    "price_level": "",
    "open_hours": "",
    "extraction_timestamp": "2025-06-07T16:59:48.677Z",
    "source_name": "google",
    "source_query": "Irrigation Equipment",
    "source_country": "IT",
    "country": "Italy",
    "state": "Emilia-Romagna",
    "city": "Parma"
  }
]
