[
  {
    "source_id": "ChIJtVTYPzW7KhMRkN5K8_DyZnw",
    "name": "Bertani S.p.a. - Magazzino di Pavullo",
    "category": "Bertani S.p.a. - Magazzino di Pavullo",
    "formatted_address": "5,0(5)",
    "phone_number": "+39053622882",
    "source_url": "https://www.google.com/maps/place/Bertani+S.p.a.+-+Magazzino+di+Pavullo/data=!4m7!3m6!1s0x132abb353fd854b5:0x7c66f2f0f34ade90!8m2!3d44.3280144!4d10.8344114!16s%2Fg%2F11h3rxtd2f!19sChIJtVTYPzW7KhMRkN5K8_DyZnw?authuser=0&hl=tr&rclk=1",
    "website_url": "https://www.bertani.it/it_IT/punti-vendita/magazzino-pavullo-nel-frignano",
    "rating_text": "5,0",
    "stars": null,
    "number_of_reviews": null,
    "price_level": "",
    "open_hours": "",
    "extraction_timestamp": "2025-06-07T15:45:48.611Z",
    "source_name": "google",
    "source_query": "Irrigation Equipment",
    "source_country": "IT",
    "country": "Italy",
    "state": "Emilia-Romagna",
    "city": "Pavullo nel Frignano"
  },
  {
    "source_id": "ChIJWzfiJtO7KhMRC1gM62acq3M",
    "name": "Lely Center Emilia Romagna",
    "category": "Lely Center Emilia Romagna",
    "formatted_address": "4,4(5)",
    "phone_number": "+3905361881044",
    "source_url": "https://www.google.com/maps/place/Lely+Center+Emilia+Romagna/data=!4m7!3m6!1s0x132abbd326e2375b:0x73ab9c66eb0c580b!8m2!3d44.3282137!4d10.8472363!16s%2Fg%2F11fn9f8tjl!19sChIJWzfiJtO7KhMRC1gM62acq3M?authuser=0&hl=tr&rclk=1",
    "website_url": "https://www.lely.com/it/centers/Emilia-Romagna/?utm_source=google&utm_medium=organic&utm_campaign=gmb",
    "rating_text": "4,4",
    "stars": null,
    "number_of_reviews": null,
    "price_level": "",
    "open_hours": "",
    "extraction_timestamp": "2025-06-07T15:45:48.612Z",
    "source_name": "google",
    "source_query": "Irrigation Equipment",
    "source_country": "IT",
    "country": "Italy",
    "state": "Emilia-Romagna",
    "city": "Pavullo nel Frignano"
  },
  {
    "source_id": "ChIJB2wvVU2wKhMRGvo3BY0GHPo",
    "name": "Vis Hydraulics - Valvole a cartuccia per l'oleodinamica",
    "category": "Vis Hydraulics - Valvole a cartuccia per l'oleodinamica",
    "formatted_address": "4,7(30)",
    "phone_number": "+39053620461",
    "source_url": "https://www.google.com/maps/place/Vis+Hydraulics+-+Valvole+a+cartuccia+per+l%27oleodinamica/data=!4m7!3m6!1s0x132ab04d552f6c07:0xfa1c068d0537fa1a!8m2!3d44.3731154!4d10.8339226!16s%2Fg%2F11b6hkg155!19sChIJB2wvVU2wKhMRGvo3BY0GHPo?authuser=0&hl=tr&rclk=1",
    "website_url": "http://www.vishydraulics.com/",
    "rating_text": "4,7",
    "stars": null,
    "number_of_reviews": null,
    "price_level": "",
    "open_hours": "",
    "extraction_timestamp": "2025-06-07T15:45:48.614Z",
    "source_name": "google",
    "source_query": "Irrigation Equipment",
    "source_country": "IT",
    "country": "Italy",
    "state": "Emilia-Romagna",
    "city": "Pavullo nel Frignano"
  },
  {
    "source_id": "ChIJN5bbs4e6KhMRectPZr6KVhs",
    "name": "Cambielli Edilfriuli",
    "category": "Cambielli Edilfriuli",
    "formatted_address": "4,0(6)",
    "phone_number": "+390536325878",
    "source_url": "https://www.google.com/maps/place/Cambielli+Edilfriuli/data=!4m7!3m6!1s0x132aba87b3db9637:0x1b568abe664fcb79!8m2!3d44.3265512!4d10.8429212!16s%2Fg%2F11by_cl52m!19sChIJN5bbs4e6KhMRectPZr6KVhs?authuser=0&hl=tr&rclk=1",
    "website_url": "https://www.cambielli.it/",
    "rating_text": "4,0",
    "stars": null,
    "number_of_reviews": null,
    "price_level": "",
    "open_hours": "",
    "extraction_timestamp": "2025-06-07T15:45:48.617Z",
    "source_name": "google",
    "source_query": "Irrigation Equipment",
    "source_country": "IT",
    "country": "Italy",
    "state": "Emilia-Romagna",
    "city": "Pavullo nel Frignano"
  },
  {
    "source_id": "ChIJh_KjrZy6KhMR9KNDRjuezNk",
    "name": "OB Group srl",
    "category": "OB Group srl",
    "formatted_address": "4,8(62)",
    "phone_number": "+390536340022",
    "source_url": "https://www.google.com/maps/place/OB+Group+srl/data=!4m7!3m6!1s0x132aba9cada3f287:0xd9cc9e3b4643a3f4!8m2!3d44.3298283!4d10.8281743!16s%2Fg%2F12cpn9v28!19sChIJh_KjrZy6KhMR9KNDRjuezNk?authuser=0&hl=tr&rclk=1",
    "website_url": "http://www.obgroup.it/",
    "rating_text": "4,8",
    "stars": null,
    "number_of_reviews": null,
    "price_level": "",
    "open_hours": "",
    "extraction_timestamp": "2025-06-07T15:45:48.620Z",
    "source_name": "google",
    "source_query": "Irrigation Equipment",
    "source_country": "IT",
    "country": "Italy",
    "state": "Emilia-Romagna",
    "city": "Pavullo nel Frignano"
  },
  {
    "source_id": "ChIJh-01qoi6KhMR3E2eZRU0EGo",
    "name": "Piacentini",
    "category": "Piacentini",
    "formatted_address": "4,6(23)",
    "phone_number": "+39053620243",
    "source_url": "https://www.google.com/maps/place/Piacentini/data=!4m7!3m6!1s0x132aba88aa35ed87:0x6a103415659e4ddc!8m2!3d44.325142!4d10.8399409!16s%2Fg%2F1td80tcn!19sChIJh-01qoi6KhMR3E2eZRU0EGo?authuser=0&hl=tr&rclk=1",
    "website_url": "",
    "rating_text": "4,6",
    "stars": null,
    "number_of_reviews": null,
    "price_level": "",
    "open_hours": "",
    "extraction_timestamp": "2025-06-07T15:45:48.621Z",
    "source_name": "google",
    "source_query": "Irrigation Equipment",
    "source_country": "IT",
    "country": "Italy",
    "state": "Emilia-Romagna",
    "city": "Pavullo nel Frignano"
  },
  {
    "source_id": "ChIJS5FMI967KhMRhWt68mUUCnw",
    "name": "Serafini Srl Attrezzature Zootecniche",
    "category": "Serafini Srl Attrezzature Zootecniche",
    "formatted_address": "Tarımsal Ekipman Tedarikçisi ·  · Via Giuseppe Garibaldi, 22Kapalı ⋅ Açılış zamanı: Pzt 08:00 · +39 335 541 4744",
    "phone_number": "+393355414744",
    "source_url": "https://www.google.com/maps/place/Serafini+Srl+Attrezzature+Zootecniche/data=!4m7!3m6!1s0x132abbde234c914b:0x7c0a1465f27a6b85!8m2!3d44.3262198!4d10.8417964!16s%2Fg%2F11wq5n526g!19sChIJS5FMI967KhMRhWt68mUUCnw?authuser=0&hl=tr&rclk=1",
    "website_url": "",
    "rating_text": "",
    "stars": null,
    "number_of_reviews": null,
    "price_level": "",
    "open_hours": "",
    "extraction_timestamp": "2025-06-07T15:45:48.623Z",
    "source_name": "google",
    "source_query": "Irrigation Equipment",
    "source_country": "IT",
    "country": "Italy",
    "state": "Emilia-Romagna",
    "city": "Pavullo nel Frignano"
  },
  {
    "source_id": "ChIJp1FbvH26KhMR9fYjzcYrPgA",
    "name": "Elettromilk Srl",
    "category": "Elettromilk Srl",
    "formatted_address": "4,8(4)",
    "phone_number": "+390536325103",
    "source_url": "https://www.google.com/maps/place/Elettromilk+Srl/data=!4m7!3m6!1s0x132aba7dbc5b51a7:0x3e2bc6cd23f6f5!8m2!3d44.3282845!4d10.8471881!16s%2Fg%2F1tk4hj3x!19sChIJp1FbvH26KhMR9fYjzcYrPgA?authuser=0&hl=tr&rclk=1",
    "website_url": "https://www.elettromilk.it/",
    "rating_text": "4,8",
    "stars": null,
    "number_of_reviews": null,
    "price_level": "",
    "open_hours": "",
    "extraction_timestamp": "2025-06-07T15:45:48.624Z",
    "source_name": "google",
    "source_query": "Irrigation Equipment",
    "source_country": "IT",
    "country": "Italy",
    "state": "Emilia-Romagna",
    "city": "Pavullo nel Frignano"
  },
  {
    "source_id": "ChIJTZEFW2a7KhMRFp7PSvM8fsA",
    "name": "A.T.P. Assistenza Termica Pavullese ass. Edilkamin, Ferroli, Daikin, Rotex",
    "category": "A.T.P. Assistenza Termica Pavullese ass. Edilkamin, Ferroli, Daikin, Rotex",
    "formatted_address": "A.T.P. Assistenza Termica Pavullese ass. Edilkamin, Ferroli, Daikin, Rotex",
    "phone_number": "",
    "source_url": "https://www.google.com/maps/place/A.T.P.+Assistenza+Termica+Pavullese+ass.+Edilkamin,+Ferroli,+Daikin,+Rotex/data=!4m7!3m6!1s0x132abb665b05914d:0xc07e3cf34acf9e16!8m2!3d44.3376914!4d10.832683!16s%2Fg%2F11j64x4rv5!19sChIJTZEFW2a7KhMRFp7PSvM8fsA?authuser=0&hl=tr&rclk=1",
    "website_url": "http://www.assistenzatp.it/",
    "rating_text": "4,9",
    "stars": null,
    "number_of_reviews": null,
    "price_level": "",
    "open_hours": "",
    "extraction_timestamp": "2025-06-07T15:45:48.626Z",
    "source_name": "google",
    "source_query": "Irrigation Equipment",
    "source_country": "IT",
    "country": "Italy",
    "state": "Emilia-Romagna",
    "city": "Pavullo nel Frignano"
  },
  {
    "source_id": "ChIJJ6V6lMDgf0cR1SpFsfjDuHg",
    "name": "Ocmis Irrigazione Spa",
    "category": "Ocmis Irrigazione Spa",
    "formatted_address": "3,5(31)",
    "phone_number": "+39059702150",
    "source_url": "https://www.google.com/maps/place/Ocmis+Irrigazione+Spa/data=!4m7!3m6!1s0x477fe0c0947aa527:0x78b8c3f8b1452ad5!8m2!3d44.530494!4d10.9794578!16s%2Fg%2F1vd3tn19!19sChIJJ6V6lMDgf0cR1SpFsfjDuHg?authuser=0&hl=tr&rclk=1",
    "website_url": "http://www.ocmis-irrigazione.it/",
    "rating_text": "3,5",
    "stars": null,
    "number_of_reviews": null,
    "price_level": "",
    "open_hours": "",
    "extraction_timestamp": "2025-06-07T15:45:48.628Z",
    "source_name": "google",
    "source_query": "Irrigation Equipment",
    "source_country": "IT",
    "country": "Italy",
    "state": "Emilia-Romagna",
    "city": "Pavullo nel Frignano"
  },
  {
    "source_id": "ChIJyYhjS4a6KhMRewv4TDLgd6U",
    "name": "S.D.M. automazioni srl",
    "category": "S.D.M. automazioni srl",
    "formatted_address": "5,0(4)",
    "phone_number": "+390536325739",
    "source_url": "https://www.google.com/maps/place/S.D.M.+automazioni+srl/data=!4m7!3m6!1s0x132aba864b6388c9:0xa577e0324cf80b7b!8m2!3d44.3272449!4d10.8364599!16s%2Fg%2F1th841lv!19sChIJyYhjS4a6KhMRewv4TDLgd6U?authuser=0&hl=tr&rclk=1",
    "website_url": "http://www.sdmautomazioni.it/",
    "rating_text": "5,0",
    "stars": null,
    "number_of_reviews": null,
    "price_level": "",
    "open_hours": "",
    "extraction_timestamp": "2025-06-07T15:45:48.629Z",
    "source_name": "google",
    "source_query": "Irrigation Equipment",
    "source_country": "IT",
    "country": "Italy",
    "state": "Emilia-Romagna",
    "city": "Pavullo nel Frignano"
  },
  {
    "source_id": "ChIJL73bOJ26KhMRHOK28dlIbPY",
    "name": "Ferramenta Tonioni",
    "category": "Ferramenta Tonioni",
    "formatted_address": "4,5(104)",
    "phone_number": "+39053620663",
    "source_url": "https://www.google.com/maps/place/Ferramenta+Tonioni/data=!4m7!3m6!1s0x132aba9d38dbbd2f:0xf66c48d9f1b6e21c!8m2!3d44.3340187!4d10.8325157!16s%2Fg%2F1tf7jt8c!19sChIJL73bOJ26KhMRHOK28dlIbPY?authuser=0&hl=tr&rclk=1",
    "website_url": "",
    "rating_text": "4,5",
    "stars": null,
    "number_of_reviews": null,
    "price_level": "",
    "open_hours": "",
    "extraction_timestamp": "2025-06-07T15:45:48.631Z",
    "source_name": "google",
    "source_query": "Irrigation Equipment",
    "source_country": "IT",
    "country": "Italy",
    "state": "Emilia-Romagna",
    "city": "Pavullo nel Frignano"
  },
  {
    "source_id": "ChIJcQG6ul7df0cR3VxKiu5OPBs",
    "name": "Scova Impianti Srl",
    "category": "Scova Impianti Srl",
    "formatted_address": "4,5(64)",
    "phone_number": "+39059923202",
    "source_url": "https://www.google.com/maps/place/Scova+Impianti+Srl/data=!4m7!3m6!1s0x477fdd5ebaba0171:0x1b3c4eee8a4a5cdd!8m2!3d44.6018135!4d11.032294!16s%2Fg%2F1tfzwbfb!19sChIJcQG6ul7df0cR3VxKiu5OPBs?authuser=0&hl=tr&rclk=1",
    "website_url": "https://www.scovaimpianti.com/",
    "rating_text": "4,5",
    "stars": null,
    "number_of_reviews": null,
    "price_level": "",
    "open_hours": "",
    "extraction_timestamp": "2025-06-07T15:45:48.632Z",
    "source_name": "google",
    "source_query": "Irrigation Equipment",
    "source_country": "IT",
    "country": "Italy",
    "state": "Emilia-Romagna",
    "city": "Pavullo nel Frignano"
  },
  {
    "source_id": "ChIJdeiIN526KhMRBdrytyUBemk",
    "name": "Bonacorsi Luigi",
    "category": "Bonacorsi Luigi",
    "formatted_address": "3,7(54)",
    "phone_number": "+39053623856",
    "source_url": "https://www.google.com/maps/place/Bonacorsi+Luigi/data=!4m7!3m6!1s0x132aba9d3788e875:0x697a0125b7f2da05!8m2!3d44.3267409!4d10.8368528!16s%2Fg%2F11b6jh4sl2!19sChIJdeiIN526KhMRBdrytyUBemk?authuser=0&hl=tr&rclk=1",
    "website_url": "",
    "rating_text": "3,7",
    "stars": null,
    "number_of_reviews": null,
    "price_level": "",
    "open_hours": "",
    "extraction_timestamp": "2025-06-07T15:45:48.633Z",
    "source_name": "google",
    "source_query": "Irrigation Equipment",
    "source_country": "IT",
    "country": "Italy",
    "state": "Emilia-Romagna",
    "city": "Pavullo nel Frignano"
  },
  {
    "source_id": "ChIJnX8Sn1KwKhMRdpq3GHTuunQ",
    "name": "Semenfer Ivan Di Balestri",
    "category": "Semenfer Ivan Di Balestri",
    "formatted_address": "4,5(167)",
    "phone_number": "+39053623411",
    "source_url": "https://www.google.com/maps/place/Semenfer+Ivan+Di+Balestri/data=!4m7!3m6!1s0x132ab0529f127f9d:0x74baee7418b79a76!8m2!3d44.3712965!4d10.8346088!16s%2Fg%2F1tglq0g1!19sChIJnX8Sn1KwKhMRdpq3GHTuunQ?authuser=0&hl=tr&rclk=1",
    "website_url": "",
    "rating_text": "4,5",
    "stars": null,
    "number_of_reviews": null,
    "price_level": "",
    "open_hours": "",
    "extraction_timestamp": "2025-06-07T15:45:48.635Z",
    "source_name": "google",
    "source_query": "Irrigation Equipment",
    "source_country": "IT",
    "country": "Italy",
    "state": "Emilia-Romagna",
    "city": "Pavullo nel Frignano"
  },
  {
    "source_id": "ChIJT4pDY3ewKhMR9tunV_NUB00",
    "name": "Tondi",
    "category": "Tondi",
    "formatted_address": "4,5(2)",
    "phone_number": "",
    "source_url": "https://www.google.com/maps/place/Tondi/data=!4m7!3m6!1s0x132ab07763438a4f:0x4d0754f357a7dbf6!8m2!3d44.3383992!4d10.8335663!16s%2Fg%2F11byyr1fc_!19sChIJT4pDY3ewKhMR9tunV_NUB00?authuser=0&hl=tr&rclk=1",
    "website_url": "",
    "rating_text": "4,5",
    "stars": null,
    "number_of_reviews": null,
    "price_level": "",
    "open_hours": "",
    "extraction_timestamp": "2025-06-07T15:45:48.635Z",
    "source_name": "google",
    "source_query": "Irrigation Equipment",
    "source_country": "IT",
    "country": "Italy",
    "state": "Emilia-Romagna",
    "city": "Pavullo nel Frignano"
  },
  {
    "source_id": "ChIJkfGCBJu6KhMRzW4nOz-TauY",
    "name": "Ferramenta Bernardoni Romeo",
    "category": "Ferramenta Bernardoni Romeo",
    "formatted_address": "4,5(119)",
    "phone_number": "+39053620700",
    "source_url": "https://www.google.com/maps/place/Ferramenta+Bernardoni+Romeo/data=!4m7!3m6!1s0x132aba9b0482f191:0xe66a933f3b276ecd!8m2!3d44.3287753!4d10.8316743!16s%2Fg%2F11byyrzzx_!19sChIJkfGCBJu6KhMRzW4nOz-TauY?authuser=0&hl=tr&rclk=1",
    "website_url": "",
    "rating_text": "4,5",
    "stars": null,
    "number_of_reviews": null,
    "price_level": "",
    "open_hours": "",
    "extraction_timestamp": "2025-06-07T15:45:48.637Z",
    "source_name": "google",
    "source_query": "Irrigation Equipment",
    "source_country": "IT",
    "country": "Italy",
    "state": "Emilia-Romagna",
    "city": "Pavullo nel Frignano"
  },
  {
    "source_id": "ChIJzQ9cvYS6KhMRd8a75O-mHNo",
    "name": "Florini Fernando",
    "category": "Florini Fernando",
    "formatted_address": "4,4(103)",
    "phone_number": "+39053620476",
    "source_url": "https://www.google.com/maps/place/Florini+Fernando/data=!4m7!3m6!1s0x132aba84bd5c0fcd:0xda1ca6efe4bbc677!8m2!3d44.329983!4d10.8354067!16s%2Fg%2F1hc6bv9cr!19sChIJzQ9cvYS6KhMRd8a75O-mHNo?authuser=0&hl=tr&rclk=1",
    "website_url": "http://www.ferramentaflorini.it/",
    "rating_text": "4,4",
    "stars": null,
    "number_of_reviews": null,
    "price_level": "",
    "open_hours": "",
    "extraction_timestamp": "2025-06-07T15:45:48.638Z",
    "source_name": "google",
    "source_query": "Irrigation Equipment",
    "source_country": "IT",
    "country": "Italy",
    "state": "Emilia-Romagna",
    "city": "Pavullo nel Frignano"
  },
  {
    "source_id": "ChIJhfqrVIS6KhMRSG__G7-JH48",
    "name": "Livaldi Marco Termoidraulica Ass. Tecnica Caldaie",
    "category": "Livaldi Marco Termoidraulica Ass. Tecnica Caldaie",
    "formatted_address": "5,0(5)",
    "phone_number": "+390536793423",
    "source_url": "https://www.google.com/maps/place/Livaldi+Marco+Termoidraulica+Ass.+Tecnica+Caldaie/data=!4m7!3m6!1s0x132aba8454abfa85:0x8f1f89bf1bff6f48!8m2!3d44.3257524!4d10.8389517!16s%2Fg%2F1tds3yrr!19sChIJhfqrVIS6KhMRSG__G7-JH48?authuser=0&hl=tr&rclk=1",
    "website_url": "",
    "rating_text": "5,0",
    "stars": null,
    "number_of_reviews": null,
    "price_level": "",
    "open_hours": "",
    "extraction_timestamp": "2025-06-07T15:45:48.639Z",
    "source_name": "google",
    "source_query": "Irrigation Equipment",
    "source_country": "IT",
    "country": "Italy",
    "state": "Emilia-Romagna",
    "city": "Pavullo nel Frignano"
  },
  {
    "source_id": "ChIJ06tBgru7KhMRxEjVRRv7Nvw",
    "name": "Tigotà",
    "category": "Tigotà",
    "formatted_address": "4,5(329)",
    "phone_number": "+390536324143",
    "source_url": "https://www.google.com/maps/place/Tigot%C3%A0/data=!4m7!3m6!1s0x132abbbb8241abd3:0xfc36fb1b45d548c4!8m2!3d44.332159!4d10.8333169!16s%2Fg%2F11hz7jcvgb!19sChIJ06tBgru7KhMRxEjVRRv7Nvw?authuser=0&hl=tr&rclk=1",
    "website_url": "https://www.tigota.it/negozi/026105?utm_source=google&utm_medium=GMBSitelink&utm_campaign=GMBSitelink_Pavullo_Nel_Frignano_26105",
    "rating_text": "4,5",
    "stars": null,
    "number_of_reviews": null,
    "price_level": "",
    "open_hours": "",
    "extraction_timestamp": "2025-06-07T15:45:48.641Z",
    "source_name": "google",
    "source_query": "Irrigation Equipment",
    "source_country": "IT",
    "country": "Italy",
    "state": "Emilia-Romagna",
    "city": "Pavullo nel Frignano"
  },
  {
    "source_id": "ChIJsaKjhzvIKhMR-OgdYtY3cBM",
    "name": "Giesse di Sandrolini Giovanni",
    "category": "Giesse di Sandrolini Giovanni",
    "formatted_address": "4,8(12)",
    "phone_number": "+39059986565",
    "source_url": "https://www.google.com/maps/place/Giesse+di+Sandrolini+Giovanni/data=!4m7!3m6!1s0x132ac83b87a3a2b1:0x137037d6621de8f8!8m2!3d44.3447163!4d10.9957568!16s%2Fg%2F1tpfg4ch!19sChIJsaKjhzvIKhMR-OgdYtY3cBM?authuser=0&hl=tr&rclk=1",
    "website_url": "",
    "rating_text": "4,8",
    "stars": null,
    "number_of_reviews": null,
    "price_level": "",
    "open_hours": "",
    "extraction_timestamp": "2025-06-07T15:45:48.643Z",
    "source_name": "google",
    "source_query": "Irrigation Equipment",
    "source_country": "IT",
    "country": "Italy",
    "state": "Emilia-Romagna",
    "city": "Pavullo nel Frignano"
  },
  {
    "source_id": "ChIJywYeExzdf0cRhfr55_LZC8w",
    "name": "Geocentro",
    "category": "Geocentro",
    "formatted_address": "3,8(5)",
    "phone_number": "+39059927676",
    "source_url": "https://www.google.com/maps/place/Geocentro/data=!4m7!3m6!1s0x477fdd1c131e06cb:0xcc0bd9f2e7f9fa85!8m2!3d44.5871226!4d11.0681616!16s%2Fg%2F11cn3pjh5j!19sChIJywYeExzdf0cRhfr55_LZC8w?authuser=0&hl=tr&rclk=1",
    "website_url": "https://www.geocentro.it/",
    "rating_text": "3,8",
    "stars": null,
    "number_of_reviews": null,
    "price_level": "",
    "open_hours": "",
    "extraction_timestamp": "2025-06-07T15:45:48.646Z",
    "source_name": "google",
    "source_query": "Irrigation Equipment",
    "source_country": "IT",
    "country": "Italy",
    "state": "Emilia-Romagna",
    "city": "Pavullo nel Frignano"
  },
  {
    "source_id": "ChIJKXm9k7_8f0cRp7XntRaamh8",
    "name": "Monte Ave Società Cooperativa Agricola",
    "category": "Monte Ave Società Cooperativa Agricola",
    "formatted_address": "4,5(30)",
    "phone_number": "+390536804115",
    "source_url": "https://www.google.com/maps/place/Monte+Ave+Societ%C3%A0+Cooperativa+Agricola/data=!4m7!3m6!1s0x477ffcbf93bd7929:0x1f9a9a16b5e7b5a7!8m2!3d44.5446307!4d10.8001567!16s%2Fg%2F1tfnxfjc!19sChIJKXm9k7_8f0cRp7XntRaamh8?authuser=0&hl=tr&rclk=1",
    "website_url": "",
    "rating_text": "4,5",
    "stars": null,
    "number_of_reviews": null,
    "price_level": "",
    "open_hours": "",
    "extraction_timestamp": "2025-06-07T15:45:48.648Z",
    "source_name": "google",
    "source_query": "Irrigation Equipment",
    "source_country": "IT",
    "country": "Italy",
    "state": "Emilia-Romagna",
    "city": "Pavullo nel Frignano"
  },
  {
    "source_id": "ChIJO9OcYtzvf0cRuaBD4UFA4Uc",
    "name": "Tecnomat",
    "category": "Tecnomat",
    "formatted_address": "4,5(10.652)",
    "phone_number": "+390283905463",
    "source_url": "https://www.google.com/maps/place/Tecnomat/data=!4m7!3m6!1s0x477fefdc629cd33b:0x47e14041e143a0b9!8m2!3d44.6532844!4d10.8720529!16s%2Fg%2F11gb3mdxcf!19sChIJO9OcYtzvf0cRuaBD4UFA4Uc?authuser=0&hl=tr&rclk=1",
    "website_url": "https://www.tecnomat.it/it/n/modena/?utm_campaign=MODENA_negozio_GMB&utm_content=sito_web&utm_medium=google_my_business&utm_source=google&utm_term=sito_web_MODENA_GMB",
    "rating_text": "4,5",
    "stars": null,
    "number_of_reviews": null,
    "price_level": "",
    "open_hours": "",
    "extraction_timestamp": "2025-06-07T15:45:48.652Z",
    "source_name": "google",
    "source_query": "Irrigation Equipment",
    "source_country": "IT",
    "country": "Italy",
    "state": "Emilia-Romagna",
    "city": "Pavullo nel Frignano"
  },
  {
    "source_id": "ChIJgVjbdx7df0cRsMjOLRKEzBA",
    "name": "Geocentro",
    "category": "Geocentro",
    "formatted_address": "4,4(87)",
    "phone_number": "+39059926168",
    "source_url": "https://www.google.com/maps/place/Geocentro/data=!4m7!3m6!1s0x477fdd1e77db5881:0x10cc84122dcec8b0!8m2!3d44.5868616!4d11.070717!16s%2Fg%2F11cn3ph0_q!19sChIJgVjbdx7df0cRsMjOLRKEzBA?authuser=0&hl=tr&rclk=1",
    "website_url": "https://www.geocentrosrl.it/",
    "rating_text": "4,4",
    "stars": null,
    "number_of_reviews": null,
    "price_level": "",
    "open_hours": "",
    "extraction_timestamp": "2025-06-07T15:45:48.653Z",
    "source_name": "google",
    "source_query": "Irrigation Equipment",
    "source_country": "IT",
    "country": "Italy",
    "state": "Emilia-Romagna",
    "city": "Pavullo nel Frignano"
  },
  {
    "source_id": "ChIJHalA8sf8f0cRSJdBt5XR5ns",
    "name": "Lazzaretti Giovanni Snc di Scorzoni Giuliano & Pini Francesca",
    "category": "Lazzaretti Giovanni Snc di Scorzoni Giuliano & Pini Francesca",
    "formatted_address": "4,6(54)",
    "phone_number": "+390536830118",
    "source_url": "https://www.google.com/maps/place/Lazzaretti+Giovanni+Snc+di+Scorzoni+Giuliano+%26+Pini+Francesca/data=!4m7!3m6!1s0x477ffcc7f240a91d:0x7be6d195b7419748!8m2!3d44.5522158!4d10.8064512!16s%2Fg%2F1thnmmq2!19sChIJHalA8sf8f0cRSJdBt5XR5ns?authuser=0&hl=tr&rclk=1",
    "website_url": "",
    "rating_text": "4,6",
    "stars": null,
    "number_of_reviews": null,
    "price_level": "",
    "open_hours": "",
    "extraction_timestamp": "2025-06-07T15:45:48.655Z",
    "source_name": "google",
    "source_query": "Irrigation Equipment",
    "source_country": "IT",
    "country": "Italy",
    "state": "Emilia-Romagna",
    "city": "Pavullo nel Frignano"
  },
  {
    "source_id": "ChIJLZo0Lbfof0cRw147ZKWAof0",
    "name": "Idraulica Emiliana S.p.A.",
    "category": "Idraulica Emiliana S.p.A.",
    "formatted_address": "4,2(25)",
    "phone_number": "+39059281590",
    "source_url": "https://www.google.com/maps/place/Idraulica+Emiliana+S.p.A./data=!4m7!3m6!1s0x477fe8b72d349a2d:0xfda180a5643b5ec3!8m2!3d44.6361288!4d10.9602628!16s%2Fg%2F11c575qsr1!19sChIJLZo0Lbfof0cRw147ZKWAof0?authuser=0&hl=tr&rclk=1",
    "website_url": "http://www.idraulicaemiliana.com/",
    "rating_text": "4,2",
    "stars": null,
    "number_of_reviews": null,
    "price_level": "",
    "open_hours": "",
    "extraction_timestamp": "2025-06-07T15:45:48.656Z",
    "source_name": "google",
    "source_query": "Irrigation Equipment",
    "source_country": "IT",
    "country": "Italy",
    "state": "Emilia-Romagna",
    "city": "Pavullo nel Frignano"
  },
  {
    "source_id": "ChIJ-Z_RHvbnf0cRry0jCm7Q5GQ",
    "name": "Scova Impianti",
    "category": "Scova Impianti",
    "formatted_address": "4,0(4)",
    "phone_number": "+39059925910",
    "source_url": "https://www.google.com/maps/place/Scova+Impianti/data=!4m7!3m6!1s0x477fe7f61ed19ff9:0x64e4d06e0a232daf!8m2!3d44.6018937!4d11.0315223!16s%2Fg%2F1td6wznv!19sChIJ-Z_RHvbnf0cRry0jCm7Q5GQ?authuser=0&hl=tr&rclk=1",
    "website_url": "https://scovaimpianti.com/",
    "rating_text": "4,0",
    "stars": null,
    "number_of_reviews": null,
    "price_level": "",
    "open_hours": "",
    "extraction_timestamp": "2025-06-07T15:45:48.657Z",
    "source_name": "google",
    "source_query": "Irrigation Equipment",
    "source_country": "IT",
    "country": "Italy",
    "state": "Emilia-Romagna",
    "city": "Pavullo nel Frignano"
  },
  {
    "source_id": "ChIJmbatPHPjf0cRUHMf4FQkrxg",
    "name": "IPERCERAMICA Modena - Fiorano Modenese",
    "category": "IPERCERAMICA Modena - Fiorano Modenese",
    "formatted_address": "3,6(366)",
    "phone_number": "+393452393110",
    "source_url": "https://www.google.com/maps/place/IPERCERAMICA+Modena+-+Fiorano+Modenese/data=!4m7!3m6!1s0x477fe3733cadb699:0x18af2454e01f7350!8m2!3d44.5542232!4d10.8103993!16s%2Fg%2F1vq73pz5!19sChIJmbatPHPjf0cRUHMf4FQkrxg?authuser=0&hl=tr&rclk=1",
    "website_url": "https://www.iperceramica.it/it/ita/negozi/pavimenti-parquet-arredo-bagno-sanitari-fiorano-modenese?utm_content=IPERCERAMICA+Modena-Fiorano+Modenese&utm_source=google&utm_campaign=SERP+Local+Pack+o+Google+Maps&utm_medium=localrecord",
    "rating_text": "3,6",
    "stars": null,
    "number_of_reviews": null,
    "price_level": "",
    "open_hours": "",
    "extraction_timestamp": "2025-06-07T15:45:48.658Z",
    "source_name": "google",
    "source_query": "Irrigation Equipment",
    "source_country": "IT",
    "country": "Italy",
    "state": "Emilia-Romagna",
    "city": "Pavullo nel Frignano"
  },
  {
    "source_id": "ChIJychRt4S6KhMROCRky1WDSeQ",
    "name": "Tigotà - Belli, puliti, profumati",
    "category": "Tigotà - Belli, puliti, profumati",
    "formatted_address": "Tigotà - Belli, puliti, profumati",
    "phone_number": "+39053620099",
    "source_url": "https://www.google.com/maps/place/Tigot%C3%A0+-+Belli,+puliti,+profumati/data=!4m7!3m6!1s0x132aba84b751c8c9:0xe4498355cb642438!8m2!3d44.3289418!4d10.835187!16s%2Fg%2F1tfhwv4z!19sChIJychRt4S6KhMROCRky1WDSeQ?authuser=0&hl=tr&rclk=1",
    "website_url": "https://www.tigota.it/negozi/018490?utm_source=google&utm_medium=GMBSitelink&utm_campaign=GMBSitelink_Pavullo_Nel_Frignano_18490",
    "rating_text": "4,4",
    "stars": null,
    "number_of_reviews": null,
    "price_level": "",
    "open_hours": "",
    "extraction_timestamp": "2025-06-07T15:45:48.659Z",
    "source_name": "google",
    "source_query": "Irrigation Equipment",
    "source_country": "IT",
    "country": "Italy",
    "state": "Emilia-Romagna",
    "city": "Pavullo nel Frignano"
  }
]
