[
  {
    "source_id": "ChIJcQG6ul7df0cR3VxKiu5OPBs",
    "name": "Scova Impianti Srl",
    "category": "Scova Impianti Srl",
    "formatted_address": "4,5(64)",
    "phone_number": "+39059923202",
    "source_url": "https://www.google.com/maps/place/Scova+Impianti+Srl/data=!4m7!3m6!1s0x477fdd5ebaba0171:0x1b3c4eee8a4a5cdd!8m2!3d44.6018135!4d11.032294!16s%2Fg%2F1tfzwbfb!19sChIJcQG6ul7df0cR3VxKiu5OPBs?authuser=0&hl=tr&rclk=1",
    "website_url": "https://www.scovaimpianti.com/",
    "rating_text": "4,5",
    "stars": null,
    "number_of_reviews": null,
    "price_level": "",
    "open_hours": "",
    "extraction_timestamp": "2025-06-07T16:11:30.103Z",
    "source_name": "google",
    "source_query": "Irrigation Equipment",
    "source_country": "IT",
    "country": "Italy",
    "state": "Emilia-Romagna",
    "city": "Pecorara"
  },
  {
    "source_id": "ChIJE_3jOnMtfkcRkxtTFj3Ym9E",
    "name": "Irrigation Scarabelli Srl",
    "category": "Irrigation Scarabelli Srl",
    "formatted_address": "4,5(23)",
    "phone_number": "+39051763363",
    "source_url": "https://www.google.com/maps/place/Irrigation+Scarabelli+Srl/data=!4m7!3m6!1s0x477e2d733ae3fd13:0xd19bd83d16531b93!8m2!3d44.5426053!4d11.4189136!16s%2Fg%2F11gzdz6vf!19sChIJE_3jOnMtfkcRkxtTFj3Ym9E?authuser=0&hl=tr&rclk=1",
    "website_url": "",
    "rating_text": "4,5",
    "stars": null,
    "number_of_reviews": null,
    "price_level": "",
    "open_hours": "",
    "extraction_timestamp": "2025-06-07T16:11:30.105Z",
    "source_name": "google",
    "source_query": "Irrigation Equipment",
    "source_country": "IT",
    "country": "Italy",
    "state": "Emilia-Romagna",
    "city": "Pecorara"
  },
  {
    "source_id": "ChIJy805WcDcgEcRtmGWlwosXQc",
    "name": "IRRIMEC SRL",
    "category": "IRRIMEC SRL",
    "formatted_address": "4,5(90)",
    "phone_number": "+390523760441",
    "source_url": "https://www.google.com/maps/place/IRRIMEC+SRL/data=!4m7!3m6!1s0x4780dcc05939cdcb:0x75d2c0a979661b6!8m2!3d45.0612353!4d9.630829!16s%2Fg%2F1tdgt7d_!19sChIJy805WcDcgEcRtmGWlwosXQc?authuser=0&hl=tr&rclk=1",
    "website_url": "http://www.irrimec.com/",
    "rating_text": "4,5",
    "stars": null,
    "number_of_reviews": null,
    "price_level": "",
    "open_hours": "",
    "extraction_timestamp": "2025-06-07T16:11:30.106Z",
    "source_name": "google",
    "source_query": "Irrigation Equipment",
    "source_country": "IT",
    "country": "Italy",
    "state": "Emilia-Romagna",
    "city": "Pecorara"
  },
  {
    "source_id": "ChIJtVDkNgRFgEcRqc6umwWIJuI",
    "name": "Rm Spa",
    "category": "Rm Spa",
    "formatted_address": "4,6(81)",
    "phone_number": "+390521872321",
    "source_url": "https://www.google.com/maps/place/Rm+Spa/data=!4m7!3m6!1s0x4780450436e450b5:0xe22688059baecea9!8m2!3d44.9105406!4d10.2583785!16s%2Fg%2F12hl93byl!19sChIJtVDkNgRFgEcRqc6umwWIJuI?authuser=0&hl=tr&rclk=1",
    "website_url": "http://www.rmirrigation.com/",
    "rating_text": "4,6",
    "stars": null,
    "number_of_reviews": null,
    "price_level": "",
    "open_hours": "",
    "extraction_timestamp": "2025-06-07T16:11:30.107Z",
    "source_name": "google",
    "source_query": "Irrigation Equipment",
    "source_country": "IT",
    "country": "Italy",
    "state": "Emilia-Romagna",
    "city": "Pecorara"
  },
  {
    "source_id": "ChIJqdtsqMTaf0cRFSqvzNBB5Tw",
    "name": "Ricchetti Irrigazione Snc Di Alberghini Paolo E C.",
    "category": "Ricchetti Irrigazione Snc Di Alberghini Paolo E C.",
    "formatted_address": "4,9(31)",
    "phone_number": "+39051950115",
    "source_url": "https://www.google.com/maps/place/Ricchetti+Irrigazione+Snc+Di+Alberghini+Paolo+E+C./data=!4m7!3m6!1s0x477fdac4a86cdba9:0x3ce541d0ccaf2a15!8m2!3d44.5883369!4d11.1803569!16s%2Fg%2F1vfn5hgh!19sChIJqdtsqMTaf0cRFSqvzNBB5Tw?authuser=0&hl=tr&rclk=1",
    "website_url": "http://www.ricchetti-irrigatori.it/",
    "rating_text": "4,9",
    "stars": null,
    "number_of_reviews": null,
    "price_level": "",
    "open_hours": "",
    "extraction_timestamp": "2025-06-07T16:11:30.109Z",
    "source_name": "google",
    "source_query": "Irrigation Equipment",
    "source_country": "IT",
    "country": "Italy",
    "state": "Emilia-Romagna",
    "city": "Pecorara"
  },
  {
    "source_id": "ChIJh3Nd8G0sfkcR_m7VewEmxXM",
    "name": "Irrigarden",
    "category": "Irrigarden",
    "formatted_address": "4,7(158)",
    "phone_number": "+39051782013",
    "source_url": "https://www.google.com/maps/place/Irrigarden/data=!4m7!3m6!1s0x477e2c6df05d7387:0x73c526017bd56efe!8m2!3d44.5096266!4d11.4390897!16s%2Fg%2F1vgw_l7w!19sChIJh3Nd8G0sfkcR_m7VewEmxXM?authuser=0&hl=tr&rclk=1",
    "website_url": "https://www.irrigarden-bo.it/",
    "rating_text": "4,7",
    "stars": null,
    "number_of_reviews": null,
    "price_level": "",
    "open_hours": "",
    "extraction_timestamp": "2025-06-07T16:11:30.110Z",
    "source_name": "google",
    "source_query": "Irrigation Equipment",
    "source_country": "IT",
    "country": "Italy",
    "state": "Emilia-Romagna",
    "city": "Pecorara"
  },
  {
    "source_id": "ChIJ_SYf2IMsfkcRVw9xVhrnjyI",
    "name": "Irrigazione Bragaglia",
    "category": "Irrigazione Bragaglia",
    "formatted_address": "4,7(30)",
    "phone_number": "+39051534865",
    "source_url": "https://www.google.com/maps/place/Irrigazione+Bragaglia/data=!4m7!3m6!1s0x477e2c83d81f26fd:0x228fe71a56710f57!8m2!3d44.5053735!4d11.412403!16s%2Fg%2F1vp6z0gf!19sChIJ_SYf2IMsfkcRVw9xVhrnjyI?authuser=0&hl=tr&rclk=1",
    "website_url": "http://www.irrigazionebragaglia.it/",
    "rating_text": "4,7",
    "stars": null,
    "number_of_reviews": null,
    "price_level": "",
    "open_hours": "",
    "extraction_timestamp": "2025-06-07T16:11:30.111Z",
    "source_name": "google",
    "source_query": "Irrigation Equipment",
    "source_country": "IT",
    "country": "Italy",
    "state": "Emilia-Romagna",
    "city": "Pecorara"
  },
  {
    "source_id": "ChIJgVjbdx7df0cRsMjOLRKEzBA",
    "name": "Geocentro",
    "category": "Geocentro",
    "formatted_address": "4,4(87)",
    "phone_number": "+39059926168",
    "source_url": "https://www.google.com/maps/place/Geocentro/data=!4m7!3m6!1s0x477fdd1e77db5881:0x10cc84122dcec8b0!8m2!3d44.5868616!4d11.070717!16s%2Fg%2F11cn3ph0_q!19sChIJgVjbdx7df0cRsMjOLRKEzBA?authuser=0&hl=tr&rclk=1",
    "website_url": "https://www.geocentrosrl.it/",
    "rating_text": "4,4",
    "stars": null,
    "number_of_reviews": null,
    "price_level": "",
    "open_hours": "",
    "extraction_timestamp": "2025-06-07T16:11:30.112Z",
    "source_name": "google",
    "source_query": "Irrigation Equipment",
    "source_country": "IT",
    "country": "Italy",
    "state": "Emilia-Romagna",
    "city": "Pecorara"
  },
  {
    "source_id": "ChIJveAeFroEgEcRZfa9xqlB6vM",
    "name": "Morelli Irrigazioni",
    "category": "Morelli Irrigazioni",
    "formatted_address": "1,0(1)",
    "phone_number": "+393480042122",
    "source_url": "https://www.google.com/maps/place/Morelli+Irrigazioni/data=!4m7!3m6!1s0x478004ba161ee0bd:0xf3ea41a9c6bdf665!8m2!3d44.649256!4d10.5636837!16s%2Fg%2F11gy01p0bd!19sChIJveAeFroEgEcRZfa9xqlB6vM?authuser=0&hl=tr&rclk=1",
    "website_url": "http://irrigazionimorelli.it/",
    "rating_text": "1,0",
    "stars": null,
    "number_of_reviews": null,
    "price_level": "",
    "open_hours": "",
    "extraction_timestamp": "2025-06-07T16:11:30.113Z",
    "source_name": "google",
    "source_query": "Irrigation Equipment",
    "source_country": "IT",
    "country": "Italy",
    "state": "Emilia-Romagna",
    "city": "Pecorara"
  },
  {
    "source_id": "ChIJtdJC5j6Zf0cRmmVcuMyNEW0",
    "name": "Tadei | Impianti irrigazione | Robot tagliaerba | Barbecue | Outdoor",
    "category": "Tadei | Impianti irrigazione | Robot tagliaerba | Barbecue | Outdoor",
    "formatted_address": "4,6(69)",
    "phone_number": "+390386733460",
    "source_url": "https://www.google.com/maps/place/Tadei+%7C+Impianti+irrigazione+%7C+Robot+tagliaerba+%7C+Barbecue+%7C+Outdoor/data=!4m7!3m6!1s0x477f993ee642d2b5:0x6d118dccb85c659a!8m2!3d44.9680645!4d11.1076526!16s%2Fg%2F113dpgnd_!19sChIJtdJC5j6Zf0cRmmVcuMyNEW0?authuser=0&hl=tr&rclk=1",
    "website_url": "https://www.irrigazionetadei.it/",
    "rating_text": "4,6",
    "stars": null,
    "number_of_reviews": null,
    "price_level": "",
    "open_hours": "",
    "extraction_timestamp": "2025-06-07T16:11:30.114Z",
    "source_name": "google",
    "source_query": "Irrigation Equipment",
    "source_country": "IT",
    "country": "Italy",
    "state": "Emilia-Romagna",
    "city": "Pecorara"
  },
  {
    "source_id": "ChIJJ6V6lMDgf0cRkL2jf5B3MwQ",
    "name": "Scova Engineering Spa",
    "category": "Scova Engineering Spa",
    "formatted_address": "5,0(2)",
    "phone_number": "+39059702012",
    "source_url": "https://www.google.com/maps/place/Scova+Engineering+Spa/data=!4m7!3m6!1s0x477fe0c0947aa527:0x43377907fa3bd90!8m2!3d44.5304758!4d10.9796265!16s%2Fg%2F1tql3mky!19sChIJJ6V6lMDgf0cRkL2jf5B3MwQ?authuser=0&hl=tr&rclk=1",
    "website_url": "https://www.scova-engineering.it/",
    "rating_text": "5,0",
    "stars": null,
    "number_of_reviews": null,
    "price_level": "",
    "open_hours": "",
    "extraction_timestamp": "2025-06-07T16:11:30.116Z",
    "source_name": "google",
    "source_query": "Irrigation Equipment",
    "source_country": "IT",
    "country": "Italy",
    "state": "Emilia-Romagna",
    "city": "Pecorara"
  },
  {
    "source_id": "ChIJQ8fJol1SKxMRShirn3slxH4",
    "name": "Tecnir",
    "category": "Tecnir",
    "formatted_address": "4,4(17)",
    "phone_number": "+390546641026",
    "source_url": "https://www.google.com/maps/place/Tecnir/data=!4m7!3m6!1s0x132b525da2c9c743:0x7ec4257b9fab184a!8m2!3d44.363732!4d11.935557!16s%2Fg%2F1vfps_3m!19sChIJQ8fJol1SKxMRShirn3slxH4?authuser=0&hl=tr&rclk=1",
    "website_url": "https://www.tecnirirrigazione.it/",
    "rating_text": "4,4",
    "stars": null,
    "number_of_reviews": null,
    "price_level": "",
    "open_hours": "",
    "extraction_timestamp": "2025-06-07T16:11:30.117Z",
    "source_name": "google",
    "source_query": "Irrigation Equipment",
    "source_country": "IT",
    "country": "Italy",
    "state": "Emilia-Romagna",
    "city": "Pecorara"
  },
  {
    "source_id": "ChIJhT-kpAXff0cRKJQqKYwIulA",
    "name": "Irrigo",
    "category": "Irrigo",
    "formatted_address": "4,7(36)",
    "phone_number": "+393473096499",
    "source_url": "https://www.google.com/maps/place/Irrigo/data=!4m7!3m6!1s0x477fdf05a4a43f85:0x50ba088c292a9428!8m2!3d44.5018172!4d11.005272!16s%2Fg%2F11hdjcp5pk!19sChIJhT-kpAXff0cRKJQqKYwIulA?authuser=0&hl=tr&rclk=1",
    "website_url": "https://www.irrigovignola.it/",
    "rating_text": "4,7",
    "stars": null,
    "number_of_reviews": null,
    "price_level": "",
    "open_hours": "",
    "extraction_timestamp": "2025-06-07T16:11:30.118Z",
    "source_name": "google",
    "source_query": "Irrigation Equipment",
    "source_country": "IT",
    "country": "Italy",
    "state": "Emilia-Romagna",
    "city": "Pecorara"
  },
  {
    "source_id": "ChIJ-Z_RHvbnf0cRry0jCm7Q5GQ",
    "name": "Scova Impianti",
    "category": "Scova Impianti",
    "formatted_address": "4,0(4)",
    "phone_number": "+39059925910",
    "source_url": "https://www.google.com/maps/place/Scova+Impianti/data=!4m7!3m6!1s0x477fe7f61ed19ff9:0x64e4d06e0a232daf!8m2!3d44.6018937!4d11.0315223!16s%2Fg%2F1td6wznv!19sChIJ-Z_RHvbnf0cRry0jCm7Q5GQ?authuser=0&hl=tr&rclk=1",
    "website_url": "https://scovaimpianti.com/",
    "rating_text": "4,0",
    "stars": null,
    "number_of_reviews": null,
    "price_level": "",
    "open_hours": "",
    "extraction_timestamp": "2025-06-07T16:11:30.119Z",
    "source_name": "google",
    "source_query": "Irrigation Equipment",
    "source_country": "IT",
    "country": "Italy",
    "state": "Emilia-Romagna",
    "city": "Pecorara"
  },
  {
    "source_id": "ChIJn6L29Zjof0cRzkCm8WYZAS0",
    "name": "CAPRARA s.r.l.",
    "category": "CAPRARA s.r.l.",
    "formatted_address": "5,0(1)",
    "phone_number": "+39059284810",
    "source_url": "https://www.google.com/maps/place/CAPRARA+s.r.l./data=!4m7!3m6!1s0x477fe898f5f6a29f:0x2d011966f1a640ce!8m2!3d44.6281881!4d10.9732808!16s%2Fg%2F1hc636b9q!19sChIJn6L29Zjof0cRzkCm8WYZAS0?authuser=0&hl=tr&rclk=1",
    "website_url": "http://www.caprara.it/",
    "rating_text": "5,0",
    "stars": null,
    "number_of_reviews": null,
    "price_level": "",
    "open_hours": "",
    "extraction_timestamp": "2025-06-07T16:11:30.120Z",
    "source_name": "google",
    "source_query": "Irrigation Equipment",
    "source_country": "IT",
    "country": "Italy",
    "state": "Emilia-Romagna",
    "city": "Pecorara"
  },
  {
    "source_id": "ChIJkzU7v-7Zf0cRXv3FxVV7T4c",
    "name": "Geocentro",
    "category": "Geocentro",
    "formatted_address": "4,3(58)",
    "phone_number": "+390516720044",
    "source_url": "https://www.google.com/maps/place/Geocentro/data=!4m7!3m6!1s0x477fd9eebf3b3593:0x874f7b55c5c5fd5e!8m2!3d44.5139091!4d11.1695675!16s%2Fg%2F11b7jx7b07!19sChIJkzU7v-7Zf0cRXv3FxVV7T4c?authuser=0&hl=tr&rclk=1",
    "website_url": "https://www.geocentro.it/",
    "rating_text": "4,3",
    "stars": null,
    "number_of_reviews": null,
    "price_level": "",
    "open_hours": "",
    "extraction_timestamp": "2025-06-07T16:11:30.122Z",
    "source_name": "google",
    "source_query": "Irrigation Equipment",
    "source_country": "IT",
    "country": "Italy",
    "state": "Emilia-Romagna",
    "city": "Pecorara"
  },
  {
    "source_id": "ChIJj7p79zMzKxMRxzB_tpcRXKE",
    "name": "F.lli Farne' Srl",
    "category": "F.lli Farne' Srl",
    "formatted_address": "4,7(97)",
    "phone_number": "+39051941145",
    "source_url": "https://www.google.com/maps/place/F.lli+Farne%27+Srl/data=!4m7!3m6!1s0x132b3333f77bba8f:0xa15c1197b67f30c7!8m2!3d44.4060269!4d11.5874732!16s%2Fg%2F1vx88btc!19sChIJj7p79zMzKxMRxzB_tpcRXKE?authuser=0&hl=tr&rclk=1",
    "website_url": "https://fratellifarnesrl.it/",
    "rating_text": "4,7",
    "stars": null,
    "number_of_reviews": null,
    "price_level": "",
    "open_hours": "",
    "extraction_timestamp": "2025-06-07T16:11:30.123Z",
    "source_name": "google",
    "source_query": "Irrigation Equipment",
    "source_country": "IT",
    "country": "Italy",
    "state": "Emilia-Romagna",
    "city": "Pecorara"
  },
  {
    "source_id": "ChIJJbw7jKrNf0cR-Jb9f_5Wjms",
    "name": "Z.P. Motori Elettrici e Elettropompe",
    "category": "Z.P. Motori Elettrici e Elettropompe",
    "formatted_address": "4,7(19)",
    "phone_number": "+390516650012",
    "source_url": "https://www.google.com/maps/place/Z.P.+Motori+Elettrici+e+Elettropompe/data=!4m7!3m6!1s0x477fcdaa8c3bbc25:0x6b8e56fe7ffd96f8!8m2!3d44.6168604!4d11.3681876!16s%2Fg%2F1tdxd3pt!19sChIJJbw7jKrNf0cR-Jb9f_5Wjms?authuser=0&hl=tr&rclk=1",
    "website_url": "http://www.zpzanardi.com/",
    "rating_text": "4,7",
    "stars": null,
    "number_of_reviews": null,
    "price_level": "",
    "open_hours": "",
    "extraction_timestamp": "2025-06-07T16:11:30.124Z",
    "source_name": "google",
    "source_query": "Irrigation Equipment",
    "source_country": "IT",
    "country": "Italy",
    "state": "Emilia-Romagna",
    "city": "Pecorara"
  },
  {
    "source_id": "ChIJh5ntU4UegEcRhIP4fbjkHS8",
    "name": "Attrezzature zootecniche - Nuova Cagi",
    "category": "Attrezzature zootecniche - Nuova Cagi",
    "formatted_address": "5,0(4)",
    "phone_number": "+390522517651",
    "source_url": "https://www.google.com/maps/place/Attrezzature+zootecniche+-+Nuova+Cagi/data=!4m7!3m6!1s0x47801e8553ed9987:0x2f1de4b87df88384!8m2!3d44.7357516!4d10.647524!16s%2Fg%2F1tf34tbn!19sChIJh5ntU4UegEcRhIP4fbjkHS8?authuser=0&hl=tr&rclk=1",
    "website_url": "https://nuovacagi.com/",
    "rating_text": "5,0",
    "stars": null,
    "number_of_reviews": null,
    "price_level": "",
    "open_hours": "",
    "extraction_timestamp": "2025-06-07T16:11:30.125Z",
    "source_name": "google",
    "source_query": "Irrigation Equipment",
    "source_country": "IT",
    "country": "Italy",
    "state": "Emilia-Romagna",
    "city": "Pecorara"
  },
  {
    "source_id": "ChIJiVSvsQIdgEcR0PUcMFDq-Yg",
    "name": "Idrotim",
    "category": "Idrotim",
    "formatted_address": "5,0(5)",
    "phone_number": "+393387675768",
    "source_url": "https://www.google.com/maps/place/Idrotim/data=!4m7!3m6!1s0x47801d02b1af5489:0x88f9ea50301cf5d0!8m2!3d44.642221!4d10.671266!16s%2Fg%2F1tnhx5lh!19sChIJiVSvsQIdgEcR0PUcMFDq-Yg?authuser=0&hl=tr&rclk=1",
    "website_url": "http://www.idrotim.it/",
    "rating_text": "5,0",
    "stars": null,
    "number_of_reviews": null,
    "price_level": "",
    "open_hours": "",
    "extraction_timestamp": "2025-06-07T16:11:30.127Z",
    "source_name": "google",
    "source_query": "Irrigation Equipment",
    "source_country": "IT",
    "country": "Italy",
    "state": "Emilia-Romagna",
    "city": "Pecorara"
  },
  {
    "source_id": "ChIJy4AVn9C-LBMRn6nsnuZl82A",
    "name": "Ramilli Irrigazioni S.R.L.",
    "category": "Ramilli Irrigazioni S.R.L.",
    "formatted_address": "4,3(52)",
    "phone_number": "+390541945335",
    "source_url": "https://www.google.com/maps/place/Ramilli+Irrigazioni+S.R.L./data=!4m7!3m6!1s0x132cbed09f1580cb:0x60f365e69eeca99f!8m2!3d44.0923156!4d12.3843691!16s%2Fg%2F1ts2ls1r!19sChIJy4AVn9C-LBMRn6nsnuZl82A?authuser=0&hl=tr&rclk=1",
    "website_url": "https://www.ramilli.it/",
    "rating_text": "4,3",
    "stars": null,
    "number_of_reviews": null,
    "price_level": "",
    "open_hours": "",
    "extraction_timestamp": "2025-06-07T16:11:30.128Z",
    "source_name": "google",
    "source_query": "Irrigation Equipment",
    "source_country": "IT",
    "country": "Italy",
    "state": "Emilia-Romagna",
    "city": "Pecorara"
  },
  {
    "source_id": "ChIJZa4nbJAegEcREqQVLyDrIik",
    "name": "Bell S.r.l.",
    "category": "Bell S.r.l.",
    "formatted_address": "4,1(8)",
    "phone_number": "+390522505911",
    "source_url": "https://www.google.com/maps/place/Bell+S.r.l./data=!4m7!3m6!1s0x47801e906c27ae65:0x2922eb202f15a412!8m2!3d44.7372115!4d10.6465257!16s%2Fg%2F1vl9qbfm!19sChIJZa4nbJAegEcREqQVLyDrIik?authuser=0&hl=tr&rclk=1",
    "website_url": "https://bell.it/",
    "rating_text": "4,1",
    "stars": null,
    "number_of_reviews": null,
    "price_level": "",
    "open_hours": "",
    "extraction_timestamp": "2025-06-07T16:11:30.129Z",
    "source_name": "google",
    "source_query": "Irrigation Equipment",
    "source_country": "IT",
    "country": "Italy",
    "state": "Emilia-Romagna",
    "city": "Pecorara"
  },
  {
    "source_id": "ChIJN7GAlk-Jf0cRUw3Ah4cFO-o",
    "name": "Elettromeccanica Calzolari Srl",
    "category": "Elettromeccanica Calzolari Srl",
    "formatted_address": "4,5(108)",
    "phone_number": "+390522665507",
    "source_url": "https://www.google.com/maps/place/Elettromeccanica+Calzolari+Srl/data=!4m7!3m6!1s0x477f894f9680b137:0xea3b058787c00d53!8m2!3d44.869564!4d10.8407936!16s%2Fg%2F1tdn_9j9!19sChIJN7GAlk-Jf0cRUw3Ah4cFO-o?authuser=0&hl=tr&rclk=1",
    "website_url": "http://www.calzolarire.it/",
    "rating_text": "4,5",
    "stars": null,
    "number_of_reviews": null,
    "price_level": "",
    "open_hours": "",
    "extraction_timestamp": "2025-06-07T16:11:30.130Z",
    "source_name": "google",
    "source_query": "Irrigation Equipment",
    "source_country": "IT",
    "country": "Italy",
    "state": "Emilia-Romagna",
    "city": "Pecorara"
  },
  {
    "source_id": "ChIJi24mSbsggEcRb26xfRLERzM",
    "name": "Garden Store",
    "category": "Garden Store",
    "formatted_address": "4,5(73)",
    "phone_number": "+393351499648",
    "source_url": "https://www.google.com/maps/place/Garden+Store/data=!4m7!3m6!1s0x478020bb49266e8b:0x3347c4127db16e6f!8m2!3d44.8472938!4d10.7413978!16s%2Fg%2F119x3dp7l!19sChIJi24mSbsggEcRb26xfRLERzM?authuser=0&hl=tr&rclk=1",
    "website_url": "http://www.gardenstoresrl.it/",
    "rating_text": "4,5",
    "stars": null,
    "number_of_reviews": null,
    "price_level": "",
    "open_hours": "",
    "extraction_timestamp": "2025-06-07T16:11:30.131Z",
    "source_name": "google",
    "source_query": "Irrigation Equipment",
    "source_country": "IT",
    "country": "Italy",
    "state": "Emilia-Romagna",
    "city": "Pecorara"
  },
  {
    "source_id": "ChIJVzLTd2QkgEcRpItNQwn5J_Q",
    "name": "Idraulica Emiliana S.p.A.",
    "category": "Idraulica Emiliana S.p.A.",
    "formatted_address": "4,0(23)",
    "phone_number": "+390522221711",
    "source_url": "https://www.google.com/maps/place/Idraulica+Emiliana+S.p.A./data=!4m7!3m6!1s0x4780246477d33257:0xf427f909434d8ba4!8m2!3d44.8952024!4d10.6311501!16s%2Fg%2F11dxm6bh90!19sChIJVzLTd2QkgEcRpItNQwn5J_Q?authuser=0&hl=tr&rclk=1",
    "website_url": "http://www.idraulicaemiliana.com/",
    "rating_text": "4,0",
    "stars": null,
    "number_of_reviews": null,
    "price_level": "",
    "open_hours": "",
    "extraction_timestamp": "2025-06-07T16:11:30.132Z",
    "source_name": "google",
    "source_query": "Irrigation Equipment",
    "source_country": "IT",
    "country": "Italy",
    "state": "Emilia-Romagna",
    "city": "Pecorara"
  },
  {
    "source_id": "ChIJb8MGHf8PgEcRvsfXRlZ8l-o",
    "name": "O.C.R.E. Elettromeccanica",
    "category": "O.C.R.E. Elettromeccanica",
    "formatted_address": "5,0(2)",
    "phone_number": "+390522882335",
    "source_url": "https://www.google.com/maps/place/O.C.R.E.+Elettromeccanica/data=!4m7!3m6!1s0x47800fff1d06c36f:0xea977c5646d7c7be!8m2!3d44.6625805!4d10.488149!16s%2Fg%2F1tdjvwds!19sChIJb8MGHf8PgEcRvsfXRlZ8l-o?authuser=0&hl=tr&rclk=1",
    "website_url": "",
    "rating_text": "5,0",
    "stars": null,
    "number_of_reviews": null,
    "price_level": "",
    "open_hours": "",
    "extraction_timestamp": "2025-06-07T16:11:30.133Z",
    "source_name": "google",
    "source_query": "Irrigation Equipment",
    "source_country": "IT",
    "country": "Italy",
    "state": "Emilia-Romagna",
    "city": "Pecorara"
  },
  {
    "source_id": "ChIJOVoYwcXvf0cRi3QVtRk6KRU",
    "name": "Caprari",
    "category": "Caprari",
    "formatted_address": "4,4(40)",
    "phone_number": "+39059897611",
    "source_url": "https://www.google.com/maps/place/Caprari/data=!4m7!3m6!1s0x477fefc5c1185a39:0x15293a19b515748b!8m2!3d44.6573831!4d10.880122!16s%2Fg%2F11b6zr3r2w!19sChIJOVoYwcXvf0cRi3QVtRk6KRU?authuser=0&hl=tr&rclk=1",
    "website_url": "http://www.caprari.it/",
    "rating_text": "4,4",
    "stars": null,
    "number_of_reviews": null,
    "price_level": "",
    "open_hours": "",
    "extraction_timestamp": "2025-06-07T16:11:30.134Z",
    "source_name": "google",
    "source_query": "Irrigation Equipment",
    "source_country": "IT",
    "country": "Italy",
    "state": "Emilia-Romagna",
    "city": "Pecorara"
  },
  {
    "source_id": "ChIJeyF_JI0dgEcRph_mLapLnA0",
    "name": "Bertani S.p.a. - Sede e Magazzino di Reggio Emilia",
    "category": "Bertani S.p.a. - Sede e Magazzino di Reggio Emilia",
    "formatted_address": "4,1(98)",
    "phone_number": "+390522355511",
    "source_url": "https://www.google.com/maps/place/Bertani+S.p.a.+-+Sede+e+Magazzino+di+Reggio+Emilia/data=!4m7!3m6!1s0x47801d8d247f217b:0xd9c4baa2de61fa6!8m2!3d44.6724548!4d10.6435146!16s%2Fg%2F1wf37g1y!19sChIJeyF_JI0dgEcRph_mLapLnA0?authuser=0&hl=tr&rclk=1",
    "website_url": "https://www.bertani.it/it_IT/punti-vendita/sede-reggio-emilia",
    "rating_text": "4,1",
    "stars": null,
    "number_of_reviews": null,
    "price_level": "",
    "open_hours": "",
    "extraction_timestamp": "2025-06-07T16:11:30.135Z",
    "source_name": "google",
    "source_query": "Irrigation Equipment",
    "source_country": "IT",
    "country": "Italy",
    "state": "Emilia-Romagna",
    "city": "Pecorara"
  },
  {
    "source_id": "ChIJd9DYVlDtgEcRr1d7CrVIliM",
    "name": "RIVENDITA AGRARIA CRISTALLI di B.G.",
    "category": "RIVENDITA AGRARIA CRISTALLI di B.G.",
    "formatted_address": "4,9(27)",
    "phone_number": "+390523859163",
    "source_url": "https://www.google.com/maps/place/RIVENDITA+AGRARIA+CRISTALLI+di+B.G./data=!4m7!3m6!1s0x4780ed5056d8d077:0x239648b50a7b57af!8m2!3d44.9137014!4d9.7877159!16s%2Fg%2F11p61lb0nt!19sChIJd9DYVlDtgEcRr1d7CrVIliM?authuser=0&hl=tr&rclk=1",
    "website_url": "https://www.facebook.com/agrariacristalli",
    "rating_text": "4,9",
    "stars": null,
    "number_of_reviews": null,
    "price_level": "",
    "open_hours": "",
    "extraction_timestamp": "2025-06-07T16:11:30.136Z",
    "source_name": "google",
    "source_query": "Irrigation Equipment",
    "source_country": "IT",
    "country": "Italy",
    "state": "Emilia-Romagna",
    "city": "Pecorara"
  },
  {
    "source_id": "ChIJc_FRC6Ltf0cRdOFGl6sEcxM",
    "name": "Emmebi Agrotecnica",
    "category": "Emmebi Agrotecnica",
    "formatted_address": "4,5(123)",
    "phone_number": "+39059566838",
    "source_url": "https://www.google.com/maps/place/Emmebi+Agrotecnica/data=!4m7!3m6!1s0x477feda20b51f173:0x137304ab9746e174!8m2!3d44.7330703!4d10.9184999!16s%2Fg%2F1q62bql9t!19sChIJc_FRC6Ltf0cRdOFGl6sEcxM?authuser=0&hl=tr&rclk=1",
    "website_url": "https://www.gogoverde.it/",
    "rating_text": "4,5",
    "stars": null,
    "number_of_reviews": null,
    "price_level": "",
    "open_hours": "",
    "extraction_timestamp": "2025-06-07T16:11:30.137Z",
    "source_name": "google",
    "source_query": "Irrigation Equipment",
    "source_country": "IT",
    "country": "Italy",
    "state": "Emilia-Romagna",
    "city": "Pecorara"
  }
]
