[
  {
    "source_id": "ChIJtVDkNgRFgEcRqc6umwWIJuI",
    "name": "Rm Spa",
    "category": "Rm Spa",
    "formatted_address": "4,6(81)",
    "phone_number": "+390521872321",
    "source_url": "https://www.google.com/maps/place/Rm+Spa/data=!4m7!3m6!1s0x4780450436e450b5:0xe22688059baecea9!8m2!3d44.9105406!4d10.2583785!16s%2Fg%2F12hl93byl!19sChIJtVDkNgRFgEcRqc6umwWIJuI?authuser=0&hl=tr&rclk=1",
    "website_url": "http://www.rmirrigation.com/",
    "rating_text": "4,6",
    "stars": null,
    "number_of_reviews": null,
    "price_level": "",
    "open_hours": "",
    "extraction_timestamp": "2025-06-07T17:09:30.418Z",
    "source_name": "google",
    "source_query": "Irrigation Equipment",
    "source_country": "IT",
    "country": "Italy",
    "state": "Emilia-Romagna",
    "city": "Pellegrino Parmense"
  },
  {
    "source_id": "ChIJX2P7h3ZggEcRIo3TTP0_tuk",
    "name": "Agrigarden snc di Ambroggi",
    "category": "Agrigarden snc di Ambroggi",
    "formatted_address": "4,6(157)",
    "phone_number": "+390524523020",
    "source_url": "https://www.google.com/maps/place/Agrigarden+snc+di+Ambroggi/data=!4m7!3m6!1s0x4780607687fb635f:0xe9b63ffd4cd38d22!8m2!3d44.846688!4d10.0244782!16s%2Fg%2F1hc452qxl!19sChIJX2P7h3ZggEcRIo3TTP0_tuk?authuser=0&hl=tr&rclk=1",
    "website_url": "http://www.agrigardenparma.it/",
    "rating_text": "4,6",
    "stars": null,
    "number_of_reviews": null,
    "price_level": "",
    "open_hours": "",
    "extraction_timestamp": "2025-06-07T17:09:30.421Z",
    "source_name": "google",
    "source_query": "Irrigation Equipment",
    "source_country": "IT",
    "country": "Italy",
    "state": "Emilia-Romagna",
    "city": "Pellegrino Parmense"
  },
  {
    "source_id": "ChIJ3ffAufBtgEcRCytqNHDLXR4",
    "name": "Del Frate Srl",
    "category": "Del Frate Srl",
    "formatted_address": "4,8(37)",
    "phone_number": "+390521986971",
    "source_url": "https://www.google.com/maps/place/Del+Frate+Srl/data=!4m7!3m6!1s0x47806df0b9c0f7dd:0x1e5dcb70346a2b0b!8m2!3d44.8108795!4d10.3145985!16s%2Fg%2F119w9gdyl!19sChIJ3ffAufBtgEcRCytqNHDLXR4?authuser=0&hl=tr&rclk=1",
    "website_url": "https://delfrate.it/",
    "rating_text": "4,8",
    "stars": null,
    "number_of_reviews": null,
    "price_level": "",
    "open_hours": "",
    "extraction_timestamp": "2025-06-07T17:09:30.423Z",
    "source_name": "google",
    "source_query": "Irrigation Equipment",
    "source_country": "IT",
    "country": "Italy",
    "state": "Emilia-Romagna",
    "city": "Pellegrino Parmense"
  },
  {
    "source_id": "ChIJP-CISQ3-gEcRXwl1yi9NW2Q",
    "name": "SIIP - Società Impianti di irrigazione a pioggia",
    "category": "SIIP - Società Impianti di irrigazione a pioggia",
    "formatted_address": "5,0(2)",
    "phone_number": "+393356863605",
    "source_url": "https://www.google.com/maps/place/SIIP+-+Societ%C3%A0+Impianti+di+irrigazione+a+pioggia/data=!4m7!3m6!1s0x4780fe0d4988e03f:0x645b4d2fca75095f!8m2!3d45.1417827!4d10.0200624!16s%2Fg%2F1vqtfn9y!19sChIJP-CISQ3-gEcRXwl1yi9NW2Q?authuser=0&hl=tr&rclk=1",
    "website_url": "https://www.impiantiirrigazionicremona.com/",
    "rating_text": "5,0",
    "stars": null,
    "number_of_reviews": null,
    "price_level": "",
    "open_hours": "",
    "extraction_timestamp": "2025-06-07T17:09:30.424Z",
    "source_name": "google",
    "source_query": "Irrigation Equipment",
    "source_country": "IT",
    "country": "Italy",
    "state": "Emilia-Romagna",
    "city": "Pellegrino Parmense"
  },
  {
    "source_id": "ChIJvWESljtqgEcRyACWMGuoih0",
    "name": "Idro Verde",
    "category": "Idro Verde",
    "formatted_address": "Çim Yağmurlama Sistemi Yüklenicisi ·  · Via Emilia Ovest, 129Açık ⋅ Kapanış saati: 21:00 · +39 338 397 2503",
    "phone_number": "+393383972503",
    "source_url": "https://www.google.com/maps/place/Idro+Verde/data=!4m7!3m6!1s0x47806a3b961261bd:0x1d8aa86b309600c8!8m2!3d44.8113047!4d10.2811005!16s%2Fg%2F11c6y_k67v!19sChIJvWESljtqgEcRyACWMGuoih0?authuser=0&hl=tr&rclk=1",
    "website_url": "http://idroverdeparma.it/",
    "rating_text": "",
    "stars": null,
    "number_of_reviews": null,
    "price_level": "",
    "open_hours": "",
    "extraction_timestamp": "2025-06-07T17:09:30.425Z",
    "source_name": "google",
    "source_query": "Irrigation Equipment",
    "source_country": "IT",
    "country": "Italy",
    "state": "Emilia-Romagna",
    "city": "Pellegrino Parmense"
  },
  {
    "source_id": "ChIJQyDw8N_0f0cRhE_m36C06SU",
    "name": "Irrigreen",
    "category": "Irrigreen",
    "formatted_address": "4,3(3)",
    "phone_number": "+390522642318",
    "source_url": "https://www.google.com/maps/place/Irrigreen/data=!4m7!3m6!1s0x477ff4dff0f02043:0x25e9b4a0dfe64f84!8m2!3d45.1836109!4d10.6267461!16s%2Fg%2F1tddwm9t!19sChIJQyDw8N_0f0cRhE_m36C06SU?authuser=0&hl=tr&rclk=1",
    "website_url": "http://www.irrigreen.it/",
    "rating_text": "4,3",
    "stars": null,
    "number_of_reviews": null,
    "price_level": "",
    "open_hours": "",
    "extraction_timestamp": "2025-06-07T17:09:30.427Z",
    "source_name": "google",
    "source_query": "Irrigation Equipment",
    "source_country": "IT",
    "country": "Italy",
    "state": "Emilia-Romagna",
    "city": "Pellegrino Parmense"
  },
  {
    "source_id": "ChIJadLuaGo-gEcRDBKkxcodp6M",
    "name": "Ferrari WaterDesign | Progettazione e realizzazione piscine",
    "category": "Ferrari WaterDesign | Progettazione e realizzazione piscine",
    "formatted_address": "4,5(42)",
    "phone_number": "+390521883268",
    "source_url": "https://www.google.com/maps/place/Ferrari+WaterDesign+%7C+Progettazione+e+realizzazione+piscine/data=!4m7!3m6!1s0x47803e6a68eed269:0xa3a71dcac5a4120c!8m2!3d44.8429215!4d10.4431267!16s%2Fg%2F1vqtfn7x!19sChIJadLuaGo-gEcRDBKkxcodp6M?authuser=0&hl=tr&rclk=1",
    "website_url": "https://www.ferrariwaterdesign.it/",
    "rating_text": "4,5",
    "stars": null,
    "number_of_reviews": null,
    "price_level": "",
    "open_hours": "",
    "extraction_timestamp": "2025-06-07T17:09:30.429Z",
    "source_name": "google",
    "source_query": "Irrigation Equipment",
    "source_country": "IT",
    "country": "Italy",
    "state": "Emilia-Romagna",
    "city": "Pellegrino Parmense"
  },
  {
    "source_id": "ChIJz8IMiLWJgEcR4MmUEEZI_n8",
    "name": "La Bottega Sottosopra",
    "category": "La Bottega Sottosopra",
    "formatted_address": "5,0(10)",
    "phone_number": "+393517842769",
    "source_url": "https://www.google.com/maps/place/La+Bottega+Sottosopra/data=!4m7!3m6!1s0x478089b5880cc2cf:0x7ffe48461094c9e0!8m2!3d44.7306381!4d9.9301612!16s%2Fg%2F11s27flstq!19sChIJz8IMiLWJgEcR4MmUEEZI_n8?authuser=0&hl=tr&rclk=1",
    "website_url": "",
    "rating_text": "5,0",
    "stars": null,
    "number_of_reviews": null,
    "price_level": "",
    "open_hours": "",
    "extraction_timestamp": "2025-06-07T17:09:30.430Z",
    "source_name": "google",
    "source_query": "Irrigation Equipment",
    "source_country": "IT",
    "country": "Italy",
    "state": "Emilia-Romagna",
    "city": "Pellegrino Parmense"
  },
  {
    "source_id": "ChIJQbQkaWiIgEcRFstz7SgSdcU",
    "name": "Consorzio Agrario Provinciale Di Parma Soc.Coop. A.R.L.",
    "category": "Consorzio Agrario Provinciale Di Parma Soc.Coop. A.R.L.",
    "formatted_address": "4,6(18)",
    "phone_number": "+39052464696",
    "source_url": "https://www.google.com/maps/place/Consorzio+Agrario+Provinciale+Di+Parma+Soc.Coop.+A.R.L./data=!4m7!3m6!1s0x478088686924b441:0xc5751228ed73cb16!8m2!3d44.7347061!4d9.9255678!16s%2Fg%2F1tgmv37j!19sChIJQbQkaWiIgEcRFstz7SgSdcU?authuser=0&hl=tr&rclk=1",
    "website_url": "",
    "rating_text": "4,6",
    "stars": null,
    "number_of_reviews": null,
    "price_level": "",
    "open_hours": "",
    "extraction_timestamp": "2025-06-07T17:09:30.432Z",
    "source_name": "google",
    "source_query": "Irrigation Equipment",
    "source_country": "IT",
    "country": "Italy",
    "state": "Emilia-Romagna",
    "city": "Pellegrino Parmense"
  },
  {
    "source_id": "ChIJ9V7VUGIbEQ4Rd0H8gwcDqwk",
    "name": "Mannino Sistemi Trattamento Acqua",
    "category": "Mannino Sistemi Trattamento Acqua",
    "formatted_address": "3,7(3)",
    "phone_number": "+393505784936",
    "source_url": "https://www.google.com/maps/place/Mannino+Sistemi+Trattamento+Acqua/data=!4m7!3m6!1s0xe111b6250d55ef5:0x9ab030783fc4177!8m2!3d45.0422201!4d9.6981487!16s%2Fg%2F11s33q_spp!19sChIJ9V7VUGIbEQ4Rd0H8gwcDqwk?authuser=0&hl=tr&rclk=1",
    "website_url": "http://www.manninodepurazione.it/",
    "rating_text": "3,7",
    "stars": null,
    "number_of_reviews": null,
    "price_level": "",
    "open_hours": "",
    "extraction_timestamp": "2025-06-07T17:09:30.433Z",
    "source_name": "google",
    "source_query": "Irrigation Equipment",
    "source_country": "IT",
    "country": "Italy",
    "state": "Emilia-Romagna",
    "city": "Pellegrino Parmense"
  },
  {
    "source_id": "ChIJoWn3Mt1ugEcRuJFECy0B-Rs",
    "name": "Maini Giardinaggio",
    "category": "Maini Giardinaggio",
    "formatted_address": "",
    "phone_number": "+393466905853",
    "source_url": "https://www.google.com/maps/place/Maini+Giardinaggio/data=!4m7!3m6!1s0x47806edd32f769a1:0x1bf9012d0b4491b8!8m2!3d41.29085!4d12.71216!16s%2Fg%2F1tg6tkcp!19sChIJoWn3Mt1ugEcRuJFECy0B-Rs?authuser=0&hl=tr&rclk=1",
    "website_url": "",
    "rating_text": "",
    "stars": null,
    "number_of_reviews": null,
    "price_level": "",
    "open_hours": "",
    "extraction_timestamp": "2025-06-07T17:09:30.434Z",
    "source_name": "google",
    "source_query": "Irrigation Equipment",
    "source_country": "IT",
    "country": "Italy",
    "state": "Emilia-Romagna",
    "city": "Pellegrino Parmense"
  },
  {
    "source_id": "ChIJveAeFroEgEcRZfa9xqlB6vM",
    "name": "Morelli Irrigazioni",
    "category": "Morelli Irrigazioni",
    "formatted_address": "1,0(1)",
    "phone_number": "+393480042122",
    "source_url": "https://www.google.com/maps/place/Morelli+Irrigazioni/data=!4m7!3m6!1s0x478004ba161ee0bd:0xf3ea41a9c6bdf665!8m2!3d44.649256!4d10.5636837!16s%2Fg%2F11gy01p0bd!19sChIJveAeFroEgEcRZfa9xqlB6vM?authuser=0&hl=tr&rclk=1",
    "website_url": "http://irrigazionimorelli.it/",
    "rating_text": "1,0",
    "stars": null,
    "number_of_reviews": null,
    "price_level": "",
    "open_hours": "",
    "extraction_timestamp": "2025-06-07T17:09:30.435Z",
    "source_name": "google",
    "source_query": "Irrigation Equipment",
    "source_country": "IT",
    "country": "Italy",
    "state": "Emilia-Romagna",
    "city": "Pellegrino Parmense"
  }
]
