[
  {
    "source_id": "ChIJpbtK3cuHLBMRK_e1n1OP84Q",
    "name": "AGRISTEFANI Husqvarna Professional",
    "category": "AGRISTEFANI Husqvarna Professional",
    "formatted_address": "4,6(40)",
    "phone_number": "+390541915758",
    "source_url": "https://www.google.com/maps/place/AGRISTEFANI+Husqvarna+Professional/data=!4m7!3m6!1s0x132c87cbdd4abba5:0x84f38f539fb5f72b!8m2!3d43.774289!4d12.2380698!16s%2Fg%2F1tg7j1j5!19sChIJpbtK3cuHLBMRK_e1n1OP84Q?authuser=0&hl=tr&rclk=1",
    "website_url": "https://www.agristefani.it/",
    "rating_text": "4,6",
    "stars": null,
    "number_of_reviews": null,
    "price_level": "",
    "open_hours": "",
    "extraction_timestamp": "2025-06-07T16:21:39.449Z",
    "source_name": "google",
    "source_query": "Irrigation Equipment",
    "source_country": "IT",
    "country": "Italy",
    "state": "Emilia-Romagna",
    "city": "Pennabilli"
  },
  {
    "source_id": "ChIJ9X_DI6LDLBMR84MeChQNUCU",
    "name": "Irriverde - Il Paesaggio S.r.l.",
    "category": "Irriverde - Il Paesaggio S.r.l.",
    "formatted_address": "4,8(15)",
    "phone_number": "+393939275801",
    "source_url": "https://www.google.com/maps/place/Irriverde+-+Il+Paesaggio+S.r.l./data=!4m7!3m6!1s0x132cc3a223c37ff5:0x25500d140a1e83f3!8m2!3d43.982224!4d12.5281091!16s%2Fg%2F1ptz65rjr!19sChIJ9X_DI6LDLBMR84MeChQNUCU?authuser=0&hl=tr&rclk=1",
    "website_url": "http://www.irriverde.it/",
    "rating_text": "4,8",
    "stars": null,
    "number_of_reviews": null,
    "price_level": "",
    "open_hours": "",
    "extraction_timestamp": "2025-06-07T16:21:39.450Z",
    "source_name": "google",
    "source_query": "Irrigation Equipment",
    "source_country": "IT",
    "country": "Italy",
    "state": "Emilia-Romagna",
    "city": "Pennabilli"
  },
  {
    "source_id": "ChIJy4AVn9C-LBMRn6nsnuZl82A",
    "name": "Ramilli Irrigazioni S.R.L.",
    "category": "Ramilli Irrigazioni S.R.L.",
    "formatted_address": "4,3(52)",
    "phone_number": "+390541945335",
    "source_url": "https://www.google.com/maps/place/Ramilli+Irrigazioni+S.R.L./data=!4m7!3m6!1s0x132cbed09f1580cb:0x60f365e69eeca99f!8m2!3d44.0923156!4d12.3843691!16s%2Fg%2F1ts2ls1r!19sChIJy4AVn9C-LBMRn6nsnuZl82A?authuser=0&hl=tr&rclk=1",
    "website_url": "https://www.ramilli.it/",
    "rating_text": "4,3",
    "stars": null,
    "number_of_reviews": null,
    "price_level": "",
    "open_hours": "",
    "extraction_timestamp": "2025-06-07T16:21:39.452Z",
    "source_name": "google",
    "source_query": "Irrigation Equipment",
    "source_country": "IT",
    "country": "Italy",
    "state": "Emilia-Romagna",
    "city": "Pennabilli"
  },
  {
    "source_id": "ChIJiXPWE06PLBMRQSJzv4ElhoA",
    "name": "Il Mulino La Natura E Le Sue Origini Di Davide Cangini",
    "category": "Il Mulino La Natura E Le Sue Origini Di Davide Cangini",
    "formatted_address": "4,8(10)",
    "phone_number": "+390541928209",
    "source_url": "https://www.google.com/maps/place/Il+Mulino+La+Natura+E+Le+Sue+Origini+Di+Davide+Cangini/data=!4m7!3m6!1s0x132c8f4e13d67389:0x80862581bf732241!8m2!3d43.8189358!4d12.2669826!16s%2Fg%2F1tq25xrb!19sChIJiXPWE06PLBMRQSJzv4ElhoA?authuser=0&hl=tr&rclk=1",
    "website_url": "",
    "rating_text": "4,8",
    "stars": null,
    "number_of_reviews": null,
    "price_level": "",
    "open_hours": "",
    "extraction_timestamp": "2025-06-07T16:21:39.454Z",
    "source_name": "google",
    "source_query": "Irrigation Equipment",
    "source_country": "IT",
    "country": "Italy",
    "state": "Emilia-Romagna",
    "city": "Pennabilli"
  }
]
