[
  {
    "source_id": "ChIJy805WcDcgEcRtmGWlwosXQc",
    "name": "IRRIMEC SRL",
    "category": "IRRIMEC SRL",
    "formatted_address": "4,5(90)",
    "phone_number": "+390523760441",
    "source_url": "https://www.google.com/maps/place/IRRIMEC+SRL/data=!4m7!3m6!1s0x4780dcc05939cdcb:0x75d2c0a979661b6!8m2!3d45.0612353!4d9.630829!16s%2Fg%2F1tdgt7d_!19sChIJy805WcDcgEcRtmGWlwosXQc?authuser=0&hl=tr&rclk=1",
    "website_url": "",
    "rating_text": "4,5",
    "stars": null,
    "number_of_reviews": null,
    "price_level": "",
    "open_hours": "",
    "extraction_timestamp": "2025-06-07T16:40:37.618Z",
    "source_name": "google",
    "source_query": "Irrigation Equipment",
    "source_country": "IT",
    "country": "Italy",
    "state": "Emilia-Romagna",
    "city": "Piacenza"
  },
  {
    "source_id": "ChIJMTEpniTdgEcRsgkWJI_R0qI",
    "name": "Hydraulic Emiliana S.p.A.",
    "category": "Hydraulic Emiliana S.p.A.",
    "formatted_address": "4,6(28)",
    "phone_number": "+390523592969",
    "source_url": "https://www.google.com/maps/place/Hydraulic+Emiliana+S.p.A./data=!4m7!3m6!1s0x4780dd249e293131:0xa2d2d18f241609b2!8m2!3d45.0549866!4d9.6596178!16s%2Fg%2F11b6gnklmr!19sChIJMTEpniTdgEcRsgkWJI_R0qI?authuser=0&hl=tr&rclk=1",
    "website_url": "",
    "rating_text": "4,6",
    "stars": null,
    "number_of_reviews": null,
    "price_level": "",
    "open_hours": "",
    "extraction_timestamp": "2025-06-07T16:40:37.618Z",
    "source_name": "google",
    "source_query": "Irrigation Equipment",
    "source_country": "IT",
    "country": "Italy",
    "state": "Emilia-Romagna",
    "city": "Piacenza"
  },
  {
    "source_id": "ChIJ54E9OefngEcRm9J9VJqysHE",
    "name": "Decalacque",
    "category": "Decalacque",
    "formatted_address": "4,4(204)",
    "phone_number": "+390523550219",
    "source_url": "https://www.google.com/maps/place/Decalacque/data=!4m7!3m6!1s0x4780e7e7393d81e7:0x71b0b29a547dd29b!8m2!3d45.0422388!4d9.7179155!16s%2Fg%2F12hmxdl4d!19sChIJ54E9OefngEcRm9J9VJqysHE?authuser=0&hl=tr&rclk=1",
    "website_url": "",
    "rating_text": "4,4",
    "stars": null,
    "number_of_reviews": null,
    "price_level": "",
    "open_hours": "",
    "extraction_timestamp": "2025-06-07T16:40:37.619Z",
    "source_name": "google",
    "source_query": "Irrigation Equipment",
    "source_country": "IT",
    "country": "Italy",
    "state": "Emilia-Romagna",
    "city": "Piacenza"
  },
  {
    "source_id": "ChIJkde3it7ngEcRkFhCARgejL0",
    "name": "Voltuna",
    "category": "Voltuna",
    "formatted_address": "3,9(70)",
    "phone_number": "+390523606606",
    "source_url": "https://www.google.com/maps/place/Voltuna/data=!4m7!3m6!1s0x4780e7de8ab7d791:0xbd8c1e1801425890!8m2!3d45.0382497!4d9.7218228!16s%2Fg%2F1tr9m8dc!19sChIJkde3it7ngEcRkFhCARgejL0?authuser=0&hl=tr&rclk=1",
    "website_url": "",
    "rating_text": "3,9",
    "stars": null,
    "number_of_reviews": null,
    "price_level": "",
    "open_hours": "",
    "extraction_timestamp": "2025-06-07T16:40:37.619Z",
    "source_name": "google",
    "source_query": "Irrigation Equipment",
    "source_country": "IT",
    "country": "Italy",
    "state": "Emilia-Romagna",
    "city": "Piacenza"
  },
  {
    "source_id": "ChIJy3C5wcXngEcRQ2h427KDOfA",
    "name": "SPAZIO - ingrosso | Condizionatori Caldaie Arredo bagno Sanitari Pavimenti |",
    "category": "SPAZIO - ingrosso | Condizionatori Caldaie Arredo bagno Sanitari Pavimenti |",
    "formatted_address": "4,4(73)",
    "phone_number": "+390523576311",
    "source_url": "https://www.google.com/maps/place/SPAZIO+-+ingrosso+%7C+Condizionatori+Caldaie+Arredo+bagno+Sanitari+Pavimenti+%7C/data=!4m7!3m6!1s0x4780e7c5c1b970cb:0xf03983b2db786843!8m2!3d45.0478441!4d9.7314002!16s%2Fg%2F1tp06z2w!19sChIJy3C5wcXngEcRQ2h427KDOfA?authuser=0&hl=tr&rclk=1",
    "website_url": "",
    "rating_text": "4,4",
    "stars": null,
    "number_of_reviews": null,
    "price_level": "",
    "open_hours": "",
    "extraction_timestamp": "2025-06-07T16:40:37.619Z",
    "source_name": "google",
    "source_query": "Irrigation Equipment",
    "source_country": "IT",
    "country": "Italy",
    "state": "Emilia-Romagna",
    "city": "Piacenza"
  },
  {
    "source_id": "ChIJkdu1VCbdgEcRRzG2ttiqeuA",
    "name": "Gruppi Tramelli - Aria compressa",
    "category": "Gruppi Tramelli - Aria compressa",
    "formatted_address": "5,0(1)",
    "phone_number": "+390523490598",
    "source_url": "https://www.google.com/maps/place/Gruppi+Tramelli+-+Aria+compressa/data=!4m7!3m6!1s0x4780dd2654b5db91:0xe07aaad8b6b63147!8m2!3d45.052727!4d9.6547227!16s%2Fg%2F1tcyjx38!19sChIJkdu1VCbdgEcRRzG2ttiqeuA?authuser=0&hl=tr&rclk=1",
    "website_url": "",
    "rating_text": "5,0",
    "stars": null,
    "number_of_reviews": null,
    "price_level": "",
    "open_hours": "",
    "extraction_timestamp": "2025-06-07T16:40:37.620Z",
    "source_name": "google",
    "source_query": "Irrigation Equipment",
    "source_country": "IT",
    "country": "Italy",
    "state": "Emilia-Romagna",
    "city": "Piacenza"
  },
  {
    "source_id": "ChIJN1atg4npgEcRZvz-ElSIojc",
    "name": "Ecotek srl",
    "category": "Ecotek srl",
    "formatted_address": "4,7(15)",
    "phone_number": "+390523593386",
    "source_url": "https://www.google.com/maps/place/Ecotek+srl/data=!4m7!3m6!1s0x4780e98983ad5637:0x37a2885412fefc66!8m2!3d45.0368303!4d9.704905!16s%2Fg%2F11f70_71yz!19sChIJN1atg4npgEcRZvz-ElSIojc?authuser=0&hl=tr&rclk=1",
    "website_url": "",
    "rating_text": "4,7",
    "stars": null,
    "number_of_reviews": null,
    "price_level": "",
    "open_hours": "",
    "extraction_timestamp": "2025-06-07T16:40:37.620Z",
    "source_name": "google",
    "source_query": "Irrigation Equipment",
    "source_country": "IT",
    "country": "Italy",
    "state": "Emilia-Romagna",
    "city": "Piacenza"
  },
  {
    "source_id": "ChIJGcE9ji_mgEcRCuT2HBY0xbA",
    "name": "SPAZIO - showroom | Arredo Bagno Sanitari Pavimenti Condizionatori Caldaie |",
    "category": "SPAZIO - showroom | Arredo Bagno Sanitari Pavimenti Condizionatori Caldaie |",
    "formatted_address": "4,1(64)",
    "phone_number": "+390523572811",
    "source_url": "https://www.google.com/maps/place/SPAZIO+-+showroom+%7C+Arredo+Bagno+Sanitari+Pavimenti+Condizionatori+Caldaie+%7C/data=!4m7!3m6!1s0x4780e62f8e3dc119:0xb0c534161cf6e40a!8m2!3d45.0421009!4d9.7425656!16s%2Fg%2F12hvgn5l2!19sChIJGcE9ji_mgEcRCuT2HBY0xbA?authuser=0&hl=tr&rclk=1",
    "website_url": "",
    "rating_text": "4,1",
    "stars": null,
    "number_of_reviews": null,
    "price_level": "",
    "open_hours": "",
    "extraction_timestamp": "2025-06-07T16:40:37.621Z",
    "source_name": "google",
    "source_query": "Irrigation Equipment",
    "source_country": "IT",
    "country": "Italy",
    "state": "Emilia-Romagna",
    "city": "Piacenza"
  },
  {
    "source_id": "ChIJf1rZSIfogEcR3YyIhIElauY",
    "name": "Padana Impianti s.r.l.",
    "category": "Padana Impianti s.r.l.",
    "formatted_address": "2,6(10)",
    "phone_number": "+390523593433",
    "source_url": "https://www.google.com/maps/place/Padana+Impianti+s.r.l./data=!4m7!3m6!1s0x4780e88748d95a7f:0xe66a258184888cdd!8m2!3d45.0296596!4d9.7377708!16s%2Fg%2F1ptw328_0!19sChIJf1rZSIfogEcR3YyIhIElauY?authuser=0&hl=tr&rclk=1",
    "website_url": "",
    "rating_text": "2,6",
    "stars": null,
    "number_of_reviews": null,
    "price_level": "",
    "open_hours": "",
    "extraction_timestamp": "2025-06-07T16:40:37.621Z",
    "source_name": "google",
    "source_query": "Irrigation Equipment",
    "source_country": "IT",
    "country": "Italy",
    "state": "Emilia-Romagna",
    "city": "Piacenza"
  },
  {
    "source_id": "ChIJR2FOAqbCgEcRX8L22Sl0Imc",
    "name": "Leroy Merlin Piacenza",
    "category": "Leroy Merlin Piacenza",
    "formatted_address": "4,0(4.017)",
    "phone_number": "+3905231748900",
    "source_url": "https://www.google.com/maps/place/Leroy+Merlin+Piacenza/data=!4m7!3m6!1s0x4780c2a6024e6147:0x67227429d9f6c25f!8m2!3d45.0291113!4d9.6848621!16s%2Fg%2F11b6qhyd99!19sChIJR2FOAqbCgEcRX8L22Sl0Imc?authuser=0&hl=tr&rclk=1",
    "website_url": "",
    "rating_text": "4,0",
    "stars": null,
    "number_of_reviews": null,
    "price_level": "",
    "open_hours": "",
    "extraction_timestamp": "2025-06-07T16:40:37.621Z",
    "source_name": "google",
    "source_query": "Irrigation Equipment",
    "source_country": "IT",
    "country": "Italy",
    "state": "Emilia-Romagna",
    "city": "Piacenza"
  },
  {
    "source_id": "ChIJcQZuTi3dgEcRccBT5GxQAK0",
    "name": "Ricerca perdite acqua Piacenza",
    "category": "Ricerca perdite acqua Piacenza",
    "formatted_address": "3,0(2)",
    "phone_number": "+3905231798229",
    "source_url": "https://www.google.com/maps/place/Ricerca+perdite+acqua+Piacenza/data=!4m7!3m6!1s0x4780dd2d4e6e0671:0xad00506ce453c071!8m2!3d45.0410049!4d9.694159!16s%2Fg%2F11jz798x8h!19sChIJcQZuTi3dgEcRccBT5GxQAK0?authuser=0&hl=tr&rclk=1",
    "website_url": "",
    "rating_text": "3,0",
    "stars": null,
    "number_of_reviews": null,
    "price_level": "",
    "open_hours": "",
    "extraction_timestamp": "2025-06-07T16:40:37.622Z",
    "source_name": "google",
    "source_query": "Irrigation Equipment",
    "source_country": "IT",
    "country": "Italy",
    "state": "Emilia-Romagna",
    "city": "Piacenza"
  },
  {
    "source_id": "ChIJC0LYzsXngEcR8g_5HSSzAko",
    "name": "Pulitecno",
    "category": "Pulitecno",
    "formatted_address": "5,0(5)",
    "phone_number": "+390523577811",
    "source_url": "https://www.google.com/maps/place/Pulitecno/data=!4m7!3m6!1s0x4780e7c5ced8420b:0x4a02b3241df90ff2!8m2!3d45.0483093!4d9.7294483!16s%2Fg%2F11fxwb60cv!19sChIJC0LYzsXngEcR8g_5HSSzAko?authuser=0&hl=tr&rclk=1",
    "website_url": "",
    "rating_text": "5,0",
    "stars": null,
    "number_of_reviews": null,
    "price_level": "",
    "open_hours": "",
    "extraction_timestamp": "2025-06-07T16:40:37.622Z",
    "source_name": "google",
    "source_query": "Irrigation Equipment",
    "source_country": "IT",
    "country": "Italy",
    "state": "Emilia-Romagna",
    "city": "Piacenza"
  },
  {
    "source_id": "ChIJ4y0jLifdgEcRITszit9Sr-A",
    "name": "IPERCERAMICA Piacenza",
    "category": "IPERCERAMICA Piacenza",
    "formatted_address": "3,7(149)",
    "phone_number": "+393487835129",
    "source_url": "https://www.google.com/maps/place/IPERCERAMICA+Piacenza/data=!4m7!3m6!1s0x4780dd272e232de3:0xe0af52df8a333b21!8m2!3d45.0299992!4d9.7366826!16s%2Fg%2F119wd60_1!19sChIJ4y0jLifdgEcRITszit9Sr-A?authuser=0&hl=tr&rclk=1",
    "website_url": "",
    "rating_text": "3,7",
    "stars": null,
    "number_of_reviews": null,
    "price_level": "",
    "open_hours": "",
    "extraction_timestamp": "2025-06-07T16:40:37.622Z",
    "source_name": "google",
    "source_query": "Irrigation Equipment",
    "source_country": "IT",
    "country": "Italy",
    "state": "Emilia-Romagna",
    "city": "Piacenza"
  },
  {
    "source_id": "ChIJ4WnZNofogEcRcCSJgGupNXk",
    "name": "Irrigarden",
    "category": "Irrigarden",
    "formatted_address": "3,7(6)",
    "phone_number": "+390523592012",
    "source_url": "https://www.google.com/maps/place/Irrigarden/data=!4m7!3m6!1s0x4780e88736d969e1:0x7935a96b80892470!8m2!3d45.0288739!4d9.7384753!16s%2Fg%2F11g4d1r753!19sChIJ4WnZNofogEcRcCSJgGupNXk?authuser=0&hl=tr&rclk=1",
    "website_url": "",
    "rating_text": "3,7",
    "stars": null,
    "number_of_reviews": null,
    "price_level": "",
    "open_hours": "",
    "extraction_timestamp": "2025-06-07T16:40:37.623Z",
    "source_name": "google",
    "source_query": "Irrigation Equipment",
    "source_country": "IT",
    "country": "Italy",
    "state": "Emilia-Romagna",
    "city": "Piacenza"
  }
]
