[
  {
    "source_id": "ChIJy805WcDcgEcRtmGWlwosXQc",
    "name": "IRRIMEC SRL",
    "category": "IRRIMEC SRL",
    "formatted_address": "4,5(90)",
    "phone_number": "+390523760441",
    "source_url": "https://www.google.com/maps/place/IRRIMEC+SRL/data=!4m7!3m6!1s0x4780dcc05939cdcb:0x75d2c0a979661b6!8m2!3d45.0612353!4d9.630829!16s%2Fg%2F1tdgt7d_!19sChIJy805WcDcgEcRtmGWlwosXQc?authuser=0&hl=tr&rclk=1",
    "website_url": "http://www.irrimec.com/",
    "rating_text": "4,5",
    "stars": null,
    "number_of_reviews": null,
    "price_level": "",
    "open_hours": "",
    "extraction_timestamp": "2025-06-07T16:14:24.278Z",
    "source_name": "google",
    "source_query": "Irrigation Equipment",
    "source_country": "IT",
    "country": "Italy",
    "state": "Emilia-Romagna",
    "city": "Pianello Val Tidone"
  },
  {
    "source_id": "ChIJ6XnR253JgEcRgaWG6tuWQBM",
    "name": "Spezia Srl Tecnovict e Agriprecisione",
    "category": "Spezia Srl Tecnovict e Agriprecisione",
    "formatted_address": "4,8(33)",
    "phone_number": "+390523998815",
    "source_url": "https://www.google.com/maps/place/Spezia+Srl+Tecnovict+e+Agriprecisione/data=!4m7!3m6!1s0x4780c99ddbd179e9:0x134096dbea86a581!8m2!3d44.9488443!4d9.4107943!16s%2Fg%2F1tf7ldv7!19sChIJ6XnR253JgEcRgaWG6tuWQBM?authuser=0&hl=tr&rclk=1",
    "website_url": "http://www.tecnovict.com/",
    "rating_text": "4,8",
    "stars": null,
    "number_of_reviews": null,
    "price_level": "",
    "open_hours": "",
    "extraction_timestamp": "2025-06-07T16:14:24.278Z",
    "source_name": "google",
    "source_query": "Irrigation Equipment",
    "source_country": "IT",
    "country": "Italy",
    "state": "Emilia-Romagna",
    "city": "Pianello Val Tidone"
  },
  {
    "source_id": "ChIJowY_3N7ngEcRTiAvwcqeGUI",
    "name": "Paesaggistica Piacentina Srl",
    "category": "Paesaggistica Piacentina Srl",
    "formatted_address": "5,0(1)",
    "phone_number": "+390523618154",
    "source_url": "https://www.google.com/maps/place/Paesaggistica+Piacentina+Srl/data=!4m7!3m6!1s0x4780e7dedc3f06a3:0x42199ecac12f204e!8m2!3d44.9922856!4d9.6929373!16s%2Fg%2F11b6j2cgrt!19sChIJowY_3N7ngEcRTiAvwcqeGUI?authuser=0&hl=tr&rclk=1",
    "website_url": "https://www.paesaggisticapiacentina.com/",
    "rating_text": "5,0",
    "stars": null,
    "number_of_reviews": null,
    "price_level": "",
    "open_hours": "",
    "extraction_timestamp": "2025-06-07T16:14:24.278Z",
    "source_name": "google",
    "source_query": "Irrigation Equipment",
    "source_country": "IT",
    "country": "Italy",
    "state": "Emilia-Romagna",
    "city": "Pianello Val Tidone"
  },
  {
    "source_id": "ChIJtYmdGdrRgEcR6nfxwUqLlw4",
    "name": "Hydro srl",
    "category": "Hydro srl",
    "formatted_address": "4,7(6)",
    "phone_number": "+390523340826",
    "source_url": "https://www.google.com/maps/place/Hydro+srl/data=!4m7!3m6!1s0x4780d1da199d89b5:0xe978b4ac1f177ea!8m2!3d44.9500474!4d9.407276!16s%2Fg%2F11f6y8w4j9!19sChIJtYmdGdrRgEcR6nfxwUqLlw4?authuser=0&hl=tr&rclk=1",
    "website_url": "http://www.hydrosrl.com/",
    "rating_text": "4,7",
    "stars": null,
    "number_of_reviews": null,
    "price_level": "",
    "open_hours": "",
    "extraction_timestamp": "2025-06-07T16:14:24.279Z",
    "source_name": "google",
    "source_query": "Irrigation Equipment",
    "source_country": "IT",
    "country": "Italy",
    "state": "Emilia-Romagna",
    "city": "Pianello Val Tidone"
  }
]
