[
  {
    "source_id": "ChIJCdemP1a3f0cRPMl4lGeSCLI",
    "name": "Pianeta Acqua",
    "category": "Pianeta Acqua",
    "formatted_address": "5,0(1)",
    "phone_number": "+390510549799",
    "source_url": "https://www.google.com/maps/place/Pianeta+Acqua/data=!4m7!3m6!1s0x477fb7563fa6d709:0xb20892679478c93c!8m2!3d44.7409448!4d11.2994357!16s%2Fg%2F11h3l0gzc4!19sChIJCdemP1a3f0cRPMl4lGeSCLI?authuser=0&hl=tr&rclk=1",
    "website_url": "http://www.pianetaacquasrl.it/",
    "rating_text": "5,0",
    "stars": null,
    "number_of_reviews": null,
    "price_level": "",
    "open_hours": "",
    "extraction_timestamp": "2025-06-07T16:18:34.514Z",
    "source_name": "google",
    "source_query": "Irrigation Equipment",
    "source_country": "IT",
    "country": "Italy",
    "state": "Emilia-Romagna",
    "city": "Pieve di Cento"
  },
  {
    "source_id": "ChIJrTMsGqzJf0cRz-714KjcXOU",
    "name": "HP Hydraulic S.p.A.",
    "category": "HP Hydraulic S.p.A.",
    "formatted_address": "4,7(45)",
    "phone_number": "+390516860611",
    "source_url": "https://www.google.com/maps/place/HP+Hydraulic+S.p.A./data=!4m7!3m6!1s0x477fc9ac1a2c33ad:0xe55cdca8e0f5eecf!8m2!3d44.705145!4d11.314608!16s%2Fg%2F1tm0r_r_!19sChIJrTMsGqzJf0cRz-714KjcXOU?authuser=0&hl=tr&rclk=1",
    "website_url": "http://www.bondioli-pavesi.com/",
    "rating_text": "4,7",
    "stars": null,
    "number_of_reviews": null,
    "price_level": "",
    "open_hours": "",
    "extraction_timestamp": "2025-06-07T16:18:34.516Z",
    "source_name": "google",
    "source_query": "Irrigation Equipment",
    "source_country": "IT",
    "country": "Italy",
    "state": "Emilia-Romagna",
    "city": "Pieve di Cento"
  },
  {
    "source_id": "ChIJ76-5-k3If0cRzTk5e6dC9dE",
    "name": "Agri - Camp di Longhi Luca",
    "category": "Agri - Camp di Longhi Luca",
    "formatted_address": "5,0(3)",
    "phone_number": "+393398047254",
    "source_url": "https://www.google.com/maps/place/Agri+-+Camp+di+Longhi+Luca/data=!4m7!3m6!1s0x477fc84dfab9afef:0xd1f542a77b3939cd!8m2!3d44.7109648!4d11.306544!16s%2Fg%2F11b6jgt002!19sChIJ76-5-k3If0cRzTk5e6dC9dE?authuser=0&hl=tr&rclk=1",
    "website_url": "",
    "rating_text": "5,0",
    "stars": null,
    "number_of_reviews": null,
    "price_level": "",
    "open_hours": "",
    "extraction_timestamp": "2025-06-07T16:18:34.517Z",
    "source_name": "google",
    "source_query": "Irrigation Equipment",
    "source_country": "IT",
    "country": "Italy",
    "state": "Emilia-Romagna",
    "city": "Pieve di Cento"
  },
  {
    "source_id": "ChIJ9bCJiuC3f0cRbnHyynyDL30",
    "name": "G.T. Comis Spa - Raccorderie Emiliane",
    "category": "G.T. Comis Spa - Raccorderie Emiliane",
    "formatted_address": "4,5(35)",
    "phone_number": "+39051904583",
    "source_url": "https://www.google.com/maps/place/G.T.+Comis+Spa+-+Raccorderie+Emiliane/data=!4m7!3m6!1s0x477fb7e08a89b0f5:0x7d2f837ccaf2716e!8m2!3d44.7414436!4d11.2991085!16s%2Fg%2F1tykt6v3!19sChIJ9bCJiuC3f0cRbnHyynyDL30?authuser=0&hl=tr&rclk=1",
    "website_url": "http://www.gtcomis.it/",
    "rating_text": "4,5",
    "stars": null,
    "number_of_reviews": null,
    "price_level": "",
    "open_hours": "",
    "extraction_timestamp": "2025-06-07T16:18:34.519Z",
    "source_name": "google",
    "source_query": "Irrigation Equipment",
    "source_country": "IT",
    "country": "Italy",
    "state": "Emilia-Romagna",
    "city": "Pieve di Cento"
  },
  {
    "source_id": "ChIJ9Zga4YzJf0cRKZWASX-4PO8",
    "name": "HP Hydraulic S.p.A. - Stabilimento di Via del Fosso",
    "category": "HP Hydraulic S.p.A. - Stabilimento di Via del Fosso",
    "formatted_address": "5,0(2)",
    "phone_number": "+390516860611",
    "source_url": "https://www.google.com/maps/place/HP+Hydraulic+S.p.A.+-+Stabilimento+di+Via+del+Fosso/data=!4m7!3m6!1s0x477fc98ce11a98f5:0xef3cb87f49809529!8m2!3d44.7049085!4d11.311731!16s%2Fg%2F11f7hsblnm!19sChIJ9Zga4YzJf0cRKZWASX-4PO8?authuser=0&hl=tr&rclk=1",
    "website_url": "http://www.bondioli-pavesi.com/",
    "rating_text": "5,0",
    "stars": null,
    "number_of_reviews": null,
    "price_level": "",
    "open_hours": "",
    "extraction_timestamp": "2025-06-07T16:18:34.521Z",
    "source_name": "google",
    "source_query": "Irrigation Equipment",
    "source_country": "IT",
    "country": "Italy",
    "state": "Emilia-Romagna",
    "city": "Pieve di Cento"
  },
  {
    "source_id": "ChIJAQCMHxfIf0cRHEoPlCdjUsM",
    "name": "GIMA Srl - Soluzioni per produzione agricola - officina contoterzi fitosanitari",
    "category": "GIMA Srl - Soluzioni per produzione agricola - officina contoterzi fitosanitari",
    "formatted_address": "4,0(2)",
    "phone_number": "+390516836207",
    "source_url": "https://www.google.com/maps/place/GIMA+Srl+-+Soluzioni+per+produzione+agricola+-+officina+contoterzi+fitosanitari/data=!4m7!3m6!1s0x477fc8171f8c0001:0xc3526327940f4a1c!8m2!3d44.7408542!4d11.3003727!16s%2Fg%2F11j8lz87bv!19sChIJAQCMHxfIf0cRHEoPlCdjUsM?authuser=0&hl=tr&rclk=1",
    "website_url": "http://www.gimacento.it/",
    "rating_text": "4,0",
    "stars": null,
    "number_of_reviews": null,
    "price_level": "",
    "open_hours": "",
    "extraction_timestamp": "2025-06-07T16:18:34.522Z",
    "source_name": "google",
    "source_query": "Irrigation Equipment",
    "source_country": "IT",
    "country": "Italy",
    "state": "Emilia-Romagna",
    "city": "Pieve di Cento"
  },
  {
    "source_id": "ChIJHxVQFqjJf0cREEzukiGCKsA",
    "name": "Idroteknica s.r.l.",
    "category": "Idroteknica s.r.l.",
    "formatted_address": "3,0(4)",
    "phone_number": "+390512815292",
    "source_url": "https://www.google.com/maps/place/Idroteknica+s.r.l./data=!4m7!3m6!1s0x477fc9a81650151f:0xc02a822192ee4c10!8m2!3d44.7092767!4d11.3118159!16s%2Fg%2F11gwm96xjh!19sChIJHxVQFqjJf0cREEzukiGCKsA?authuser=0&hl=tr&rclk=1",
    "website_url": "",
    "rating_text": "3,0",
    "stars": null,
    "number_of_reviews": null,
    "price_level": "",
    "open_hours": "",
    "extraction_timestamp": "2025-06-07T16:18:34.524Z",
    "source_name": "google",
    "source_query": "Irrigation Equipment",
    "source_country": "IT",
    "country": "Italy",
    "state": "Emilia-Romagna",
    "city": "Pieve di Cento"
  },
  {
    "source_id": "ChIJcQG6ul7df0cR3VxKiu5OPBs",
    "name": "Scova Impianti Srl",
    "category": "Scova Impianti Srl",
    "formatted_address": "4,5(64)",
    "phone_number": "+39059923202",
    "source_url": "https://www.google.com/maps/place/Scova+Impianti+Srl/data=!4m7!3m6!1s0x477fdd5ebaba0171:0x1b3c4eee8a4a5cdd!8m2!3d44.6018135!4d11.032294!16s%2Fg%2F1tfzwbfb!19sChIJcQG6ul7df0cR3VxKiu5OPBs?authuser=0&hl=tr&rclk=1",
    "website_url": "https://www.scovaimpianti.com/",
    "rating_text": "4,5",
    "stars": null,
    "number_of_reviews": null,
    "price_level": "",
    "open_hours": "",
    "extraction_timestamp": "2025-06-07T16:18:34.525Z",
    "source_name": "google",
    "source_query": "Irrigation Equipment",
    "source_country": "IT",
    "country": "Italy",
    "state": "Emilia-Romagna",
    "city": "Pieve di Cento"
  },
  {
    "source_id": "ChIJjU0qDnC5f0cRRrG7EV7p-do",
    "name": "EDEN S.r.l",
    "category": "EDEN S.r.l",
    "formatted_address": "4,4(5)",
    "phone_number": "+39051814350",
    "source_url": "https://www.google.com/maps/place/EDEN+S.r.l/data=!4m7!3m6!1s0x477fb9700e2a4d8d:0xdaf9e95e11bbb146!8m2!3d44.7497392!4d11.2778114!16s%2Fg%2F11k72lc0tw!19sChIJjU0qDnC5f0cRRrG7EV7p-do?authuser=0&hl=tr&rclk=1",
    "website_url": "http://www.edengreensolutions.it/",
    "rating_text": "4,4",
    "stars": null,
    "number_of_reviews": null,
    "price_level": "",
    "open_hours": "",
    "extraction_timestamp": "2025-06-07T16:18:34.527Z",
    "source_name": "google",
    "source_query": "Irrigation Equipment",
    "source_country": "IT",
    "country": "Italy",
    "state": "Emilia-Romagna",
    "city": "Pieve di Cento"
  },
  {
    "source_id": "ChIJT9RZ1cjJf0cRrnR3zRmMGHQ",
    "name": "Tinti Giorgio",
    "category": "Tinti Giorgio",
    "formatted_address": "4,8(4)",
    "phone_number": "+39051903331",
    "source_url": "https://www.google.com/maps/place/Tinti+Giorgio/data=!4m7!3m6!1s0x477fc9c8d559d44f:0x74188c19cd7774ae!8m2!3d44.7379556!4d11.3003222!16s%2Fg%2F11gp68tqbt!19sChIJT9RZ1cjJf0cRrnR3zRmMGHQ?authuser=0&hl=tr&rclk=1",
    "website_url": "",
    "rating_text": "4,8",
    "stars": null,
    "number_of_reviews": null,
    "price_level": "",
    "open_hours": "",
    "extraction_timestamp": "2025-06-07T16:18:34.529Z",
    "source_name": "google",
    "source_query": "Irrigation Equipment",
    "source_country": "IT",
    "country": "Italy",
    "state": "Emilia-Romagna",
    "city": "Pieve di Cento"
  },
  {
    "source_id": "ChIJh3Nd8G0sfkcR_m7VewEmxXM",
    "name": "Irrigarden",
    "category": "Irrigarden",
    "formatted_address": "4,7(158)",
    "phone_number": "+39051782013",
    "source_url": "https://www.google.com/maps/place/Irrigarden/data=!4m7!3m6!1s0x477e2c6df05d7387:0x73c526017bd56efe!8m2!3d44.5096266!4d11.4390897!16s%2Fg%2F1vgw_l7w!19sChIJh3Nd8G0sfkcR_m7VewEmxXM?authuser=0&hl=tr&rclk=1",
    "website_url": "https://www.irrigarden-bo.it/",
    "rating_text": "4,7",
    "stars": null,
    "number_of_reviews": null,
    "price_level": "",
    "open_hours": "",
    "extraction_timestamp": "2025-06-07T16:18:34.530Z",
    "source_name": "google",
    "source_query": "Irrigation Equipment",
    "source_country": "IT",
    "country": "Italy",
    "state": "Emilia-Romagna",
    "city": "Pieve di Cento"
  },
  {
    "source_id": "ChIJPevZnGfJf0cR2uTRxKngYfI",
    "name": "Orsi Group srl",
    "category": "Orsi Group srl",
    "formatted_address": "4,1(108)",
    "phone_number": "+390516867072",
    "source_url": "https://www.google.com/maps/place/Orsi+Group+srl/data=!4m7!3m6!1s0x477fc9679cd9eb3d:0xf261e0a9c4d1e4da!8m2!3d44.6876091!4d11.3376445!16s%2Fg%2F12hmhw89c!19sChIJPevZnGfJf0cR2uTRxKngYfI?authuser=0&hl=tr&rclk=1",
    "website_url": "https://www.orsigroup.it/",
    "rating_text": "4,1",
    "stars": null,
    "number_of_reviews": null,
    "price_level": "",
    "open_hours": "",
    "extraction_timestamp": "2025-06-07T16:18:34.532Z",
    "source_name": "google",
    "source_query": "Irrigation Equipment",
    "source_country": "IT",
    "country": "Italy",
    "state": "Emilia-Romagna",
    "city": "Pieve di Cento"
  },
  {
    "source_id": "ChIJM37KC0W4f0cRYwYAmbn3bd8",
    "name": "GL1 Srl| Fornitura di trinciatrici, decespugliatrici e macchine da giardinaggio| Bologna| Crevalcore",
    "category": "GL1 Srl| Fornitura di trinciatrici, decespugliatrici e macchine da giardinaggio| Bologna| Crevalcore",
    "formatted_address": "GL1 Srl| Fornitura di trinciatrici, decespugliatrici e macchine da giardinaggio| Bologna| Crevalcore",
    "phone_number": "+39051909140",
    "source_url": "https://www.google.com/maps/place/GL1+Srl%7C+Fornitura+di+trinciatrici,+decespugliatrici+e+macchine+da+giardinaggio%7C+Bologna%7C+Crevalcore/data=!4m7!3m6!1s0x477fb8450bca7e33:0xdf6df7b999000663!8m2!3d44.7693502!4d11.2537839!16s%2Fg%2F1t_tj43b!19sChIJM37KC0W4f0cRYwYAmbn3bd8?authuser=0&hl=tr&rclk=1",
    "website_url": "https://www.gl1srl.it/",
    "rating_text": "4,8",
    "stars": null,
    "number_of_reviews": null,
    "price_level": "",
    "open_hours": "",
    "extraction_timestamp": "2025-06-07T16:18:34.533Z",
    "source_name": "google",
    "source_query": "Irrigation Equipment",
    "source_country": "IT",
    "country": "Italy",
    "state": "Emilia-Romagna",
    "city": "Pieve di Cento"
  },
  {
    "source_id": "ChIJFY-P-k3If0cRpjvbcfcOUxs",
    "name": "La Pievese Ferramenta S.A.S.",
    "category": "La Pievese Ferramenta S.A.S.",
    "formatted_address": "4,6(13)",
    "phone_number": "+39051973706",
    "source_url": "https://www.google.com/maps/place/La+Pievese+Ferramenta+S.A.S./data=!4m7!3m6!1s0x477fc84dfa8f8f15:0x1b530ef771db3ba6!8m2!3d44.7104078!4d11.3065999!16s%2Fg%2F1tgm1q2f!19sChIJFY-P-k3If0cRpjvbcfcOUxs?authuser=0&hl=tr&rclk=1",
    "website_url": "https://lapieveseferramenta.it/",
    "rating_text": "4,6",
    "stars": null,
    "number_of_reviews": null,
    "price_level": "",
    "open_hours": "",
    "extraction_timestamp": "2025-06-07T16:18:34.534Z",
    "source_name": "google",
    "source_query": "Irrigation Equipment",
    "source_country": "IT",
    "country": "Italy",
    "state": "Emilia-Romagna",
    "city": "Pieve di Cento"
  },
  {
    "source_id": "ChIJ90M5rjikf0cRsV0md3bV2Ng",
    "name": "Guaresi Spa",
    "category": "Guaresi Spa",
    "formatted_address": "4,7(63)",
    "phone_number": "+390532883373",
    "source_url": "https://www.google.com/maps/place/Guaresi+Spa/data=!4m7!3m6!1s0x477fa438ae3943f7:0xd8d8d57677265db1!8m2!3d44.947486!4d11.2887767!16s%2Fg%2F1tzztbz3!19sChIJ90M5rjikf0cRsV0md3bV2Ng?authuser=0&hl=tr&rclk=1",
    "website_url": "http://guaresi.com/",
    "rating_text": "4,7",
    "stars": null,
    "number_of_reviews": null,
    "price_level": "",
    "open_hours": "",
    "extraction_timestamp": "2025-06-07T16:18:34.536Z",
    "source_name": "google",
    "source_query": "Irrigation Equipment",
    "source_country": "IT",
    "country": "Italy",
    "state": "Emilia-Romagna",
    "city": "Pieve di Cento"
  },
  {
    "source_id": "ChIJyXgg68QrfkcRAaJCOMJ3PxY",
    "name": "hidrisistem",
    "category": "hidrisistem",
    "formatted_address": "5,0(1)",
    "phone_number": "+39366448310824",
    "source_url": "https://www.google.com/maps/place/hidrisistem/data=!4m7!3m6!1s0x477e2bc4eb2078c9:0x163f77c23842a201!8m2!3d44.496029!4d11.402638!16s%2Fg%2F11w_zjhjy3!19sChIJyXgg68QrfkcRAaJCOMJ3PxY?authuser=0&hl=tr&rclk=1",
    "website_url": "",
    "rating_text": "5,0",
    "stars": null,
    "number_of_reviews": null,
    "price_level": "",
    "open_hours": "",
    "extraction_timestamp": "2025-06-07T16:18:34.537Z",
    "source_name": "google",
    "source_query": "Irrigation Equipment",
    "source_country": "IT",
    "country": "Italy",
    "state": "Emilia-Romagna",
    "city": "Pieve di Cento"
  },
  {
    "source_id": "ChIJxUO6103Gf0cR38EgF1FpdS0",
    "name": "Benassi Agricoltura e Giardinaggio",
    "category": "Benassi Agricoltura e Giardinaggio",
    "formatted_address": "4,7(15)",
    "phone_number": "+39051820511",
    "source_url": "https://www.google.com/maps/place/Benassi+Agricoltura+e+Giardinaggio/data=!4m7!3m6!1s0x477fc64dd7ba43c5:0x2d7569511720c1df!8m2!3d44.7035096!4d11.2287906!16s%2Fg%2F11c6dz886p!19sChIJxUO6103Gf0cR38EgF1FpdS0?authuser=0&hl=tr&rclk=1",
    "website_url": "http://www.benassi.eu/",
    "rating_text": "4,7",
    "stars": null,
    "number_of_reviews": null,
    "price_level": "",
    "open_hours": "",
    "extraction_timestamp": "2025-06-07T16:18:34.538Z",
    "source_name": "google",
    "source_query": "Irrigation Equipment",
    "source_country": "IT",
    "country": "Italy",
    "state": "Emilia-Romagna",
    "city": "Pieve di Cento"
  },
  {
    "source_id": "ChIJJ6V6lMDgf0cR1SpFsfjDuHg",
    "name": "Ocmis Irrigazione Spa",
    "category": "Ocmis Irrigazione Spa",
    "formatted_address": "3,5(31)",
    "phone_number": "+39059702150",
    "source_url": "https://www.google.com/maps/place/Ocmis+Irrigazione+Spa/data=!4m7!3m6!1s0x477fe0c0947aa527:0x78b8c3f8b1452ad5!8m2!3d44.530494!4d10.9794578!16s%2Fg%2F1vd3tn19!19sChIJJ6V6lMDgf0cR1SpFsfjDuHg?authuser=0&hl=tr&rclk=1",
    "website_url": "http://www.ocmis-irrigazione.it/",
    "rating_text": "3,5",
    "stars": null,
    "number_of_reviews": null,
    "price_level": "",
    "open_hours": "",
    "extraction_timestamp": "2025-06-07T16:18:34.539Z",
    "source_name": "google",
    "source_query": "Irrigation Equipment",
    "source_country": "IT",
    "country": "Italy",
    "state": "Emilia-Romagna",
    "city": "Pieve di Cento"
  },
  {
    "source_id": "ChIJL-7NY3XNf0cRWWhgcXQ4jeE",
    "name": "Gamberini",
    "category": "Gamberini",
    "formatted_address": "4,9(20)",
    "phone_number": "+39051861988",
    "source_url": "https://www.google.com/maps/place/Gamberini/data=!4m7!3m6!1s0x477fcd7563cdee2f:0xe18d387471606859!8m2!3d44.600051!4d11.3628249!16s%2Fg%2F1tf7qzxm!19sChIJL-7NY3XNf0cRWWhgcXQ4jeE?authuser=0&hl=tr&rclk=1",
    "website_url": "http://www.gamberinisrl.it/",
    "rating_text": "4,9",
    "stars": null,
    "number_of_reviews": null,
    "price_level": "",
    "open_hours": "",
    "extraction_timestamp": "2025-06-07T16:18:34.541Z",
    "source_name": "google",
    "source_query": "Irrigation Equipment",
    "source_country": "IT",
    "country": "Italy",
    "state": "Emilia-Romagna",
    "city": "Pieve di Cento"
  },
  {
    "source_id": "ChIJZ2Q1Xgm9f0cRR50VwDQCAY0",
    "name": "Eden S.r.l.",
    "category": "Eden S.r.l.",
    "formatted_address": "5,0(3)",
    "phone_number": "+39051814350",
    "source_url": "https://www.google.com/maps/place/Eden+S.r.l./data=!4m7!3m6!1s0x477fbd095e356467:0x8d010234c0159d47!8m2!3d44.8441323!4d11.1941073!16s%2Fg%2F11jq3770b1!19sChIJZ2Q1Xgm9f0cRR50VwDQCAY0?authuser=0&hl=tr&rclk=1",
    "website_url": "http://www.edengreensolutions.it/",
    "rating_text": "5,0",
    "stars": null,
    "number_of_reviews": null,
    "price_level": "",
    "open_hours": "",
    "extraction_timestamp": "2025-06-07T16:18:34.542Z",
    "source_name": "google",
    "source_query": "Irrigation Equipment",
    "source_country": "IT",
    "country": "Italy",
    "state": "Emilia-Romagna",
    "city": "Pieve di Cento"
  },
  {
    "source_id": "ChIJu07AB0rif0cRnS0vXUM4l0M",
    "name": "IDROPLAST",
    "category": "IDROPLAST",
    "formatted_address": "4,1(66)",
    "phone_number": "+390536946864",
    "source_url": "https://www.google.com/maps/place/IDROPLAST/data=!4m7!3m6!1s0x477fe24a07c04ebb:0x439738435d2f2d9d!8m2!3d44.5278928!4d10.8902028!16s%2Fg%2F11b6jh694_!19sChIJu07AB0rif0cRnS0vXUM4l0M?authuser=0&hl=tr&rclk=1",
    "website_url": "",
    "rating_text": "4,1",
    "stars": null,
    "number_of_reviews": null,
    "price_level": "",
    "open_hours": "",
    "extraction_timestamp": "2025-06-07T16:18:34.544Z",
    "source_name": "google",
    "source_query": "Irrigation Equipment",
    "source_country": "IT",
    "country": "Italy",
    "state": "Emilia-Romagna",
    "city": "Pieve di Cento"
  },
  {
    "source_id": "ChIJtdJC5j6Zf0cRmmVcuMyNEW0",
    "name": "Tadei | Impianti irrigazione | Robot tagliaerba | Barbecue | Outdoor",
    "category": "Tadei | Impianti irrigazione | Robot tagliaerba | Barbecue | Outdoor",
    "formatted_address": "4,6(69)",
    "phone_number": "+390386733460",
    "source_url": "https://www.google.com/maps/place/Tadei+%7C+Impianti+irrigazione+%7C+Robot+tagliaerba+%7C+Barbecue+%7C+Outdoor/data=!4m7!3m6!1s0x477f993ee642d2b5:0x6d118dccb85c659a!8m2!3d44.9680645!4d11.1076526!16s%2Fg%2F113dpgnd_!19sChIJtdJC5j6Zf0cRmmVcuMyNEW0?authuser=0&hl=tr&rclk=1",
    "website_url": "https://www.irrigazionetadei.it/",
    "rating_text": "4,6",
    "stars": null,
    "number_of_reviews": null,
    "price_level": "",
    "open_hours": "",
    "extraction_timestamp": "2025-06-07T16:18:34.545Z",
    "source_name": "google",
    "source_query": "Irrigation Equipment",
    "source_country": "IT",
    "country": "Italy",
    "state": "Emilia-Romagna",
    "city": "Pieve di Cento"
  },
  {
    "source_id": "ChIJVSmCxDm4f0cRFZ8KP0CCFJk",
    "name": "Irrilambor S.N.C.",
    "category": "Irrilambor S.N.C.",
    "formatted_address": "4,4(19)",
    "phone_number": "+390516850154",
    "source_url": "https://www.google.com/maps/place/Irrilambor+S.N.C./data=!4m7!3m6!1s0x477fb839c4822955:0x991482403f0a9f15!8m2!3d44.7688102!4d11.271286!16s%2Fg%2F12hlv6jp1!19sChIJVSmCxDm4f0cRFZ8KP0CCFJk?authuser=0&hl=tr&rclk=1",
    "website_url": "",
    "rating_text": "4,4",
    "stars": null,
    "number_of_reviews": null,
    "price_level": "",
    "open_hours": "",
    "extraction_timestamp": "2025-06-07T16:18:34.546Z",
    "source_name": "google",
    "source_query": "Irrigation Equipment",
    "source_country": "IT",
    "country": "Italy",
    "state": "Emilia-Romagna",
    "city": "Pieve di Cento"
  },
  {
    "source_id": "ChIJ69PdR1EvgEcRzaszzDo7sjQ",
    "name": "Nodolini s.n.c.",
    "category": "Nodolini s.n.c.",
    "formatted_address": "5,0(8)",
    "phone_number": "+390522977491",
    "source_url": "https://www.google.com/maps/place/Nodolini+s.n.c./data=!4m7!3m6!1s0x47802f5147ddd3eb:0x34b23b3acc33abcd!8m2!3d44.9541974!4d10.6879499!16s%2Fg%2F11b6j0n4vm!19sChIJ69PdR1EvgEcRzaszzDo7sjQ?authuser=0&hl=tr&rclk=1",
    "website_url": "http://www.nodolini.com/",
    "rating_text": "5,0",
    "stars": null,
    "number_of_reviews": null,
    "price_level": "",
    "open_hours": "",
    "extraction_timestamp": "2025-06-07T16:18:34.547Z",
    "source_name": "google",
    "source_query": "Irrigation Equipment",
    "source_country": "IT",
    "country": "Italy",
    "state": "Emilia-Romagna",
    "city": "Pieve di Cento"
  },
  {
    "source_id": "ChIJtVDkNgRFgEcRqc6umwWIJuI",
    "name": "Rm Spa",
    "category": "Rm Spa",
    "formatted_address": "4,6(81)",
    "phone_number": "+390521872321",
    "source_url": "https://www.google.com/maps/place/Rm+Spa/data=!4m7!3m6!1s0x4780450436e450b5:0xe22688059baecea9!8m2!3d44.9105406!4d10.2583785!16s%2Fg%2F12hl93byl!19sChIJtVDkNgRFgEcRqc6umwWIJuI?authuser=0&hl=tr&rclk=1",
    "website_url": "http://www.rmirrigation.com/",
    "rating_text": "4,6",
    "stars": null,
    "number_of_reviews": null,
    "price_level": "",
    "open_hours": "",
    "extraction_timestamp": "2025-06-07T16:18:34.549Z",
    "source_name": "google",
    "source_query": "Irrigation Equipment",
    "source_country": "IT",
    "country": "Italy",
    "state": "Emilia-Romagna",
    "city": "Pieve di Cento"
  },
  {
    "source_id": "ChIJj8nUhj4kgEcRy8HJk69hn04",
    "name": "Euroclamp S.R.L.",
    "category": "Euroclamp S.R.L.",
    "formatted_address": "4,2(39)",
    "phone_number": "+390522832081",
    "source_url": "https://www.google.com/maps/place/Euroclamp+S.R.L./data=!4m7!3m6!1s0x4780243e86d4c98f:0x4e9f61af93c9c1cb!8m2!3d44.8993434!4d10.654448!16s%2Fg%2F1tdrd6nd!19sChIJj8nUhj4kgEcRy8HJk69hn04?authuser=0&hl=tr&rclk=1",
    "website_url": "http://euroclampsrl.com/",
    "rating_text": "4,2",
    "stars": null,
    "number_of_reviews": null,
    "price_level": "",
    "open_hours": "",
    "extraction_timestamp": "2025-06-07T16:18:34.550Z",
    "source_name": "google",
    "source_query": "Irrigation Equipment",
    "source_country": "IT",
    "country": "Italy",
    "state": "Emilia-Romagna",
    "city": "Pieve di Cento"
  },
  {
    "source_id": "ChIJcQ8T3qS2f0cRALNsVLNyFew",
    "name": "HYDROFER SSRL",
    "category": "HYDROFER SSRL",
    "formatted_address": "4,8(14)",
    "phone_number": "+3905321772422",
    "source_url": "https://www.google.com/maps/place/HYDROFER+SSRL/data=!4m7!3m6!1s0x477fb6a4de130f71:0xec1572b3546cb300!8m2!3d44.7932927!4d11.3818114!16s%2Fg%2F1tk8mfrd!19sChIJcQ8T3qS2f0cRALNsVLNyFew?authuser=0&hl=tr&rclk=1",
    "website_url": "http://www.hydrofer.it/",
    "rating_text": "4,8",
    "stars": null,
    "number_of_reviews": null,
    "price_level": "",
    "open_hours": "",
    "extraction_timestamp": "2025-06-07T16:18:34.551Z",
    "source_name": "google",
    "source_query": "Irrigation Equipment",
    "source_country": "IT",
    "country": "Italy",
    "state": "Emilia-Romagna",
    "city": "Pieve di Cento"
  },
  {
    "source_id": "ChIJKXWijBnIf0cRSZCPE3Z7Nqc",
    "name": "Tek Snc Di Scagliarini Stefano E C.",
    "category": "Tek Snc Di Scagliarini Stefano E C.",
    "formatted_address": "4,8(4)",
    "phone_number": "+39051903492",
    "source_url": "https://www.google.com/maps/place/Tek+Snc+Di+Scagliarini+Stefano+E+C./data=!4m7!3m6!1s0x477fc8198ca27529:0xa7367b76138f9049!8m2!3d44.7443343!4d11.2772192!16s%2Fg%2F1vrq8h7y!19sChIJKXWijBnIf0cRSZCPE3Z7Nqc?authuser=0&hl=tr&rclk=1",
    "website_url": "",
    "rating_text": "4,8",
    "stars": null,
    "number_of_reviews": null,
    "price_level": "",
    "open_hours": "",
    "extraction_timestamp": "2025-06-07T16:18:34.552Z",
    "source_name": "google",
    "source_query": "Irrigation Equipment",
    "source_country": "IT",
    "country": "Italy",
    "state": "Emilia-Romagna",
    "city": "Pieve di Cento"
  }
]
