[
  {
    "source_id": "ChIJ3cy5egBg1RIR-2AQkKciSoc",
    "name": "Centro Fai Da Te",
    "category": "Centro Fai Da Te",
    "formatted_address": "4,6(120)",
    "phone_number": "+39053671562",
    "source_url": "https://www.google.com/maps/place/Centro+Fai+Da+Te/data=!4m7!3m6!1s0x12d560007ab9ccdd:0x874a22a7901060fb!8m2!3d44.2055877!4d10.6175296!16s%2Fg%2F1tmv09ch!19sChIJ3cy5egBg1RIR-2AQkKciSoc?authuser=0&hl=tr&rclk=1",
    "website_url": "",
    "rating_text": "4,6",
    "stars": null,
    "number_of_reviews": null,
    "price_level": "",
    "open_hours": "",
    "extraction_timestamp": "2025-06-07T16:57:26.009Z",
    "source_name": "google",
    "source_query": "Irrigation Equipment",
    "source_country": "IT",
    "country": "Italy",
    "state": "Emilia-Romagna",
    "city": "Pievepelago"
  },
  {
    "source_id": "ChIJM-i5ZR1g1RIR7tjG8sY0zkk",
    "name": "Botti Andrea",
    "category": "Botti Andrea",
    "formatted_address": "4,6(73)",
    "phone_number": "+39053671853",
    "source_url": "https://www.google.com/maps/place/Botti+Andrea/data=!4m7!3m6!1s0x12d5601d65b9e833:0x49ce34c6f2c6d8ee!8m2!3d44.202163!4d10.6152123!16s%2Fg%2F1td3c78x!19sChIJM-i5ZR1g1RIR7tjG8sY0zkk?authuser=0&hl=tr&rclk=1",
    "website_url": "",
    "rating_text": "4,6",
    "stars": null,
    "number_of_reviews": null,
    "price_level": "",
    "open_hours": "",
    "extraction_timestamp": "2025-06-07T16:57:26.009Z",
    "source_name": "google",
    "source_query": "Irrigation Equipment",
    "source_country": "IT",
    "country": "Italy",
    "state": "Emilia-Romagna",
    "city": "Pievepelago"
  },
  {
    "source_id": "ChIJcQG6ul7df0cR3VxKiu5OPBs",
    "name": "Scova Impianti Srl",
    "category": "Scova Impianti Srl",
    "formatted_address": "4,5(64)",
    "phone_number": "+39059923202",
    "source_url": "https://www.google.com/maps/place/Scova+Impianti+Srl/data=!4m7!3m6!1s0x477fdd5ebaba0171:0x1b3c4eee8a4a5cdd!8m2!3d44.6018135!4d11.032294!16s%2Fg%2F1tfzwbfb!19sChIJcQG6ul7df0cR3VxKiu5OPBs?authuser=0&hl=tr&rclk=1",
    "website_url": "https://www.scovaimpianti.com/",
    "rating_text": "4,5",
    "stars": null,
    "number_of_reviews": null,
    "price_level": "",
    "open_hours": "",
    "extraction_timestamp": "2025-06-07T16:57:26.009Z",
    "source_name": "google",
    "source_query": "Irrigation Equipment",
    "source_country": "IT",
    "country": "Italy",
    "state": "Emilia-Romagna",
    "city": "Pievepelago"
  },
  {
    "source_id": "ChIJJ6V6lMDgf0cR1SpFsfjDuHg",
    "name": "Ocmis Irrigazione Spa",
    "category": "Ocmis Irrigazione Spa",
    "formatted_address": "3,5(31)",
    "phone_number": "+39059702150",
    "source_url": "https://www.google.com/maps/place/Ocmis+Irrigazione+Spa/data=!4m7!3m6!1s0x477fe0c0947aa527:0x78b8c3f8b1452ad5!8m2!3d44.530494!4d10.9794578!16s%2Fg%2F1vd3tn19!19sChIJJ6V6lMDgf0cR1SpFsfjDuHg?authuser=0&hl=tr&rclk=1",
    "website_url": "http://www.ocmis-irrigazione.it/",
    "rating_text": "3,5",
    "stars": null,
    "number_of_reviews": null,
    "price_level": "",
    "open_hours": "",
    "extraction_timestamp": "2025-06-07T16:57:26.010Z",
    "source_name": "google",
    "source_query": "Irrigation Equipment",
    "source_country": "IT",
    "country": "Italy",
    "state": "Emilia-Romagna",
    "city": "Pievepelago"
  },
  {
    "source_id": "ChIJhT-kpAXff0cRKJQqKYwIulA",
    "name": "Irrigo",
    "category": "Irrigo",
    "formatted_address": "4,7(36)",
    "phone_number": "+393473096499",
    "source_url": "https://www.google.com/maps/place/Irrigo/data=!4m7!3m6!1s0x477fdf05a4a43f85:0x50ba088c292a9428!8m2!3d44.5018172!4d11.005272!16s%2Fg%2F11hdjcp5pk!19sChIJhT-kpAXff0cRKJQqKYwIulA?authuser=0&hl=tr&rclk=1",
    "website_url": "https://www.irrigovignola.it/",
    "rating_text": "4,7",
    "stars": null,
    "number_of_reviews": null,
    "price_level": "",
    "open_hours": "",
    "extraction_timestamp": "2025-06-07T16:57:26.010Z",
    "source_name": "google",
    "source_query": "Irrigation Equipment",
    "source_country": "IT",
    "country": "Italy",
    "state": "Emilia-Romagna",
    "city": "Pievepelago"
  },
  {
    "source_id": "ChIJtVDkNgRFgEcRqc6umwWIJuI",
    "name": "Rm Spa",
    "category": "Rm Spa",
    "formatted_address": "4,6(81)",
    "phone_number": "+390521872321",
    "source_url": "https://www.google.com/maps/place/Rm+Spa/data=!4m7!3m6!1s0x4780450436e450b5:0xe22688059baecea9!8m2!3d44.9105406!4d10.2583785!16s%2Fg%2F12hl93byl!19sChIJtVDkNgRFgEcRqc6umwWIJuI?authuser=0&hl=tr&rclk=1",
    "website_url": "http://www.rmirrigation.com/",
    "rating_text": "4,6",
    "stars": null,
    "number_of_reviews": null,
    "price_level": "",
    "open_hours": "",
    "extraction_timestamp": "2025-06-07T16:57:26.010Z",
    "source_name": "google",
    "source_query": "Irrigation Equipment",
    "source_country": "IT",
    "country": "Italy",
    "state": "Emilia-Romagna",
    "city": "Pievepelago"
  },
  {
    "source_id": "ChIJb0mlmf9f1RIR-5qr0ghnCXw",
    "name": "Alimentari Oasi di Mussi Ilaria",
    "category": "Alimentari Oasi di Mussi Ilaria",
    "formatted_address": "4,6(23)",
    "phone_number": "+39053671384",
    "source_url": "https://www.google.com/maps/place/Alimentari+Oasi+di+Mussi+Ilaria/data=!4m7!3m6!1s0x12d55fff99a5496f:0x7c096708d2ab9afb!8m2!3d44.2077707!4d10.6184668!16s%2Fg%2F11g8djgwzn!19sChIJb0mlmf9f1RIR-5qr0ghnCXw?authuser=0&hl=tr&rclk=1",
    "website_url": "https://www.facebook.com/profile.php?id=61554363069699",
    "rating_text": "4,6",
    "stars": null,
    "number_of_reviews": null,
    "price_level": "",
    "open_hours": "",
    "extraction_timestamp": "2025-06-07T16:57:26.011Z",
    "source_name": "google",
    "source_query": "Irrigation Equipment",
    "source_country": "IT",
    "country": "Italy",
    "state": "Emilia-Romagna",
    "city": "Pievepelago"
  },
  {
    "source_id": "ChIJdRQliwBg1RIRK3mAd4ygZww",
    "name": "A & O Market",
    "category": "A & O Market",
    "formatted_address": "4,0(249)",
    "phone_number": "+39053671606",
    "source_url": "https://www.google.com/maps/place/A+%26+O+Market/data=!4m7!3m6!1s0x12d560008b251475:0xc67a08c7780792b!8m2!3d44.2048217!4d10.6168181!16s%2Fg%2F1tg2glfj!19sChIJdRQliwBg1RIRK3mAd4ygZww?authuser=0&hl=tr&rclk=1",
    "website_url": "https://www.aeo.it/",
    "rating_text": "4,0",
    "stars": null,
    "number_of_reviews": null,
    "price_level": "",
    "open_hours": "",
    "extraction_timestamp": "2025-06-07T16:57:26.011Z",
    "source_name": "google",
    "source_query": "Irrigation Equipment",
    "source_country": "IT",
    "country": "Italy",
    "state": "Emilia-Romagna",
    "city": "Pievepelago"
  }
]
