[
  {
    "source_id": "ChIJSSMzGN4pfkcRxNrEMhpqts8",
    "name": "Hydro Ware srl",
    "category": "Hydro Ware srl",
    "formatted_address": "4,5(2)",
    "phone_number": "+390510404329",
    "source_url": "https://www.google.com/maps/place/Hydro+Ware+srl/data=!4m7!3m6!1s0x477e29de18332349:0xcfb66a1a32c4dac4!8m2!3d44.4442053!4d11.4850842!16s%2Fg%2F11h55y8w7d!19sChIJSSMzGN4pfkcRxNrEMhpqts8?authuser=0&hl=tr&rclk=1",
    "website_url": "http://www.hydroware.it/it/",
    "rating_text": "4,5",
    "stars": null,
    "number_of_reviews": null,
    "price_level": "",
    "open_hours": "",
    "extraction_timestamp": "2025-06-07T16:01:17.879Z",
    "source_name": "google",
    "source_query": "Irrigation Equipment",
    "source_country": "IT",
    "country": "Italy",
    "state": "Emilia-Romagna",
    "city": "Piozzano"
  },
  {
    "source_id": "ChIJh3Nd8G0sfkcR_m7VewEmxXM",
    "name": "Irrigarden",
    "category": "Irrigarden",
    "formatted_address": "4,7(158)",
    "phone_number": "+39051782013",
    "source_url": "https://www.google.com/maps/place/Irrigarden/data=!4m7!3m6!1s0x477e2c6df05d7387:0x73c526017bd56efe!8m2!3d44.5096266!4d11.4390897!16s%2Fg%2F1vgw_l7w!19sChIJh3Nd8G0sfkcR_m7VewEmxXM?authuser=0&hl=tr&rclk=1",
    "website_url": "https://www.irrigarden-bo.it/",
    "rating_text": "4,7",
    "stars": null,
    "number_of_reviews": null,
    "price_level": "",
    "open_hours": "",
    "extraction_timestamp": "2025-06-07T16:01:17.880Z",
    "source_name": "google",
    "source_query": "Irrigation Equipment",
    "source_country": "IT",
    "country": "Italy",
    "state": "Emilia-Romagna",
    "city": "Piozzano"
  },
  {
    "source_id": "ChIJUQemEbQpfkcRXfu8r_HVYV8",
    "name": "Top Impianti",
    "category": "Top Impianti",
    "formatted_address": "4,8(65)",
    "phone_number": "+390514985861",
    "source_url": "https://www.google.com/maps/place/Top+Impianti/data=!4m7!3m6!1s0x477e29b411a60751:0x5f61d5f1afbcfb5d!8m2!3d44.4466349!4d11.4671869!16s%2Fg%2F11sj5d32n6!19sChIJUQemEbQpfkcRXfu8r_HVYV8?authuser=0&hl=tr&rclk=1",
    "website_url": "https://www.topimpianti.eu/",
    "rating_text": "4,8",
    "stars": null,
    "number_of_reviews": null,
    "price_level": "",
    "open_hours": "",
    "extraction_timestamp": "2025-06-07T16:01:17.881Z",
    "source_name": "google",
    "source_query": "Irrigation Equipment",
    "source_country": "IT",
    "country": "Italy",
    "state": "Emilia-Romagna",
    "city": "Piozzano"
  },
  {
    "source_id": "ChIJ_SYf2IMsfkcRVw9xVhrnjyI",
    "name": "Irrigazione Bragaglia",
    "category": "Irrigazione Bragaglia",
    "formatted_address": "4,7(30)",
    "phone_number": "+39051534865",
    "source_url": "https://www.google.com/maps/place/Irrigazione+Bragaglia/data=!4m7!3m6!1s0x477e2c83d81f26fd:0x228fe71a56710f57!8m2!3d44.5053735!4d11.412403!16s%2Fg%2F1vp6z0gf!19sChIJ_SYf2IMsfkcRVw9xVhrnjyI?authuser=0&hl=tr&rclk=1",
    "website_url": "http://www.irrigazionebragaglia.it/",
    "rating_text": "4,7",
    "stars": null,
    "number_of_reviews": null,
    "price_level": "",
    "open_hours": "",
    "extraction_timestamp": "2025-06-07T16:01:17.883Z",
    "source_name": "google",
    "source_query": "Irrigation Equipment",
    "source_country": "IT",
    "country": "Italy",
    "state": "Emilia-Romagna",
    "city": "Piozzano"
  },
  {
    "source_id": "ChIJyXgg68QrfkcRAaJCOMJ3PxY",
    "name": "hidrisistem",
    "category": "hidrisistem",
    "formatted_address": "5,0(1)",
    "phone_number": "+39366448310824",
    "source_url": "https://www.google.com/maps/place/hidrisistem/data=!4m7!3m6!1s0x477e2bc4eb2078c9:0x163f77c23842a201!8m2!3d44.496029!4d11.402638!16s%2Fg%2F11w_zjhjy3!19sChIJyXgg68QrfkcRAaJCOMJ3PxY?authuser=0&hl=tr&rclk=1",
    "website_url": "",
    "rating_text": "5,0",
    "stars": null,
    "number_of_reviews": null,
    "price_level": "",
    "open_hours": "",
    "extraction_timestamp": "2025-06-07T16:01:17.884Z",
    "source_name": "google",
    "source_query": "Irrigation Equipment",
    "source_country": "IT",
    "country": "Italy",
    "state": "Emilia-Romagna",
    "city": "Piozzano"
  },
  {
    "source_id": "ChIJ3_H07bQpfkcRLyZ3IM8cH3E",
    "name": "Farlan Impianti Tecnologici",
    "category": "Farlan Impianti Tecnologici",
    "formatted_address": "5,0(1)",
    "phone_number": "+39051790399",
    "source_url": "https://www.google.com/maps/place/Farlan+Impianti+Tecnologici/data=!4m7!3m6!1s0x477e29b4edf4f1df:0x711f1ccf2077262f!8m2!3d44.442479!4d11.486913!16s%2Fg%2F1w6r7369!19sChIJ3_H07bQpfkcRLyZ3IM8cH3E?authuser=0&hl=tr&rclk=1",
    "website_url": "",
    "rating_text": "5,0",
    "stars": null,
    "number_of_reviews": null,
    "price_level": "",
    "open_hours": "",
    "extraction_timestamp": "2025-06-07T16:01:17.885Z",
    "source_name": "google",
    "source_query": "Irrigation Equipment",
    "source_country": "IT",
    "country": "Italy",
    "state": "Emilia-Romagna",
    "city": "Piozzano"
  },
  {
    "source_id": "ChIJmUKn41cofkcRiwC10xP_mc8",
    "name": "DIPIA s.r.l.",
    "category": "DIPIA s.r.l.",
    "formatted_address": "4,6(15)",
    "phone_number": "+39051797912",
    "source_url": "https://www.google.com/maps/place/DIPIA+s.r.l./data=!4m7!3m6!1s0x477e2857e3a74299:0xcf99ff13d3b5008b!8m2!3d44.455748!4d11.504322!16s%2Fg%2F11cn3m04ql!19sChIJmUKn41cofkcRiwC10xP_mc8?authuser=0&hl=tr&rclk=1",
    "website_url": "https://www.dipia.it/",
    "rating_text": "4,6",
    "stars": null,
    "number_of_reviews": null,
    "price_level": "",
    "open_hours": "",
    "extraction_timestamp": "2025-06-07T16:01:17.886Z",
    "source_name": "google",
    "source_query": "Irrigation Equipment",
    "source_country": "IT",
    "country": "Italy",
    "state": "Emilia-Romagna",
    "city": "Piozzano"
  },
  {
    "source_id": "ChIJ6xsv0r4pfkcRC8wGVgF9R4I",
    "name": "Sphera Group S.n.c.",
    "category": "Sphera Group S.n.c.",
    "formatted_address": "Klima Sistemleri · Via Giacomo Leopardi, 3Kapalı ⋅ Açılış zamanı: Pzt 09:00 · +39 051 028 3594",
    "phone_number": "+390510283594",
    "source_url": "https://www.google.com/maps/place/Sphera+Group+S.n.c./data=!4m7!3m6!1s0x477e29bed22f1beb:0x82477d015606cc0b!8m2!3d44.4433152!4d11.4706293!16s%2Fg%2F11b6d4dvdl!19sChIJ6xsv0r4pfkcRC8wGVgF9R4I?authuser=0&hl=tr&rclk=1",
    "website_url": "http://www.spheragroupbo.com/",
    "rating_text": "",
    "stars": null,
    "number_of_reviews": null,
    "price_level": "",
    "open_hours": "",
    "extraction_timestamp": "2025-06-07T16:01:17.886Z",
    "source_name": "google",
    "source_query": "Irrigation Equipment",
    "source_country": "IT",
    "country": "Italy",
    "state": "Emilia-Romagna",
    "city": "Piozzano"
  },
  {
    "source_id": "ChIJo38Iz0oofkcRV2inyACrtAM",
    "name": "Ferramenta Ozzanese S.N.C.",
    "category": "Ferramenta Ozzanese S.N.C.",
    "formatted_address": "4,4(431)",
    "phone_number": "+39051799285",
    "source_url": "https://www.google.com/maps/place/Ferramenta+Ozzanese+S.N.C./data=!4m7!3m6!1s0x477e284acf087fa3:0x3b4ab00c8a76857!8m2!3d44.4396548!4d11.4892875!16s%2Fg%2F1w97t72s!19sChIJo38Iz0oofkcRV2inyACrtAM?authuser=0&hl=tr&rclk=1",
    "website_url": "",
    "rating_text": "4,4",
    "stars": null,
    "number_of_reviews": null,
    "price_level": "",
    "open_hours": "",
    "extraction_timestamp": "2025-06-07T16:01:17.887Z",
    "source_name": "google",
    "source_query": "Irrigation Equipment",
    "source_country": "IT",
    "country": "Italy",
    "state": "Emilia-Romagna",
    "city": "Piozzano"
  },
  {
    "source_id": "ChIJF2LQITEpfkcRt1zrqr-e88o",
    "name": "Brico Ok - Ozzano dell'Emilia",
    "category": "Brico Ok - Ozzano dell'Emilia",
    "formatted_address": "3,7(67)",
    "phone_number": "+390510195953",
    "source_url": "https://www.google.com/maps/place/Brico+Ok+-+Ozzano+dell%27Emilia/data=!4m7!3m6!1s0x477e293121d06217:0xcaf39ebfaaeb5cb7!8m2!3d44.4397704!4d11.4882952!16s%2Fg%2F11vm6q4xvs!19sChIJF2LQITEpfkcRt1zrqr-e88o?authuser=0&hl=tr&rclk=1",
    "website_url": "https://www.bricook.it/",
    "rating_text": "3,7",
    "stars": null,
    "number_of_reviews": null,
    "price_level": "",
    "open_hours": "",
    "extraction_timestamp": "2025-06-07T16:01:17.888Z",
    "source_name": "google",
    "source_query": "Irrigation Equipment",
    "source_country": "IT",
    "country": "Italy",
    "state": "Emilia-Romagna",
    "city": "Piozzano"
  },
  {
    "source_id": "ChIJHWCM2FcofkcR8WP62BuF6HQ",
    "name": "AG Filtri",
    "category": "AG Filtri",
    "formatted_address": "Üretici ·  · Via Piemonte, 15Kapalı ⋅ Açılış zamanı: Pzt 08:00 · +39 051 798203",
    "phone_number": "+39051798203",
    "source_url": "https://www.google.com/maps/place/AG+Filtri/data=!4m7!3m6!1s0x477e2857d88c601d:0x74e8851bd8fa63f1!8m2!3d44.4563794!4d11.5023959!16s%2Fg%2F1td5v_ff!19sChIJHWCM2FcofkcR8WP62BuF6HQ?authuser=0&hl=tr&rclk=1",
    "website_url": "http://agfiltri.it/",
    "rating_text": "",
    "stars": null,
    "number_of_reviews": null,
    "price_level": "",
    "open_hours": "",
    "extraction_timestamp": "2025-06-07T16:01:17.889Z",
    "source_name": "google",
    "source_query": "Irrigation Equipment",
    "source_country": "IT",
    "country": "Italy",
    "state": "Emilia-Romagna",
    "city": "Piozzano"
  },
  {
    "source_id": "ChIJneG4xqQrfkcRXZ2DBzQAOco",
    "name": "Elettromeccanica Gruppioni",
    "category": "Elettromeccanica Gruppioni",
    "formatted_address": "4,1(7)",
    "phone_number": "+39051462110",
    "source_url": "https://www.google.com/maps/place/Elettromeccanica+Gruppioni/data=!4m7!3m6!1s0x477e2ba4c6b8e19d:0xca39003407839d5d!8m2!3d44.4774004!4d11.4187028!16s%2Fg%2F1wc46tr7!19sChIJneG4xqQrfkcRXZ2DBzQAOco?authuser=0&hl=tr&rclk=1",
    "website_url": "https://www.elettromeccanica-gruppioni.com/",
    "rating_text": "4,1",
    "stars": null,
    "number_of_reviews": null,
    "price_level": "",
    "open_hours": "",
    "extraction_timestamp": "2025-06-07T16:01:17.890Z",
    "source_name": "google",
    "source_query": "Irrigation Equipment",
    "source_country": "IT",
    "country": "Italy",
    "state": "Emilia-Romagna",
    "city": "Piozzano"
  },
  {
    "source_id": "ChIJTbVQ3LYpfkcRdVho-FnXmp0",
    "name": "Vetefar srl",
    "category": "Vetefar srl",
    "formatted_address": "4,4(246)",
    "phone_number": "+39051798658",
    "source_url": "https://www.google.com/maps/place/Vetefar+srl/data=!4m7!3m6!1s0x477e29b6dc50b54d:0x9d9ad759f8685875!8m2!3d44.440099!4d11.4896814!16s%2Fg%2F1hc11m3sb!19sChIJTbVQ3LYpfkcRdVho-FnXmp0?authuser=0&hl=tr&rclk=1",
    "website_url": "http://www.vetefar.it/",
    "rating_text": "4,4",
    "stars": null,
    "number_of_reviews": null,
    "price_level": "",
    "open_hours": "",
    "extraction_timestamp": "2025-06-07T16:01:17.891Z",
    "source_name": "google",
    "source_query": "Irrigation Equipment",
    "source_country": "IT",
    "country": "Italy",
    "state": "Emilia-Romagna",
    "city": "Piozzano"
  },
  {
    "source_id": "ChIJdbi1mvUlfkcRw_VX1yUWxp8",
    "name": "Hydro Italia srl - Trattamento e Depurazione Acque Industriali",
    "category": "Hydro Italia srl - Trattamento e Depurazione Acque Industriali",
    "formatted_address": "4,0(2)",
    "phone_number": "+39051856263",
    "source_url": "https://www.google.com/maps/place/Hydro+Italia+srl+-+Trattamento+e+Depurazione+Acque+Industriali/data=!4m7!3m6!1s0x477e25f59ab5b875:0x9fc61625d757f5c3!8m2!3d44.5025405!4d11.560667!16s%2Fg%2F1tdjp_4w!19sChIJdbi1mvUlfkcRw_VX1yUWxp8?authuser=0&hl=tr&rclk=1",
    "website_url": "https://www.hydroitalia.com/?utm_source=google&utm_medium=mybusiness&utm_campaign=url-sito",
    "rating_text": "4,0",
    "stars": null,
    "number_of_reviews": null,
    "price_level": "",
    "open_hours": "",
    "extraction_timestamp": "2025-06-07T16:01:17.913Z",
    "source_name": "google",
    "source_query": "Irrigation Equipment",
    "source_country": "IT",
    "country": "Italy",
    "state": "Emilia-Romagna",
    "city": "Piozzano"
  },
  {
    "source_id": "ChIJoUdjxvcrfkcRNBRxZxbabWs",
    "name": "Roli D. macchine ed attrezzature per giardinaggio",
    "category": "Roli D. macchine ed attrezzature per giardinaggio",
    "formatted_address": "4,6(27)",
    "phone_number": "+390514842351",
    "source_url": "https://www.google.com/maps/place/Roli+D.+macchine+ed+attrezzature+per+giardinaggio/data=!4m7!3m6!1s0x477e2bf7c66347a1:0x6b6dda1667711434!8m2!3d44.5028239!4d11.4035209!16s%2Fg%2F11tj6kzpf8!19sChIJoUdjxvcrfkcRNBRxZxbabWs?authuser=0&hl=tr&rclk=1",
    "website_url": "http://www.rolid.it/",
    "rating_text": "4,6",
    "stars": null,
    "number_of_reviews": null,
    "price_level": "",
    "open_hours": "",
    "extraction_timestamp": "2025-06-07T16:01:17.913Z",
    "source_name": "google",
    "source_query": "Irrigation Equipment",
    "source_country": "IT",
    "country": "Italy",
    "state": "Emilia-Romagna",
    "city": "Piozzano"
  },
  {
    "source_id": "ChIJJ6V6lMDgf0cR1SpFsfjDuHg",
    "name": "Ocmis Irrigazione Spa",
    "category": "Ocmis Irrigazione Spa",
    "formatted_address": "3,5(31)",
    "phone_number": "+39059702150",
    "source_url": "https://www.google.com/maps/place/Ocmis+Irrigazione+Spa/data=!4m7!3m6!1s0x477fe0c0947aa527:0x78b8c3f8b1452ad5!8m2!3d44.530494!4d10.9794578!16s%2Fg%2F1vd3tn19!19sChIJJ6V6lMDgf0cR1SpFsfjDuHg?authuser=0&hl=tr&rclk=1",
    "website_url": "http://www.ocmis-irrigazione.it/",
    "rating_text": "3,5",
    "stars": null,
    "number_of_reviews": null,
    "price_level": "",
    "open_hours": "",
    "extraction_timestamp": "2025-06-07T16:01:17.914Z",
    "source_name": "google",
    "source_query": "Irrigation Equipment",
    "source_country": "IT",
    "country": "Italy",
    "state": "Emilia-Romagna",
    "city": "Piozzano"
  },
  {
    "source_id": "ChIJVbUP6koofkcR77v_dHmewTA",
    "name": "FAUNA FOOD",
    "category": "FAUNA FOOD",
    "formatted_address": "4,1(92)",
    "phone_number": "+39051798658",
    "source_url": "https://www.google.com/maps/place/FAUNA+FOOD/data=!4m7!3m6!1s0x477e284aea0fb555:0x30c19e7974ffbbef!8m2!3d44.4401609!4d11.4892991!16s%2Fg%2F1ptyl7w0y!19sChIJVbUP6koofkcR77v_dHmewTA?authuser=0&hl=tr&rclk=1",
    "website_url": "",
    "rating_text": "4,1",
    "stars": null,
    "number_of_reviews": null,
    "price_level": "",
    "open_hours": "",
    "extraction_timestamp": "2025-06-07T16:01:17.915Z",
    "source_name": "google",
    "source_query": "Irrigation Equipment",
    "source_country": "IT",
    "country": "Italy",
    "state": "Emilia-Romagna",
    "city": "Piozzano"
  },
  {
    "source_id": "ChIJCf5GXp9ywgwRjOaHi3EuOyk",
    "name": "T.R.I. italia srl irrigazione",
    "category": "T.R.I. italia srl irrigazione",
    "formatted_address": "",
    "phone_number": "+393492227322",
    "source_url": "https://www.google.com/maps/place/T.R.I.+italia+srl+irrigazione/data=!4m7!3m6!1s0xcc2729f5e46fe09:0x293b2e718b87e68c!8m2!3d41.29085!4d12.71216!16s%2Fg%2F11wqp9bx1c!19sChIJCf5GXp9ywgwRjOaHi3EuOyk?authuser=0&hl=tr&rclk=1",
    "website_url": "",
    "rating_text": "",
    "stars": null,
    "number_of_reviews": null,
    "price_level": "",
    "open_hours": "",
    "extraction_timestamp": "2025-06-07T16:01:17.915Z",
    "source_name": "google",
    "source_query": "Irrigation Equipment",
    "source_country": "IT",
    "country": "Italy",
    "state": "Emilia-Romagna",
    "city": "Piozzano"
  },
  {
    "source_id": "ChIJ9UosqzHbASoR02d0Tw_sUAk",
    "name": "TRI italia srl",
    "category": "TRI italia srl",
    "formatted_address": "",
    "phone_number": "+393492227322",
    "source_url": "https://www.google.com/maps/place/TRI+italia+srl/data=!4m7!3m6!1s0x2a01db31ab2c4af5:0x950ec0f4f7467d3!8m2!3d41.29085!4d12.71216!16s%2Fg%2F11wqp8w6f4!19sChIJ9UosqzHbASoR02d0Tw_sUAk?authuser=0&hl=tr&rclk=1",
    "website_url": "",
    "rating_text": "",
    "stars": null,
    "number_of_reviews": null,
    "price_level": "",
    "open_hours": "",
    "extraction_timestamp": "2025-06-07T16:01:17.916Z",
    "source_name": "google",
    "source_query": "Irrigation Equipment",
    "source_country": "IT",
    "country": "Italy",
    "state": "Emilia-Romagna",
    "city": "Piozzano"
  }
]
