[
  {
    "source_id": "ChIJy805WcDcgEcRtmGWlwosXQc",
    "name": "IRRIMEC SRL",
    "category": "IRRIMEC SRL",
    "formatted_address": "4,5(90)",
    "phone_number": "+390523760441",
    "source_url": "https://www.google.com/maps/place/IRRIMEC+SRL/data=!4m7!3m6!1s0x4780dcc05939cdcb:0x75d2c0a979661b6!8m2!3d45.0612353!4d9.630829!16s%2Fg%2F1tdgt7d_!19sChIJy805WcDcgEcRtmGWlwosXQc?authuser=0&hl=tr&rclk=1",
    "website_url": "http://www.irrimec.com/",
    "rating_text": "4,5",
    "stars": null,
    "number_of_reviews": null,
    "price_level": "",
    "open_hours": "",
    "extraction_timestamp": "2025-06-07T16:54:38.123Z",
    "source_name": "google",
    "source_query": "Irrigation Equipment",
    "source_country": "IT",
    "country": "Italy",
    "state": "Emilia-Romagna",
    "city": "Podenzano"
  },
  {
    "source_id": "ChIJwyaoPBHqgEcR3MSap-hG_ew",
    "name": "Tectubi Raccordi S.p.A.",
    "category": "Tectubi Raccordi S.p.A.",
    "formatted_address": "4,5(26)",
    "phone_number": "+390523555311",
    "source_url": "https://www.google.com/maps/place/Tectubi+Raccordi+S.p.A./data=!4m7!3m6!1s0x4780ea113ca826c3:0xecfd46e8a79ac4dc!8m2!3d44.9516792!4d9.6799516!16s%2Fg%2F1tdwtjqk!19sChIJwyaoPBHqgEcR3MSap-hG_ew?authuser=0&hl=tr&rclk=1",
    "website_url": "http://www.tectubiraccordi.com/",
    "rating_text": "4,5",
    "stars": null,
    "number_of_reviews": null,
    "price_level": "",
    "open_hours": "",
    "extraction_timestamp": "2025-06-07T16:54:38.125Z",
    "source_name": "google",
    "source_query": "Irrigation Equipment",
    "source_country": "IT",
    "country": "Italy",
    "state": "Emilia-Romagna",
    "city": "Podenzano"
  },
  {
    "source_id": "ChIJ4WnZNofogEcRcCSJgGupNXk",
    "name": "Irrigarden",
    "category": "Irrigarden",
    "formatted_address": "3,7(6)",
    "phone_number": "+390523592012",
    "source_url": "https://www.google.com/maps/place/Irrigarden/data=!4m7!3m6!1s0x4780e88736d969e1:0x7935a96b80892470!8m2!3d45.0288739!4d9.7384753!16s%2Fg%2F11g4d1r753!19sChIJ4WnZNofogEcRcCSJgGupNXk?authuser=0&hl=tr&rclk=1",
    "website_url": "https://www.irrigarden.com/",
    "rating_text": "3,7",
    "stars": null,
    "number_of_reviews": null,
    "price_level": "",
    "open_hours": "",
    "extraction_timestamp": "2025-06-07T16:54:38.127Z",
    "source_name": "google",
    "source_query": "Irrigation Equipment",
    "source_country": "IT",
    "country": "Italy",
    "state": "Emilia-Romagna",
    "city": "Podenzano"
  },
  {
    "source_id": "ChIJlfKaqSlRfksRNvergECjVi8",
    "name": "Mannino Sistemi Trattamento Acqua",
    "category": "Mannino Sistemi Trattamento Acqua",
    "formatted_address": "4,8(16)",
    "phone_number": "+393505784936",
    "source_url": "https://www.google.com/maps/place/Mannino+Sistemi+Trattamento+Acqua/data=!4m7!3m6!1s0x4b7e5129a99af295:0x2f56a34080abf736!8m2!3d45.0422201!4d9.6981487!16s%2Fg%2F11q3q46xvv!19sChIJlfKaqSlRfksRNvergECjVi8?authuser=0&hl=tr&rclk=1",
    "website_url": "http://manninodepurazione.it/",
    "rating_text": "4,8",
    "stars": null,
    "number_of_reviews": null,
    "price_level": "",
    "open_hours": "",
    "extraction_timestamp": "2025-06-07T16:54:38.128Z",
    "source_name": "google",
    "source_query": "Irrigation Equipment",
    "source_country": "IT",
    "country": "Italy",
    "state": "Emilia-Romagna",
    "city": "Podenzano"
  },
  {
    "source_id": "ChIJp1upZxzCgEcR5-WAarrDTpg",
    "name": "Oleodinamica Marchesini",
    "category": "Oleodinamica Marchesini",
    "formatted_address": "3,0(2)",
    "phone_number": "+390523523231",
    "source_url": "https://www.google.com/maps/place/Oleodinamica+Marchesini/data=!4m7!3m6!1s0x4780c21c67a95ba7:0x984ec3ba6a80e5e7!8m2!3d44.9923286!4d9.6916713!16s%2Fg%2F1vl5fmrx!19sChIJp1upZxzCgEcR5-WAarrDTpg?authuser=0&hl=tr&rclk=1",
    "website_url": "https://www.groupmarchesini.com/",
    "rating_text": "3,0",
    "stars": null,
    "number_of_reviews": null,
    "price_level": "",
    "open_hours": "",
    "extraction_timestamp": "2025-06-07T16:54:38.130Z",
    "source_name": "google",
    "source_query": "Irrigation Equipment",
    "source_country": "IT",
    "country": "Italy",
    "state": "Emilia-Romagna",
    "city": "Podenzano"
  },
  {
    "source_id": "ChIJYwk8V_bpgEcRGMAEpcDwPlQ",
    "name": "River S.p.A.",
    "category": "River S.p.A.",
    "formatted_address": "4,8(5)",
    "phone_number": "+390523553011",
    "source_url": "https://www.google.com/maps/place/River+S.p.A./data=!4m7!3m6!1s0x4780e9f6573c0963:0x543ef0c0a504c018!8m2!3d44.9653489!4d9.6832916!16s%2Fg%2F1wj_4x53!19sChIJYwk8V_bpgEcRGMAEpcDwPlQ?authuser=0&hl=tr&rclk=1",
    "website_url": "http://www.riverspa.com/",
    "rating_text": "4,8",
    "stars": null,
    "number_of_reviews": null,
    "price_level": "",
    "open_hours": "",
    "extraction_timestamp": "2025-06-07T16:54:38.131Z",
    "source_name": "google",
    "source_query": "Irrigation Equipment",
    "source_country": "IT",
    "country": "Italy",
    "state": "Emilia-Romagna",
    "city": "Podenzano"
  },
  {
    "source_id": "ChIJC0LYzsXngEcR8g_5HSSzAko",
    "name": "Pulitecno",
    "category": "Pulitecno",
    "formatted_address": "5,0(5)",
    "phone_number": "+390523577811",
    "source_url": "https://www.google.com/maps/place/Pulitecno/data=!4m7!3m6!1s0x4780e7c5ced8420b:0x4a02b3241df90ff2!8m2!3d45.0483093!4d9.7294483!16s%2Fg%2F11fxwb60cv!19sChIJC0LYzsXngEcR8g_5HSSzAko?authuser=0&hl=tr&rclk=1",
    "website_url": "http://www.pulitecnosrl.it/",
    "rating_text": "5,0",
    "stars": null,
    "number_of_reviews": null,
    "price_level": "",
    "open_hours": "",
    "extraction_timestamp": "2025-06-07T16:54:38.132Z",
    "source_name": "google",
    "source_query": "Irrigation Equipment",
    "source_country": "IT",
    "country": "Italy",
    "state": "Emilia-Romagna",
    "city": "Podenzano"
  },
  {
    "source_id": "ChIJtWB9hizogEcRfhBUN5VqDE8",
    "name": "Bolzoni",
    "category": "Bolzoni",
    "formatted_address": "4,4(26)",
    "phone_number": "+390523555511",
    "source_url": "https://www.google.com/maps/place/Bolzoni/data=!4m7!3m6!1s0x4780e82c867d60b5:0x4f0c6a953754107e!8m2!3d45.001944!4d9.6875903!16s%2Fg%2F11c1p5r63n!19sChIJtWB9hizogEcRfhBUN5VqDE8?authuser=0&hl=tr&rclk=1",
    "website_url": "http://www.bolzonigroup.com/",
    "rating_text": "4,4",
    "stars": null,
    "number_of_reviews": null,
    "price_level": "",
    "open_hours": "",
    "extraction_timestamp": "2025-06-07T16:54:38.134Z",
    "source_name": "google",
    "source_query": "Irrigation Equipment",
    "source_country": "IT",
    "country": "Italy",
    "state": "Emilia-Romagna",
    "city": "Podenzano"
  },
  {
    "source_id": "ChIJtVDkNgRFgEcRqc6umwWIJuI",
    "name": "Rm Spa",
    "category": "Rm Spa",
    "formatted_address": "4,6(81)",
    "phone_number": "+390521872321",
    "source_url": "https://www.google.com/maps/place/Rm+Spa/data=!4m7!3m6!1s0x4780450436e450b5:0xe22688059baecea9!8m2!3d44.9105406!4d10.2583785!16s%2Fg%2F12hl93byl!19sChIJtVDkNgRFgEcRqc6umwWIJuI?authuser=0&hl=tr&rclk=1",
    "website_url": "http://www.rmirrigation.com/",
    "rating_text": "4,6",
    "stars": null,
    "number_of_reviews": null,
    "price_level": "",
    "open_hours": "",
    "extraction_timestamp": "2025-06-07T16:54:38.135Z",
    "source_name": "google",
    "source_query": "Irrigation Equipment",
    "source_country": "IT",
    "country": "Italy",
    "state": "Emilia-Romagna",
    "city": "Podenzano"
  },
  {
    "source_id": "ChIJP-CISQ3-gEcRXwl1yi9NW2Q",
    "name": "SIIP - Società Impianti di irrigazione a pioggia",
    "category": "SIIP - Società Impianti di irrigazione a pioggia",
    "formatted_address": "5,0(2)",
    "phone_number": "+393356863605",
    "source_url": "https://www.google.com/maps/place/SIIP+-+Societ%C3%A0+Impianti+di+irrigazione+a+pioggia/data=!4m7!3m6!1s0x4780fe0d4988e03f:0x645b4d2fca75095f!8m2!3d45.1417827!4d10.0200624!16s%2Fg%2F1vqtfn9y!19sChIJP-CISQ3-gEcRXwl1yi9NW2Q?authuser=0&hl=tr&rclk=1",
    "website_url": "https://www.impiantiirrigazionicremona.com/",
    "rating_text": "5,0",
    "stars": null,
    "number_of_reviews": null,
    "price_level": "",
    "open_hours": "",
    "extraction_timestamp": "2025-06-07T16:54:38.136Z",
    "source_name": "google",
    "source_query": "Irrigation Equipment",
    "source_country": "IT",
    "country": "Italy",
    "state": "Emilia-Romagna",
    "city": "Podenzano"
  },
  {
    "source_id": "ChIJp89q87XrgEcRSwDPpmLJJiU",
    "name": "Farmainforma",
    "category": "Farmainforma",
    "formatted_address": "5,0(10)",
    "phone_number": "+390523556688",
    "source_url": "https://www.google.com/maps/place/Farmainforma/data=!4m7!3m6!1s0x4780ebb5f36acfa7:0x2526c962a6cf004b!8m2!3d44.9604806!4d9.682031!16s%2Fg%2F11n95qvcw7!19sChIJp89q87XrgEcRSwDPpmLJJiU?authuser=0&hl=tr&rclk=1",
    "website_url": "https://www.farmainforma.net/",
    "rating_text": "5,0",
    "stars": null,
    "number_of_reviews": null,
    "price_level": "",
    "open_hours": "",
    "extraction_timestamp": "2025-06-07T16:54:38.138Z",
    "source_name": "google",
    "source_query": "Irrigation Equipment",
    "source_country": "IT",
    "country": "Italy",
    "state": "Emilia-Romagna",
    "city": "Podenzano"
  },
  {
    "source_id": "ChIJ9V7VUGIbEQ4Rd0H8gwcDqwk",
    "name": "Mannino Sistemi Trattamento Acqua",
    "category": "Mannino Sistemi Trattamento Acqua",
    "formatted_address": "3,7(3)",
    "phone_number": "+393505784936",
    "source_url": "https://www.google.com/maps/place/Mannino+Sistemi+Trattamento+Acqua/data=!4m7!3m6!1s0xe111b6250d55ef5:0x9ab030783fc4177!8m2!3d45.0422201!4d9.6981487!16s%2Fg%2F11s33q_spp!19sChIJ9V7VUGIbEQ4Rd0H8gwcDqwk?authuser=0&hl=tr&rclk=1",
    "website_url": "http://www.manninodepurazione.it/",
    "rating_text": "3,7",
    "stars": null,
    "number_of_reviews": null,
    "price_level": "",
    "open_hours": "",
    "extraction_timestamp": "2025-06-07T16:54:38.139Z",
    "source_name": "google",
    "source_query": "Irrigation Equipment",
    "source_country": "IT",
    "country": "Italy",
    "state": "Emilia-Romagna",
    "city": "Podenzano"
  },
  {
    "source_id": "ChIJf1rZSIfogEcR3YyIhIElauY",
    "name": "Padana Impianti s.r.l.",
    "category": "Padana Impianti s.r.l.",
    "formatted_address": "2,6(10)",
    "phone_number": "+390523593433",
    "source_url": "https://www.google.com/maps/place/Padana+Impianti+s.r.l./data=!4m7!3m6!1s0x4780e88748d95a7f:0xe66a258184888cdd!8m2!3d45.0296596!4d9.7377708!16s%2Fg%2F1ptw328_0!19sChIJf1rZSIfogEcR3YyIhIElauY?authuser=0&hl=tr&rclk=1",
    "website_url": "http://www.padanaimpianti.it/",
    "rating_text": "2,6",
    "stars": null,
    "number_of_reviews": null,
    "price_level": "",
    "open_hours": "",
    "extraction_timestamp": "2025-06-07T16:54:38.140Z",
    "source_name": "google",
    "source_query": "Irrigation Equipment",
    "source_country": "IT",
    "country": "Italy",
    "state": "Emilia-Romagna",
    "city": "Podenzano"
  },
  {
    "source_id": "ChIJkYmJKarcgEcRypXKQgrMaDs",
    "name": "Errebi Idropulitrici",
    "category": "Errebi Idropulitrici",
    "formatted_address": "5,0(5)",
    "phone_number": "+390523769257",
    "source_url": "https://www.google.com/maps/place/Errebi+Idropulitrici/data=!4m7!3m6!1s0x4780dcaa29898991:0x3b68cc0a42ca95ca!8m2!3d45.0495714!4d9.6069156!16s%2Fg%2F11cjpc_lx4!19sChIJkYmJKarcgEcRypXKQgrMaDs?authuser=0&hl=tr&rclk=1",
    "website_url": "",
    "rating_text": "5,0",
    "stars": null,
    "number_of_reviews": null,
    "price_level": "",
    "open_hours": "",
    "extraction_timestamp": "2025-06-07T16:54:38.141Z",
    "source_name": "google",
    "source_query": "Irrigation Equipment",
    "source_country": "IT",
    "country": "Italy",
    "state": "Emilia-Romagna",
    "city": "Podenzano"
  },
  {
    "source_id": "ChIJ-wPcHKnpgEcRYErDfUksad8",
    "name": "IRRIGARDEN PISCINE S.r.l.s.",
    "category": "IRRIGARDEN PISCINE S.r.l.s.",
    "formatted_address": "Yüzme Havuzu İşleri Yüklenicisi · Via Emilia Parmense, 148/HKapalı ⋅ Açılış zamanı: Pzt 08:30 · +39 335 716 6435",
    "phone_number": "+393357166435",
    "source_url": "https://www.google.com/maps/place/IRRIGARDEN+PISCINE+S.r.l.s./data=!4m7!3m6!1s0x4780e9a91cdc03fb:0xdf692c497dc34a60!8m2!3d45.0288519!4d9.7385134!16s%2Fg%2F11r9fb1llm!19sChIJ-wPcHKnpgEcRYErDfUksad8?authuser=0&hl=tr&rclk=1",
    "website_url": "https://www.irrigardenpiscine.it/",
    "rating_text": "",
    "stars": null,
    "number_of_reviews": null,
    "price_level": "",
    "open_hours": "",
    "extraction_timestamp": "2025-06-07T16:54:38.142Z",
    "source_name": "google",
    "source_query": "Irrigation Equipment",
    "source_country": "IT",
    "country": "Italy",
    "state": "Emilia-Romagna",
    "city": "Podenzano"
  },
  {
    "source_id": "ChIJURNsXunRgEcRmae-SVNqONs",
    "name": "IDROPAVESE SAS DI VARESI GIAMPAOLO E VARESI MARA",
    "category": "IDROPAVESE SAS DI VARESI GIAMPAOLO E VARESI MARA",
    "formatted_address": "4,2(17)",
    "phone_number": "+390523882596",
    "source_url": "https://www.google.com/maps/place/IDROPAVESE+SAS+DI+VARESI+GIAMPAOLO+E+VARESI+MARA/data=!4m7!3m6!1s0x4780d1e95e6c1351:0xdb386a5349bea799!8m2!3d45.0733425!4d9.4455294!16s%2Fg%2F11b6hssh7j!19sChIJURNsXunRgEcRmae-SVNqONs?authuser=0&hl=tr&rclk=1",
    "website_url": "http://www.idropavese.it/",
    "rating_text": "4,2",
    "stars": null,
    "number_of_reviews": null,
    "price_level": "",
    "open_hours": "",
    "extraction_timestamp": "2025-06-07T16:54:38.143Z",
    "source_name": "google",
    "source_query": "Irrigation Equipment",
    "source_country": "IT",
    "country": "Italy",
    "state": "Emilia-Romagna",
    "city": "Podenzano"
  },
  {
    "source_id": "ChIJF1HWePfrgEcRhPD9IoZcGJ4",
    "name": "Brico Ok - Podenzano",
    "category": "Brico Ok - Podenzano",
    "formatted_address": "4,3(357)",
    "phone_number": "+3905231610625",
    "source_url": "https://www.google.com/maps/place/Brico+Ok+-+Podenzano/data=!4m7!3m6!1s0x4780ebf778d65117:0x9e185c8622fdf084!8m2!3d44.9543631!4d9.6829344!16s%2Fg%2F11j6wqnr9v!19sChIJF1HWePfrgEcRhPD9IoZcGJ4?authuser=0&hl=tr&rclk=1",
    "website_url": "http://www.bricook.it/",
    "rating_text": "4,3",
    "stars": null,
    "number_of_reviews": null,
    "price_level": "",
    "open_hours": "",
    "extraction_timestamp": "2025-06-07T16:54:38.144Z",
    "source_name": "google",
    "source_query": "Irrigation Equipment",
    "source_country": "IT",
    "country": "Italy",
    "state": "Emilia-Romagna",
    "city": "Podenzano"
  },
  {
    "source_id": "ChIJkZNIBCPdgEcR8lGWPEt6YFI",
    "name": "Eli",
    "category": "Eli",
    "formatted_address": "4,6(15)",
    "phone_number": "+390523489862",
    "source_url": "https://www.google.com/maps/place/Eli/data=!4m7!3m6!1s0x4780dd2304489391:0x52607a4b3c9651f2!8m2!3d45.0568157!4d9.6615652!16s%2Fg%2F1pty1hzpt!19sChIJkZNIBCPdgEcR8lGWPEt6YFI?authuser=0&hl=tr&rclk=1",
    "website_url": "https://www.eliprodottiindustriali.com/",
    "rating_text": "4,6",
    "stars": null,
    "number_of_reviews": null,
    "price_level": "",
    "open_hours": "",
    "extraction_timestamp": "2025-06-07T16:54:38.145Z",
    "source_name": "google",
    "source_query": "Irrigation Equipment",
    "source_country": "IT",
    "country": "Italy",
    "state": "Emilia-Romagna",
    "city": "Podenzano"
  },
  {
    "source_id": "ChIJh3Nd8G0sfkcR_m7VewEmxXM",
    "name": "Irrigarden",
    "category": "Irrigarden",
    "formatted_address": "4,7(158)",
    "phone_number": "+39051782013",
    "source_url": "https://www.google.com/maps/place/Irrigarden/data=!4m7!3m6!1s0x477e2c6df05d7387:0x73c526017bd56efe!8m2!3d44.5096266!4d11.4390897!16s%2Fg%2F1vgw_l7w!19sChIJh3Nd8G0sfkcR_m7VewEmxXM?authuser=0&hl=tr&rclk=1",
    "website_url": "https://www.irrigarden-bo.it/",
    "rating_text": "4,7",
    "stars": null,
    "number_of_reviews": null,
    "price_level": "",
    "open_hours": "",
    "extraction_timestamp": "2025-06-07T16:54:38.146Z",
    "source_name": "google",
    "source_query": "Irrigation Equipment",
    "source_country": "IT",
    "country": "Italy",
    "state": "Emilia-Romagna",
    "city": "Podenzano"
  },
  {
    "source_id": "ChIJS5MUhybdgEcR5VM0wd-wyo4",
    "name": "Assistenza impianti trattamento acqua Piacenza",
    "category": "Assistenza impianti trattamento acqua Piacenza",
    "formatted_address": "",
    "phone_number": "+393247707944",
    "source_url": "https://www.google.com/maps/place/Assistenza+impianti+trattamento+acqua+Piacenza/data=!4m7!3m6!1s0x4780dd268714934b:0x8ecab0dfc13453e5!8m2!3d45.0422201!4d9.6981487!16s%2Fg%2F11j4p_1f6m!19sChIJS5MUhybdgEcR5VM0wd-wyo4?authuser=0&hl=tr&rclk=1",
    "website_url": "",
    "rating_text": "",
    "stars": null,
    "number_of_reviews": null,
    "price_level": "",
    "open_hours": "",
    "extraction_timestamp": "2025-06-07T16:54:38.147Z",
    "source_name": "google",
    "source_query": "Irrigation Equipment",
    "source_country": "IT",
    "country": "Italy",
    "state": "Emilia-Romagna",
    "city": "Podenzano"
  },
  {
    "source_id": "ChIJa30wiigXgEcRs_I6dZm5x4o",
    "name": "Interpump Group S.p.A.",
    "category": "Interpump Group S.p.A.",
    "formatted_address": "4,0(13)",
    "phone_number": "+390522904311",
    "source_url": "https://www.google.com/maps/place/Interpump+Group+S.p.A./data=!4m7!3m6!1s0x478017288a307d6b:0x8ac7b999753af2b3!8m2!3d44.7510122!4d10.4807515!16s%2Fg%2F1v6l6bq9!19sChIJa30wiigXgEcRs_I6dZm5x4o?authuser=0&hl=tr&rclk=1",
    "website_url": "http://www.interpumpgroup.it/",
    "rating_text": "4,0",
    "stars": null,
    "number_of_reviews": null,
    "price_level": "",
    "open_hours": "",
    "extraction_timestamp": "2025-06-07T16:54:38.150Z",
    "source_name": "google",
    "source_query": "Irrigation Equipment",
    "source_country": "IT",
    "country": "Italy",
    "state": "Emilia-Romagna",
    "city": "Podenzano"
  },
  {
    "source_id": "ChIJd9DYVlDtgEcRr1d7CrVIliM",
    "name": "RIVENDITA AGRARIA CRISTALLI di B.G.",
    "category": "RIVENDITA AGRARIA CRISTALLI di B.G.",
    "formatted_address": "4,9(27)",
    "phone_number": "+390523859163",
    "source_url": "https://www.google.com/maps/place/RIVENDITA+AGRARIA+CRISTALLI+di+B.G./data=!4m7!3m6!1s0x4780ed5056d8d077:0x239648b50a7b57af!8m2!3d44.9137014!4d9.7877159!16s%2Fg%2F11p61lb0nt!19sChIJd9DYVlDtgEcRr1d7CrVIliM?authuser=0&hl=tr&rclk=1",
    "website_url": "https://www.facebook.com/agrariacristalli",
    "rating_text": "4,9",
    "stars": null,
    "number_of_reviews": null,
    "price_level": "",
    "open_hours": "",
    "extraction_timestamp": "2025-06-07T16:54:38.151Z",
    "source_name": "google",
    "source_query": "Irrigation Equipment",
    "source_country": "IT",
    "country": "Italy",
    "state": "Emilia-Romagna",
    "city": "Podenzano"
  },
  {
    "source_id": "ChIJ69PdR1EvgEcRzaszzDo7sjQ",
    "name": "Nodolini s.n.c.",
    "category": "Nodolini s.n.c.",
    "formatted_address": "5,0(8)",
    "phone_number": "+390522977491",
    "source_url": "https://www.google.com/maps/place/Nodolini+s.n.c./data=!4m7!3m6!1s0x47802f5147ddd3eb:0x34b23b3acc33abcd!8m2!3d44.9541974!4d10.6879499!16s%2Fg%2F11b6j0n4vm!19sChIJ69PdR1EvgEcRzaszzDo7sjQ?authuser=0&hl=tr&rclk=1",
    "website_url": "http://www.nodolini.com/",
    "rating_text": "5,0",
    "stars": null,
    "number_of_reviews": null,
    "price_level": "",
    "open_hours": "",
    "extraction_timestamp": "2025-06-07T16:54:38.152Z",
    "source_name": "google",
    "source_query": "Irrigation Equipment",
    "source_country": "IT",
    "country": "Italy",
    "state": "Emilia-Romagna",
    "city": "Podenzano"
  },
  {
    "source_id": "ChIJPzARJO7sgEcRiLa8c2yngpg",
    "name": "Casella Macchine Agricole Srl",
    "category": "Casella Macchine Agricole Srl",
    "formatted_address": "4,6(290)",
    "phone_number": "+390523853911",
    "source_url": "https://www.google.com/maps/place/Casella+Macchine+Agricole+Srl/data=!4m7!3m6!1s0x4780ecee2411303f:0x9882a76c73bcb688!8m2!3d44.9181761!4d9.7741966!16s%2Fg%2F1tfghp4p!19sChIJPzARJO7sgEcRiLa8c2yngpg?authuser=0&hl=tr&rclk=1",
    "website_url": "http://www.casella.it/",
    "rating_text": "4,6",
    "stars": null,
    "number_of_reviews": null,
    "price_level": "",
    "open_hours": "",
    "extraction_timestamp": "2025-06-07T16:54:38.153Z",
    "source_name": "google",
    "source_query": "Irrigation Equipment",
    "source_country": "IT",
    "country": "Italy",
    "state": "Emilia-Romagna",
    "city": "Podenzano"
  },
  {
    "source_id": "ChIJMTEpniTdgEcRsgkWJI_R0qI",
    "name": "Hydraulic Emiliana S.p.A.",
    "category": "Hydraulic Emiliana S.p.A.",
    "formatted_address": "4,6(28)",
    "phone_number": "+390523592969",
    "source_url": "https://www.google.com/maps/place/Hydraulic+Emiliana+S.p.A./data=!4m7!3m6!1s0x4780dd249e293131:0xa2d2d18f241609b2!8m2!3d45.0549866!4d9.6596178!16s%2Fg%2F11b6gnklmr!19sChIJMTEpniTdgEcRsgkWJI_R0qI?authuser=0&hl=tr&rclk=1",
    "website_url": "http://www.idraulicaemiliana.com/",
    "rating_text": "4,6",
    "stars": null,
    "number_of_reviews": null,
    "price_level": "",
    "open_hours": "",
    "extraction_timestamp": "2025-06-07T16:54:38.155Z",
    "source_name": "google",
    "source_query": "Irrigation Equipment",
    "source_country": "IT",
    "country": "Italy",
    "state": "Emilia-Romagna",
    "city": "Podenzano"
  },
  {
    "source_id": "ChIJSaPB0L_BgEcR3OdIXHXfmmU",
    "name": "EQ S.r.l.",
    "category": "EQ S.r.l.",
    "formatted_address": "1,0(2)",
    "phone_number": "+390523953064",
    "source_url": "https://www.google.com/maps/place/EQ+S.r.l./data=!4m7!3m6!1s0x4780c1bfd0c1a349:0x659adf755c48e7dc!8m2!3d41.29085!4d12.71216!16s%2Fg%2F11f5jqn6sf!19sChIJSaPB0L_BgEcR3OdIXHXfmmU?authuser=0&hl=tr&rclk=1",
    "website_url": "",
    "rating_text": "1,0",
    "stars": null,
    "number_of_reviews": null,
    "price_level": "",
    "open_hours": "",
    "extraction_timestamp": "2025-06-07T16:54:38.155Z",
    "source_name": "google",
    "source_query": "Irrigation Equipment",
    "source_country": "IT",
    "country": "Italy",
    "state": "Emilia-Romagna",
    "city": "Podenzano"
  },
  {
    "source_id": "ChIJ8S_H450fgEcRen1BwvkupIc",
    "name": "Agro-system Snc di Bassoli - Piscine e Macchine giardino - Reggio Emilia",
    "category": "Agro-system Snc di Bassoli - Piscine e Macchine giardino - Reggio Emilia",
    "formatted_address": "4,6(88)",
    "phone_number": "+390522954100",
    "source_url": "https://www.google.com/maps/place/Agro-system+Snc+di+Bassoli+-+Piscine+e+Macchine+giardino+-+Reggio+Emilia/data=!4m7!3m6!1s0x47801f9de3c72ff1:0x87a42ef9c2417d7a!8m2!3d44.797091!4d10.686568!16s%2Fg%2F1tfb5f45!19sChIJ8S_H450fgEcRen1BwvkupIc?authuser=0&hl=tr&rclk=1",
    "website_url": "https://agrosystem.info/",
    "rating_text": "4,6",
    "stars": null,
    "number_of_reviews": null,
    "price_level": "",
    "open_hours": "",
    "extraction_timestamp": "2025-06-07T16:54:38.156Z",
    "source_name": "google",
    "source_query": "Irrigation Equipment",
    "source_country": "IT",
    "country": "Italy",
    "state": "Emilia-Romagna",
    "city": "Podenzano"
  },
  {
    "source_id": "ChIJBUT9_L7BgEcRjMYaL_ndhlc",
    "name": "Euroacque",
    "category": "Euroacque",
    "formatted_address": "4,0(61)",
    "phone_number": "+390523952272",
    "source_url": "https://www.google.com/maps/place/Euroacque/data=!4m7!3m6!1s0x4780c1befcfd4405:0x5786ddf92f1ac68c!8m2!3d44.9480377!4d9.6371961!16s%2Fg%2F1tdn7jcw!19sChIJBUT9_L7BgEcRjMYaL_ndhlc?authuser=0&hl=tr&rclk=1",
    "website_url": "http://www.addolcitori.it/",
    "rating_text": "4,0",
    "stars": null,
    "number_of_reviews": null,
    "price_level": "",
    "open_hours": "",
    "extraction_timestamp": "2025-06-07T16:54:38.157Z",
    "source_name": "google",
    "source_query": "Irrigation Equipment",
    "source_country": "IT",
    "country": "Italy",
    "state": "Emilia-Romagna",
    "city": "Podenzano"
  },
  {
    "source_id": "ChIJVR2cVqgdgEcRNhrbn9Vfq0E",
    "name": "Forno Delle Delizie",
    "category": "Forno Delle Delizie",
    "formatted_address": "4,5(41)",
    "phone_number": "+390522555382",
    "source_url": "https://www.google.com/maps/place/Forno+Delle+Delizie/data=!4m7!3m6!1s0x47801da8569c1d55:0x41ab5fd59fdb1a36!8m2!3d44.6910928!4d10.6518556!16s%2Fg%2F1tjysg95!19sChIJVR2cVqgdgEcRNhrbn9Vfq0E?authuser=0&hl=tr&rclk=1",
    "website_url": "https://www.facebook.com/FornodelleDelizie/",
    "rating_text": "4,5",
    "stars": null,
    "number_of_reviews": null,
    "price_level": "",
    "open_hours": "",
    "extraction_timestamp": "2025-06-07T16:54:38.158Z",
    "source_name": "google",
    "source_query": "Irrigation Equipment",
    "source_country": "IT",
    "country": "Italy",
    "state": "Emilia-Romagna",
    "city": "Podenzano"
  },
  {
    "source_id": "ChIJGcE9ji_mgEcRCuT2HBY0xbA",
    "name": "SPAZIO - showroom | Arredo Bagno Sanitari Pavimenti Condizionatori Caldaie |",
    "category": "SPAZIO - showroom | Arredo Bagno Sanitari Pavimenti Condizionatori Caldaie |",
    "formatted_address": "4,1(64)",
    "phone_number": "+390523572811",
    "source_url": "https://www.google.com/maps/place/SPAZIO+-+showroom+%7C+Arredo+Bagno+Sanitari+Pavimenti+Condizionatori+Caldaie+%7C/data=!4m7!3m6!1s0x4780e62f8e3dc119:0xb0c534161cf6e40a!8m2!3d45.0421009!4d9.7425656!16s%2Fg%2F12hvgn5l2!19sChIJGcE9ji_mgEcRCuT2HBY0xbA?authuser=0&hl=tr&rclk=1",
    "website_url": "http://www.spaziospa.com/",
    "rating_text": "4,1",
    "stars": null,
    "number_of_reviews": null,
    "price_level": "",
    "open_hours": "",
    "extraction_timestamp": "2025-06-07T16:54:38.160Z",
    "source_name": "google",
    "source_query": "Irrigation Equipment",
    "source_country": "IT",
    "country": "Italy",
    "state": "Emilia-Romagna",
    "city": "Podenzano"
  },
  {
    "source_id": "ChIJ4y0jLifdgEcRITszit9Sr-A",
    "name": "IPERCERAMICA Piacenza",
    "category": "IPERCERAMICA Piacenza",
    "formatted_address": "3,7(149)",
    "phone_number": "+393487835129",
    "source_url": "https://www.google.com/maps/place/IPERCERAMICA+Piacenza/data=!4m7!3m6!1s0x4780dd272e232de3:0xe0af52df8a333b21!8m2!3d45.0299992!4d9.7366826!16s%2Fg%2F119wd60_1!19sChIJ4y0jLifdgEcRITszit9Sr-A?authuser=0&hl=tr&rclk=1",
    "website_url": "https://www.iperceramica.it/it/ita/negozi/pavimenti-parquet-arredo-bagno-sanitari-piacenza?utm_content=IPERCERAMICA+Piacenza&utm_source=google&utm_campaign=SERP+Local+Pack+o+Google+Maps&utm_medium=localrecord",
    "rating_text": "3,7",
    "stars": null,
    "number_of_reviews": null,
    "price_level": "",
    "open_hours": "",
    "extraction_timestamp": "2025-06-07T16:54:38.161Z",
    "source_name": "google",
    "source_query": "Irrigation Equipment",
    "source_country": "IT",
    "country": "Italy",
    "state": "Emilia-Romagna",
    "city": "Podenzano"
  },
  {
    "source_id": "ChIJQySI8N7ngEcRWal8Dn4mFeQ",
    "name": "DF Sport Specialist",
    "category": "DF Sport Specialist",
    "formatted_address": "4,3(523)",
    "phone_number": "+390523594471",
    "source_url": "https://www.google.com/maps/place/DF+Sport+Specialist/data=!4m7!3m6!1s0x4780e7def0882443:0xe415267e0e7ca959!8m2!3d45.0384992!4d9.7199084!16s%2Fg%2F12hm9ls9b!19sChIJQySI8N7ngEcRWal8Dn4mFeQ?authuser=0&hl=tr&rclk=1",
    "website_url": "https://df-sportspecialist.it/",
    "rating_text": "4,3",
    "stars": null,
    "number_of_reviews": null,
    "price_level": "",
    "open_hours": "",
    "extraction_timestamp": "2025-06-07T16:54:38.162Z",
    "source_name": "google",
    "source_query": "Irrigation Equipment",
    "source_country": "IT",
    "country": "Italy",
    "state": "Emilia-Romagna",
    "city": "Podenzano"
  },
  {
    "source_id": "ChIJud93rv3egEcRahXiXSkMmxQ",
    "name": "Veris S.r.l.",
    "category": "Veris S.r.l.",
    "formatted_address": "4,5(156)",
    "phone_number": "+39037734829",
    "source_url": "https://www.google.com/maps/place/Veris+S.r.l./data=!4m7!3m6!1s0x4780defdae77dfb9:0x149b0c295de2156a!8m2!3d45.1515999!4d9.6768522!16s%2Fg%2F1tfwj6n9!19sChIJud93rv3egEcRahXiXSkMmxQ?authuser=0&hl=tr&rclk=1",
    "website_url": "http://www.verisitalia.it/",
    "rating_text": "4,5",
    "stars": null,
    "number_of_reviews": null,
    "price_level": "",
    "open_hours": "",
    "extraction_timestamp": "2025-06-07T16:54:38.163Z",
    "source_name": "google",
    "source_query": "Irrigation Equipment",
    "source_country": "IT",
    "country": "Italy",
    "state": "Emilia-Romagna",
    "city": "Podenzano"
  }
]
