[
  {
    "source_id": "ChIJNbj1YedLfkcRBXeDQ39h7F8",
    "name": "Impianti slrs",
    "category": "Impianti slrs",
    "formatted_address": "5,0(1)",
    "phone_number": "",
    "source_url": "https://www.google.com/maps/place/Impianti+slrs/data=!4m7!3m6!1s0x477e4be761f5b835:0x5fec617f43837705!8m2!3d44.7662644!4d11.4817832!16s%2Fg%2F11xghxm_bv!19sChIJNbj1YedLfkcRBXeDQ39h7F8?authuser=0&hl=tr&rclk=1",
    "website_url": "",
    "rating_text": "5,0",
    "stars": null,
    "number_of_reviews": null,
    "price_level": "",
    "open_hours": "",
    "extraction_timestamp": "2025-06-07T17:02:43.601Z",
    "source_name": "google",
    "source_query": "Irrigation Equipment",
    "source_country": "IT",
    "country": "Italy",
    "state": "Emilia-Romagna",
    "city": "Poggio Renatico"
  },
  {
    "source_id": "ChIJj8xDMjtLfkcRSLwLkMVwa6s",
    "name": "Piovan Food & Powders S.r.l.",
    "category": "Piovan Food & Powders S.r.l.",
    "formatted_address": "4,3(3)",
    "phone_number": "+390532826301",
    "source_url": "https://www.google.com/maps/place/Piovan+Food+%26+Powders+S.r.l./data=!4m7!3m6!1s0x477e4b3b3243cc8f:0xab6b70c5900bbc48!8m2!3d44.7681312!4d11.498372!16s%2Fg%2F1vp72mbt!19sChIJj8xDMjtLfkcRSLwLkMVwa6s?authuser=0&hl=tr&rclk=1",
    "website_url": "https://penta.piovan.com/it",
    "rating_text": "4,3",
    "stars": null,
    "number_of_reviews": null,
    "price_level": "",
    "open_hours": "",
    "extraction_timestamp": "2025-06-07T17:02:43.606Z",
    "source_name": "google",
    "source_query": "Irrigation Equipment",
    "source_country": "IT",
    "country": "Italy",
    "state": "Emilia-Romagna",
    "city": "Poggio Renatico"
  },
  {
    "source_id": "ChIJNyG1r19KfkcRJ3B_3xQHK6Q",
    "name": "Climaterm SRLs",
    "category": "Climaterm SRLs",
    "formatted_address": "4,7(34)",
    "phone_number": "+390532825804",
    "source_url": "https://www.google.com/maps/place/Climaterm+SRLs/data=!4m7!3m6!1s0x477e4a5fafb52137:0xa42b0714df7f7027!8m2!3d44.7707322!4d11.4968543!16s%2Fg%2F1hc3kgcd9!19sChIJNyG1r19KfkcRJ3B_3xQHK6Q?authuser=0&hl=tr&rclk=1",
    "website_url": "http://www.assistenzaclimaterm.com/",
    "rating_text": "4,7",
    "stars": null,
    "number_of_reviews": null,
    "price_level": "",
    "open_hours": "",
    "extraction_timestamp": "2025-06-07T17:02:43.608Z",
    "source_name": "google",
    "source_query": "Irrigation Equipment",
    "source_country": "IT",
    "country": "Italy",
    "state": "Emilia-Romagna",
    "city": "Poggio Renatico"
  },
  {
    "source_id": "ChIJp4o5NwGNf0cRuTNnNLctOpc",
    "name": "Niagara S.r.l.",
    "category": "Niagara S.r.l.",
    "formatted_address": "4,3(22)",
    "phone_number": "+390532829801",
    "source_url": "https://www.google.com/maps/place/Niagara+S.r.l./data=!4m7!3m6!1s0x477f8d0137398aa7:0x973a2db7346733b9!8m2!3d44.749752!4d11.5184202!16s%2Fg%2F1tppqtc1!19sChIJp4o5NwGNf0cRuTNnNLctOpc?authuser=0&hl=tr&rclk=1",
    "website_url": "https://www.niagarapoggio.it/",
    "rating_text": "4,3",
    "stars": null,
    "number_of_reviews": null,
    "price_level": "",
    "open_hours": "",
    "extraction_timestamp": "2025-06-07T17:02:43.609Z",
    "source_name": "google",
    "source_query": "Irrigation Equipment",
    "source_country": "IT",
    "country": "Italy",
    "state": "Emilia-Romagna",
    "city": "Poggio Renatico"
  },
  {
    "source_id": "ChIJU5a3QJhLfkcRa2RAyZgj7Fk",
    "name": "FOR-T-FLEX - Assemblaggio tubi flessibili",
    "category": "FOR-T-FLEX - Assemblaggio tubi flessibili",
    "formatted_address": "5,0(2)",
    "phone_number": "+390532825211",
    "source_url": "https://www.google.com/maps/place/FOR-T-FLEX+-+Assemblaggio+tubi+flessibili/data=!4m7!3m6!1s0x477e4b9840b79653:0x59ec2398c940646b!8m2!3d44.7679405!4d11.4967222!16s%2Fg%2F11fn0mc3vs!19sChIJU5a3QJhLfkcRa2RAyZgj7Fk?authuser=0&hl=tr&rclk=1",
    "website_url": "http://www.forfittings.it/",
    "rating_text": "5,0",
    "stars": null,
    "number_of_reviews": null,
    "price_level": "",
    "open_hours": "",
    "extraction_timestamp": "2025-06-07T17:02:43.611Z",
    "source_name": "google",
    "source_query": "Irrigation Equipment",
    "source_country": "IT",
    "country": "Italy",
    "state": "Emilia-Romagna",
    "city": "Poggio Renatico"
  },
  {
    "source_id": "ChIJ5xAy_jxLfkcRPuKIwa-sY7g",
    "name": "Progema Automazioni Srl",
    "category": "Progema Automazioni Srl",
    "formatted_address": "4,5(2)",
    "phone_number": "+390532829053",
    "source_url": "https://www.google.com/maps/place/Progema+Automazioni+Srl/data=!4m7!3m6!1s0x477e4b3cfe3210e7:0xb863acafc188e23e!8m2!3d44.76786!4d11.49798!16s%2Fg%2F11b6hqwzt1!19sChIJ5xAy_jxLfkcRPuKIwa-sY7g?authuser=0&hl=tr&rclk=1",
    "website_url": "",
    "rating_text": "4,5",
    "stars": null,
    "number_of_reviews": null,
    "price_level": "",
    "open_hours": "",
    "extraction_timestamp": "2025-06-07T17:02:43.612Z",
    "source_name": "google",
    "source_query": "Irrigation Equipment",
    "source_country": "IT",
    "country": "Italy",
    "state": "Emilia-Romagna",
    "city": "Poggio Renatico"
  },
  {
    "source_id": "ChIJN0IBYbm0f0cR6m765ratdJA",
    "name": "Festi Realizzazione Giardini E Manti Erbosi - Impianti di Irrigazione e Potature",
    "category": "Festi Realizzazione Giardini E Manti Erbosi - Impianti di Irrigazione e Potature",
    "formatted_address": "4,5(4)",
    "phone_number": "+393292271521",
    "source_url": "https://www.google.com/maps/place/Festi+Realizzazione+Giardini+E+Manti+Erbosi+-+Impianti+di+Irrigazione+e+Potature/data=!4m7!3m6!1s0x477fb4b961014237:0x9074adb6e6fa6eea!8m2!3d44.7825108!4d11.4673329!16s%2Fg%2F1tmz5srd!19sChIJN0IBYbm0f0cR6m765ratdJA?authuser=0&hl=tr&rclk=1",
    "website_url": "http://www.festi.it/",
    "rating_text": "4,5",
    "stars": null,
    "number_of_reviews": null,
    "price_level": "",
    "open_hours": "",
    "extraction_timestamp": "2025-06-07T17:02:43.614Z",
    "source_name": "google",
    "source_query": "Irrigation Equipment",
    "source_country": "IT",
    "country": "Italy",
    "state": "Emilia-Romagna",
    "city": "Poggio Renatico"
  },
  {
    "source_id": "ChIJnQsGbxZLfkcRg8cg66XYKE0",
    "name": "IDRODENIS di Vaccarella Denis",
    "category": "IDRODENIS di Vaccarella Denis",
    "formatted_address": "5,0(2)",
    "phone_number": "+393457640317",
    "source_url": "https://www.google.com/maps/place/IDRODENIS+di+Vaccarella+Denis/data=!4m7!3m6!1s0x477e4b166f060b9d:0x4d28d8a5eb20c783!8m2!3d44.7632099!4d11.4865621!16s%2Fg%2F11m6fqrct5!19sChIJnQsGbxZLfkcRg8cg66XYKE0?authuser=0&hl=tr&rclk=1",
    "website_url": "",
    "rating_text": "5,0",
    "stars": null,
    "number_of_reviews": null,
    "price_level": "",
    "open_hours": "",
    "extraction_timestamp": "2025-06-07T17:02:43.615Z",
    "source_name": "google",
    "source_query": "Irrigation Equipment",
    "source_country": "IT",
    "country": "Italy",
    "state": "Emilia-Romagna",
    "city": "Poggio Renatico"
  },
  {
    "source_id": "ChIJAx8LeTtLfkcRkB8s6Gaxuto",
    "name": "Tigota'",
    "category": "Tigota'",
    "formatted_address": "4,4(375)",
    "phone_number": "+390532829309",
    "source_url": "https://www.google.com/maps/place/Tigota%27/data=!4m7!3m6!1s0x477e4b3b790b1f03:0xdabab166e82c1f90!8m2!3d44.7683782!4d11.4947543!16s%2Fg%2F11b6j4mj47!19sChIJAx8LeTtLfkcRkB8s6Gaxuto?authuser=0&hl=tr&rclk=1",
    "website_url": "https://www.tigota.it/negozi/021832?utm_source=google&utm_medium=GMBSitelink&utm_campaign=GMBSitelink_Poggio_Renatico_21832",
    "rating_text": "4,4",
    "stars": null,
    "number_of_reviews": null,
    "price_level": "",
    "open_hours": "",
    "extraction_timestamp": "2025-06-07T17:02:43.617Z",
    "source_name": "google",
    "source_query": "Irrigation Equipment",
    "source_country": "IT",
    "country": "Italy",
    "state": "Emilia-Romagna",
    "city": "Poggio Renatico"
  },
  {
    "source_id": "ChIJ07I9Py5LfkcRSipn36ucTCk",
    "name": "Ferramenta Bonetti Di Bonetti Paolo",
    "category": "Ferramenta Bonetti Di Bonetti Paolo",
    "formatted_address": "4,1(17)",
    "phone_number": "+390532825954",
    "source_url": "https://www.google.com/maps/place/Ferramenta+Bonetti+Di+Bonetti+Paolo/data=!4m7!3m6!1s0x477e4b2e3f3db2d3:0x294c9cabdf672a4a!8m2!3d44.7660279!4d11.4844963!16s%2Fg%2F1tr16dm6!19sChIJ07I9Py5LfkcRSipn36ucTCk?authuser=0&hl=tr&rclk=1",
    "website_url": "",
    "rating_text": "4,1",
    "stars": null,
    "number_of_reviews": null,
    "price_level": "",
    "open_hours": "",
    "extraction_timestamp": "2025-06-07T17:02:43.618Z",
    "source_name": "google",
    "source_query": "Irrigation Equipment",
    "source_country": "IT",
    "country": "Italy",
    "state": "Emilia-Romagna",
    "city": "Poggio Renatico"
  },
  {
    "source_id": "ChIJ4xfxmxdLfkcRuPA-yB0KKfE",
    "name": "RSRICERCASVILUPPO",
    "category": "RSRICERCASVILUPPO",
    "formatted_address": "",
    "phone_number": "+393471220553",
    "source_url": "https://www.google.com/maps/place/RSRICERCASVILUPPO/data=!4m7!3m6!1s0x477e4b179bf117e3:0xf1290a1dc83ef0b8!8m2!3d41.29085!4d12.71216!16s%2Fg%2F11gtgbrtxd!19sChIJ4xfxmxdLfkcRuPA-yB0KKfE?authuser=0&hl=tr&rclk=1",
    "website_url": "http://www.rsricercasviluppo.com/",
    "rating_text": "",
    "stars": null,
    "number_of_reviews": null,
    "price_level": "",
    "open_hours": "",
    "extraction_timestamp": "2025-06-07T17:02:43.648Z",
    "source_name": "google",
    "source_query": "Irrigation Equipment",
    "source_country": "IT",
    "country": "Italy",
    "state": "Emilia-Romagna",
    "city": "Poggio Renatico"
  },
  {
    "source_id": "ChIJg1O_KQBLfkcRsSg6ZtEdU-4",
    "name": "Depuratore Poggio Renatico",
    "category": "Depuratore Poggio Renatico",
    "formatted_address": "Evsel Atık Su Arıtma Tesisi · Via Valle, 5",
    "phone_number": "",
    "source_url": "https://www.google.com/maps/place/Depuratore+Poggio+Renatico/data=!4m7!3m6!1s0x477e4b0029bf5383:0xee531dd1663a28b1!8m2!3d44.755019!4d11.5293801!16s%2Fg%2F11vpzc9xjz!19sChIJg1O_KQBLfkcRsSg6ZtEdU-4?authuser=0&hl=tr&rclk=1",
    "website_url": "",
    "rating_text": "",
    "stars": null,
    "number_of_reviews": null,
    "price_level": "",
    "open_hours": "",
    "extraction_timestamp": "2025-06-07T17:02:43.649Z",
    "source_name": "google",
    "source_query": "Irrigation Equipment",
    "source_country": "IT",
    "country": "Italy",
    "state": "Emilia-Romagna",
    "city": "Poggio Renatico"
  },
  {
    "source_id": "ChIJ_SYf2IMsfkcRVw9xVhrnjyI",
    "name": "Irrigazione Bragaglia",
    "category": "Irrigazione Bragaglia",
    "formatted_address": "4,7(30)",
    "phone_number": "+39051534865",
    "source_url": "https://www.google.com/maps/place/Irrigazione+Bragaglia/data=!4m7!3m6!1s0x477e2c83d81f26fd:0x228fe71a56710f57!8m2!3d44.5053735!4d11.412403!16s%2Fg%2F1vp6z0gf!19sChIJ_SYf2IMsfkcRVw9xVhrnjyI?authuser=0&hl=tr&rclk=1",
    "website_url": "http://www.irrigazionebragaglia.it/",
    "rating_text": "4,7",
    "stars": null,
    "number_of_reviews": null,
    "price_level": "",
    "open_hours": "",
    "extraction_timestamp": "2025-06-07T17:02:43.651Z",
    "source_name": "google",
    "source_query": "Irrigation Equipment",
    "source_country": "IT",
    "country": "Italy",
    "state": "Emilia-Romagna",
    "city": "Poggio Renatico"
  },
  {
    "source_id": "ChIJh3Nd8G0sfkcR_m7VewEmxXM",
    "name": "Irrigarden",
    "category": "Irrigarden",
    "formatted_address": "4,7(158)",
    "phone_number": "+39051782013",
    "source_url": "https://www.google.com/maps/place/Irrigarden/data=!4m7!3m6!1s0x477e2c6df05d7387:0x73c526017bd56efe!8m2!3d44.5096266!4d11.4390897!16s%2Fg%2F1vgw_l7w!19sChIJh3Nd8G0sfkcR_m7VewEmxXM?authuser=0&hl=tr&rclk=1",
    "website_url": "https://www.irrigarden-bo.it/",
    "rating_text": "4,7",
    "stars": null,
    "number_of_reviews": null,
    "price_level": "",
    "open_hours": "",
    "extraction_timestamp": "2025-06-07T17:02:43.652Z",
    "source_name": "google",
    "source_query": "Irrigation Equipment",
    "source_country": "IT",
    "country": "Italy",
    "state": "Emilia-Romagna",
    "city": "Poggio Renatico"
  },
  {
    "source_id": "ChIJm4r9MC5LfkcRPmk3LfjE-yc",
    "name": "Coop",
    "category": "Coop",
    "formatted_address": "3,8(314)",
    "phone_number": "+390518906915",
    "source_url": "https://www.google.com/maps/place/Coop/data=!4m7!3m6!1s0x477e4b2e30fd8a9b:0x27fbc4f82d37693e!8m2!3d44.7660949!4d11.4865667!16s%2Fg%2F11bbrn4s24!19sChIJm4r9MC5LfkcRPmk3LfjE-yc?authuser=0&hl=tr&rclk=1",
    "website_url": "http://www.e-coop.it/punti-vendita-dettaglio?id=4104",
    "rating_text": "3,8",
    "stars": null,
    "number_of_reviews": null,
    "price_level": "",
    "open_hours": "",
    "extraction_timestamp": "2025-06-07T17:02:43.654Z",
    "source_name": "google",
    "source_query": "Irrigation Equipment",
    "source_country": "IT",
    "country": "Italy",
    "state": "Emilia-Romagna",
    "city": "Poggio Renatico"
  },
  {
    "source_id": "ChIJcQ8T3qS2f0cRALNsVLNyFew",
    "name": "HYDROFER SSRL",
    "category": "HYDROFER SSRL",
    "formatted_address": "4,8(14)",
    "phone_number": "+3905321772422",
    "source_url": "https://www.google.com/maps/place/HYDROFER+SSRL/data=!4m7!3m6!1s0x477fb6a4de130f71:0xec1572b3546cb300!8m2!3d44.7932927!4d11.3818114!16s%2Fg%2F1tk8mfrd!19sChIJcQ8T3qS2f0cRALNsVLNyFew?authuser=0&hl=tr&rclk=1",
    "website_url": "http://www.hydrofer.it/",
    "rating_text": "4,8",
    "stars": null,
    "number_of_reviews": null,
    "price_level": "",
    "open_hours": "",
    "extraction_timestamp": "2025-06-07T17:02:43.655Z",
    "source_name": "google",
    "source_query": "Irrigation Equipment",
    "source_country": "IT",
    "country": "Italy",
    "state": "Emilia-Romagna",
    "city": "Poggio Renatico"
  },
  {
    "source_id": "ChIJa-er_rg1fkcR91VT6-rG3xU",
    "name": "Reni Technology",
    "category": "Reni Technology",
    "formatted_address": "5,0(1)",
    "phone_number": "+393351025315",
    "source_url": "https://www.google.com/maps/place/Reni+Technology/data=!4m7!3m6!1s0x477e35b8feabe76b:0x15dfc6eaeb5355f7!8m2!3d44.6801953!4d11.4932506!16s%2Fg%2F11vkp3f3qd!19sChIJa-er_rg1fkcR91VT6-rG3xU?authuser=0&hl=tr&rclk=1",
    "website_url": "https://www.renitechnology.net/",
    "rating_text": "5,0",
    "stars": null,
    "number_of_reviews": null,
    "price_level": "",
    "open_hours": "",
    "extraction_timestamp": "2025-06-07T17:02:43.656Z",
    "source_name": "google",
    "source_query": "Irrigation Equipment",
    "source_country": "IT",
    "country": "Italy",
    "state": "Emilia-Romagna",
    "city": "Poggio Renatico"
  },
  {
    "source_id": "ChIJk-SndztLfkcRsYgDxhPmawc",
    "name": "Lidl Poggio Renatico",
    "category": "Lidl Poggio Renatico",
    "formatted_address": "4,1(995)",
    "phone_number": "+39800480048",
    "source_url": "https://www.google.com/maps/place/Lidl+Poggio+Renatico/data=!4m7!3m6!1s0x477e4b3b77a7e493:0x76be613c60388b1!8m2!3d44.7695!4d11.4944679!16s%2Fg%2F11b6gl0k7t!19sChIJk-SndztLfkcRsYgDxhPmawc?authuser=0&hl=tr&rclk=1",
    "website_url": "https://www.lidl.it/",
    "rating_text": "4,1",
    "stars": null,
    "number_of_reviews": null,
    "price_level": "",
    "open_hours": "",
    "extraction_timestamp": "2025-06-07T17:02:43.658Z",
    "source_name": "google",
    "source_query": "Irrigation Equipment",
    "source_country": "IT",
    "country": "Italy",
    "state": "Emilia-Romagna",
    "city": "Poggio Renatico"
  },
  {
    "source_id": "ChIJtdJC5j6Zf0cRmmVcuMyNEW0",
    "name": "Tadei | Impianti irrigazione | Robot tagliaerba | Barbecue | Outdoor",
    "category": "Tadei | Impianti irrigazione | Robot tagliaerba | Barbecue | Outdoor",
    "formatted_address": "4,6(69)",
    "phone_number": "+390386733460",
    "source_url": "https://www.google.com/maps/place/Tadei+%7C+Impianti+irrigazione+%7C+Robot+tagliaerba+%7C+Barbecue+%7C+Outdoor/data=!4m7!3m6!1s0x477f993ee642d2b5:0x6d118dccb85c659a!8m2!3d44.9680645!4d11.1076526!16s%2Fg%2F113dpgnd_!19sChIJtdJC5j6Zf0cRmmVcuMyNEW0?authuser=0&hl=tr&rclk=1",
    "website_url": "https://www.irrigazionetadei.it/",
    "rating_text": "4,6",
    "stars": null,
    "number_of_reviews": null,
    "price_level": "",
    "open_hours": "",
    "extraction_timestamp": "2025-06-07T17:02:43.659Z",
    "source_name": "google",
    "source_query": "Irrigation Equipment",
    "source_country": "IT",
    "country": "Italy",
    "state": "Emilia-Romagna",
    "city": "Poggio Renatico"
  },
  {
    "source_id": "ChIJA9ic1jFLfkcRTgmeOsHvWxI",
    "name": "Vivo Supermercati",
    "category": "Vivo Supermercati",
    "formatted_address": "4,4(49)",
    "phone_number": "+390532825162",
    "source_url": "https://www.google.com/maps/place/Vivo+Supermercati/data=!4m7!3m6!1s0x477e4b31d69cd803:0x125befc13a9e094e!8m2!3d44.7670208!4d11.4857422!16s%2Fg%2F11j1j6b85h!19sChIJA9ic1jFLfkcRTgmeOsHvWxI?authuser=0&hl=tr&rclk=1",
    "website_url": "",
    "rating_text": "4,4",
    "stars": null,
    "number_of_reviews": null,
    "price_level": "",
    "open_hours": "",
    "extraction_timestamp": "2025-06-07T17:02:43.661Z",
    "source_name": "google",
    "source_query": "Irrigation Equipment",
    "source_country": "IT",
    "country": "Italy",
    "state": "Emilia-Romagna",
    "city": "Poggio Renatico"
  },
  {
    "source_id": "ChIJxxUaMJ1OfkcRnpYB5tFP62M",
    "name": "Tecnomat",
    "category": "Tecnomat",
    "formatted_address": "4,3(6.455)",
    "phone_number": "+390283905463",
    "source_url": "https://www.google.com/maps/place/Tecnomat/data=!4m7!3m6!1s0x477e4e9d301a15c7:0x63eb4fd1e601969e!8m2!3d44.8121809!4d11.5927581!16s%2Fg%2F1tgf21cc!19sChIJxxUaMJ1OfkcRnpYB5tFP62M?authuser=0&hl=tr&rclk=1",
    "website_url": "https://www.tecnomat.it/it/n/ferrara/?utm_campaign=FERRARA_negozio_GMB&utm_content=sito_web&utm_medium=google_my_business&utm_source=google&utm_term=sito_web_FERRARA_GMB",
    "rating_text": "4,3",
    "stars": null,
    "number_of_reviews": null,
    "price_level": "",
    "open_hours": "",
    "extraction_timestamp": "2025-06-07T17:02:43.664Z",
    "source_name": "google",
    "source_query": "Irrigation Equipment",
    "source_country": "IT",
    "country": "Italy",
    "state": "Emilia-Romagna",
    "city": "Poggio Renatico"
  },
  {
    "source_id": "ChIJAVr-Xvhgf0cR7OUJWuxhk10",
    "name": "Bonatti Irrigazioni",
    "category": "Bonatti Irrigazioni",
    "formatted_address": "4,9(56)",
    "phone_number": "+390456661486",
    "source_url": "https://www.google.com/maps/place/Bonatti+Irrigazioni/data=!4m7!3m6!1s0x477f60f85efe5a01:0x5d9361ec5a09e5ec!8m2!3d45.333756!4d10.988534!16s%2Fg%2F1v2yxqld!19sChIJAVr-Xvhgf0cR7OUJWuxhk10?authuser=0&hl=tr&rclk=1",
    "website_url": "https://www.bonattiirrigazioni.it/",
    "rating_text": "4,9",
    "stars": null,
    "number_of_reviews": null,
    "price_level": "",
    "open_hours": "",
    "extraction_timestamp": "2025-06-07T17:02:43.665Z",
    "source_name": "google",
    "source_query": "Irrigation Equipment",
    "source_country": "IT",
    "country": "Italy",
    "state": "Emilia-Romagna",
    "city": "Poggio Renatico"
  },
  {
    "source_id": "ChIJObUfHMfdfkcRgJtzA-oqlv4",
    "name": "Pratoverde LTD - Toro - Ditch Witch Italian",
    "category": "Pratoverde LTD - Toro - Ditch Witch Italian",
    "formatted_address": "4,4(67)",
    "phone_number": "+390499128128",
    "source_url": "https://www.google.com/maps/place/Pratoverde+LTD+-+Toro+-+Ditch+Witch+Italian/data=!4m7!3m6!1s0x477eddc71c1fb539:0xfe962aea03739b80!8m2!3d45.3172222!4d11.8197222!16s%2Fg%2F1tgn3l10!19sChIJObUfHMfdfkcRgJtzA-oqlv4?authuser=0&hl=tr&rclk=1",
    "website_url": "https://pratoverde.it/",
    "rating_text": "4,4",
    "stars": null,
    "number_of_reviews": null,
    "price_level": "",
    "open_hours": "",
    "extraction_timestamp": "2025-06-07T17:02:43.666Z",
    "source_name": "google",
    "source_query": "Irrigation Equipment",
    "source_country": "IT",
    "country": "Italy",
    "state": "Emilia-Romagna",
    "city": "Poggio Renatico"
  },
  {
    "source_id": "ChIJ1wD4M4NOfkcRV-fiIqe4aFA",
    "name": "Idros.art & Bozzola Group S.p.A.",
    "category": "Idros.art & Bozzola Group S.p.A.",
    "formatted_address": "4,2(72)",
    "phone_number": "+390532788611",
    "source_url": "https://www.google.com/maps/place/Idros.art+%26+Bozzola+Group+S.p.A./data=!4m7!3m6!1s0x477e4e8333f800d7:0x5068b8a722e2e757!8m2!3d44.811154!4d11.5972683!16s%2Fg%2F1tm1p961!19sChIJ1wD4M4NOfkcRV-fiIqe4aFA?authuser=0&hl=tr&rclk=1",
    "website_url": "https://www.idrosart-bozzola.it/",
    "rating_text": "4,2",
    "stars": null,
    "number_of_reviews": null,
    "price_level": "",
    "open_hours": "",
    "extraction_timestamp": "2025-06-07T17:02:43.667Z",
    "source_name": "google",
    "source_query": "Irrigation Equipment",
    "source_country": "IT",
    "country": "Italy",
    "state": "Emilia-Romagna",
    "city": "Poggio Renatico"
  },
  {
    "source_id": "ChIJJ0mnq_rKf0cRQ2y1_jZ7J6Y",
    "name": "Gruppo Ciicai - magazzino di San Pietro in Casale",
    "category": "Gruppo Ciicai - magazzino di San Pietro in Casale",
    "formatted_address": "4,3(42)",
    "phone_number": "+39051811707",
    "source_url": "https://www.google.com/maps/place/Gruppo+Ciicai+-+magazzino+di+San+Pietro+in+Casale/data=!4m7!3m6!1s0x477fcafaaba74927:0xa6277b36feb56c43!8m2!3d44.6986694!4d11.4138603!16s%2Fg%2F1tdwtjjy!19sChIJJ0mnq_rKf0cRQ2y1_jZ7J6Y?authuser=0&hl=tr&rclk=1",
    "website_url": "https://www.ciicai.com/magazzini/san-pietro-in-casale?utm_source=google&utm_medium=gmb&utm_campaign=m_san-pietro-in-casale",
    "rating_text": "4,3",
    "stars": null,
    "number_of_reviews": null,
    "price_level": "",
    "open_hours": "",
    "extraction_timestamp": "2025-06-07T17:02:43.668Z",
    "source_name": "google",
    "source_query": "Irrigation Equipment",
    "source_country": "IT",
    "country": "Italy",
    "state": "Emilia-Romagna",
    "city": "Poggio Renatico"
  },
  {
    "source_id": "ChIJzWyZEf8dgEcRM0sVtbJE3TI",
    "name": "Impiantistica LAVONE",
    "category": "Impiantistica LAVONE",
    "formatted_address": "5,0(3)",
    "phone_number": "+393514759408",
    "source_url": "https://www.google.com/maps/place/Impiantistica+LAVONE/data=!4m7!3m6!1s0x47801dff11996ccd:0x32dd44b2b5154b33!8m2!3d44.7120611!4d10.6241549!16s%2Fg%2F11lp1gdrnd!19sChIJzWyZEf8dgEcRM0sVtbJE3TI?authuser=0&hl=tr&rclk=1",
    "website_url": "",
    "rating_text": "5,0",
    "stars": null,
    "number_of_reviews": null,
    "price_level": "",
    "open_hours": "",
    "extraction_timestamp": "2025-06-07T17:02:43.670Z",
    "source_name": "google",
    "source_query": "Irrigation Equipment",
    "source_country": "IT",
    "country": "Italy",
    "state": "Emilia-Romagna",
    "city": "Poggio Renatico"
  },
  {
    "source_id": "ChIJfwIlLTstfkcRqXM-Eu7aw-E",
    "name": "Grundfos Water Treatment Italy - Filiale di Bologna",
    "category": "Grundfos Water Treatment Italy - Filiale di Bologna",
    "formatted_address": "3,1(152)",
    "phone_number": "",
    "source_url": "https://www.google.com/maps/place/Grundfos+Water+Treatment+Italy+-+Filiale+di+Bologna/data=!4m7!3m6!1s0x477e2d3b2d25027f:0xe1c3daee123e73a9!8m2!3d44.5487154!4d11.4097534!16s%2Fg%2F1tdwzcny!19sChIJfwIlLTstfkcRqXM-Eu7aw-E?authuser=0&hl=tr&rclk=1",
    "website_url": "https://www.grundfos.com/it/about-us/what-we-do/water-treatment",
    "rating_text": "3,1",
    "stars": null,
    "number_of_reviews": null,
    "price_level": "",
    "open_hours": "",
    "extraction_timestamp": "2025-06-07T17:02:43.670Z",
    "source_name": "google",
    "source_query": "Irrigation Equipment",
    "source_country": "IT",
    "country": "Italy",
    "state": "Emilia-Romagna",
    "city": "Poggio Renatico"
  },
  {
    "source_id": "ChIJywYeExzdf0cRhfr55_LZC8w",
    "name": "Geocentro",
    "category": "Geocentro",
    "formatted_address": "3,8(5)",
    "phone_number": "+39059927676",
    "source_url": "https://www.google.com/maps/place/Geocentro/data=!4m7!3m6!1s0x477fdd1c131e06cb:0xcc0bd9f2e7f9fa85!8m2!3d44.5871226!4d11.0681616!16s%2Fg%2F11cn3pjh5j!19sChIJywYeExzdf0cRhfr55_LZC8w?authuser=0&hl=tr&rclk=1",
    "website_url": "https://www.geocentro.it/",
    "rating_text": "3,8",
    "stars": null,
    "number_of_reviews": null,
    "price_level": "",
    "open_hours": "",
    "extraction_timestamp": "2025-06-07T17:02:43.672Z",
    "source_name": "google",
    "source_query": "Irrigation Equipment",
    "source_country": "IT",
    "country": "Italy",
    "state": "Emilia-Romagna",
    "city": "Poggio Renatico"
  },
  {
    "source_id": "ChIJ_btBLlJ9f0cRAZKGaCkugf0",
    "name": "Meccanica Cremonini",
    "category": "Meccanica Cremonini",
    "formatted_address": "4,9(35)",
    "phone_number": "+390376229122",
    "source_url": "https://www.google.com/maps/place/Meccanica+Cremonini/data=!4m7!3m6!1s0x477f7d522e41bbfd:0xfd812e2968869201!8m2!3d45.1602516!4d10.8927345!16s%2Fg%2F11g2_d8w2c!19sChIJ_btBLlJ9f0cRAZKGaCkugf0?authuser=0&hl=tr&rclk=1",
    "website_url": "https://www.meccanicacremonini.it/",
    "rating_text": "4,9",
    "stars": null,
    "number_of_reviews": null,
    "price_level": "",
    "open_hours": "",
    "extraction_timestamp": "2025-06-07T17:02:43.673Z",
    "source_name": "google",
    "source_query": "Irrigation Equipment",
    "source_country": "IT",
    "country": "Italy",
    "state": "Emilia-Romagna",
    "city": "Poggio Renatico"
  },
  {
    "source_id": "ChIJJ6V6lMDgf0cR1SpFsfjDuHg",
    "name": "Ocmis Irrigazione Spa",
    "category": "Ocmis Irrigazione Spa",
    "formatted_address": "3,5(31)",
    "phone_number": "+39059702150",
    "source_url": "https://www.google.com/maps/place/Ocmis+Irrigazione+Spa/data=!4m7!3m6!1s0x477fe0c0947aa527:0x78b8c3f8b1452ad5!8m2!3d44.530494!4d10.9794578!16s%2Fg%2F1vd3tn19!19sChIJJ6V6lMDgf0cR1SpFsfjDuHg?authuser=0&hl=tr&rclk=1",
    "website_url": "http://www.ocmis-irrigazione.it/",
    "rating_text": "3,5",
    "stars": null,
    "number_of_reviews": null,
    "price_level": "",
    "open_hours": "",
    "extraction_timestamp": "2025-06-07T17:02:43.674Z",
    "source_name": "google",
    "source_query": "Irrigation Equipment",
    "source_country": "IT",
    "country": "Italy",
    "state": "Emilia-Romagna",
    "city": "Poggio Renatico"
  },
  {
    "source_id": "ChIJWR_-E_ROfkcRnvoPBYH-bh0",
    "name": "Cambielli S.p.A.",
    "category": "Cambielli S.p.A.",
    "formatted_address": "4,1(48)",
    "phone_number": "+390532740129",
    "source_url": "https://www.google.com/maps/place/Cambielli+S.p.A./data=!4m7!3m6!1s0x477e4ef413fe1f59:0x1d6efe81050ffa9e!8m2!3d44.815903!4d11.620853!16s%2Fg%2F1v2pp1cp!19sChIJWR_-E_ROfkcRnvoPBYH-bh0?authuser=0&hl=tr&rclk=1",
    "website_url": "https://www.cambielli.it/",
    "rating_text": "4,1",
    "stars": null,
    "number_of_reviews": null,
    "price_level": "",
    "open_hours": "",
    "extraction_timestamp": "2025-06-07T17:02:43.675Z",
    "source_name": "google",
    "source_query": "Irrigation Equipment",
    "source_country": "IT",
    "country": "Italy",
    "state": "Emilia-Romagna",
    "city": "Poggio Renatico"
  },
  {
    "source_id": "ChIJrZhO-oZOfkcRA_-Oa8sN9Yg",
    "name": "Gruppo Ciicai - magazzino di Ferrara",
    "category": "Gruppo Ciicai - magazzino di Ferrara",
    "formatted_address": "4,8(23)",
    "phone_number": "+390532067130",
    "source_url": "https://www.google.com/maps/place/Gruppo+Ciicai+-+magazzino+di+Ferrara/data=!4m7!3m6!1s0x477e4e86fa4e98ad:0x88f50dcb6b8eff03!8m2!3d44.818816!4d11.6017592!16s%2Fg%2F12mkwb5wx!19sChIJrZhO-oZOfkcRA_-Oa8sN9Yg?authuser=0&hl=tr&rclk=1",
    "website_url": "https://www.ciicai.com/magazzini/ferrara?utm_source=google&utm_medium=gmb&utm_campaign=m_ferrara",
    "rating_text": "4,8",
    "stars": null,
    "number_of_reviews": null,
    "price_level": "",
    "open_hours": "",
    "extraction_timestamp": "2025-06-07T17:02:43.677Z",
    "source_name": "google",
    "source_query": "Irrigation Equipment",
    "source_country": "IT",
    "country": "Italy",
    "state": "Emilia-Romagna",
    "city": "Poggio Renatico"
  },
  {
    "source_id": "ChIJz7lqO-a3f0cR3Ze5S5pKgBc",
    "name": "BALTUR S.P.A.",
    "category": "BALTUR S.P.A.",
    "formatted_address": "4,2(127)",
    "phone_number": "+390516843711",
    "source_url": "https://www.google.com/maps/place/BALTUR+S.P.A./data=!4m7!3m6!1s0x477fb7e63b6ab9cf:0x17804a9a4bb997dd!8m2!3d44.734442!4d11.291658!16s%2Fg%2F1vbl6f9b!19sChIJz7lqO-a3f0cR3Ze5S5pKgBc?authuser=0&hl=tr&rclk=1",
    "website_url": "http://www.baltur.com/",
    "rating_text": "4,2",
    "stars": null,
    "number_of_reviews": null,
    "price_level": "",
    "open_hours": "",
    "extraction_timestamp": "2025-06-07T17:02:43.679Z",
    "source_name": "google",
    "source_query": "Irrigation Equipment",
    "source_country": "IT",
    "country": "Italy",
    "state": "Emilia-Romagna",
    "city": "Poggio Renatico"
  }
]
