[
  {
    "source_id": "ChIJtVDkNgRFgEcRqc6umwWIJuI",
    "name": "Rm Spa",
    "category": "Rm Spa",
    "formatted_address": "4,6(81)",
    "phone_number": "+390521872321",
    "source_url": "https://www.google.com/maps/place/Rm+Spa/data=!4m7!3m6!1s0x4780450436e450b5:0xe22688059baecea9!8m2!3d44.9105406!4d10.2583785!16s%2Fg%2F12hl93byl!19sChIJtVDkNgRFgEcRqc6umwWIJuI?authuser=0&hl=tr&rclk=1",
    "website_url": "http://www.rmirrigation.com/",
    "rating_text": "4,6",
    "stars": null,
    "number_of_reviews": null,
    "price_level": "",
    "open_hours": "",
    "extraction_timestamp": "2025-06-07T15:59:38.548Z",
    "source_name": "google",
    "source_query": "Irrigation Equipment",
    "source_country": "IT",
    "country": "Italy",
    "state": "Emilia-Romagna",
    "city": "Ponte Taro"
  },
  {
    "source_id": "ChIJKWRpRblmgEcRqQUK-6mBBIk",
    "name": "Cmc Service Srl",
    "category": "Cmc Service Srl",
    "formatted_address": "5,0(7)",
    "phone_number": "+390521618617",
    "source_url": "https://www.google.com/maps/place/Cmc+Service+Srl/data=!4m7!3m6!1s0x478066b945696429:0x890481a9fb0a05a9!8m2!3d44.8256899!4d10.2104616!16s%2Fg%2F119whdkfc!19sChIJKWRpRblmgEcRqQUK-6mBBIk?authuser=0&hl=tr&rclk=1",
    "website_url": "",
    "rating_text": "5,0",
    "stars": null,
    "number_of_reviews": null,
    "price_level": "",
    "open_hours": "",
    "extraction_timestamp": "2025-06-07T15:59:38.549Z",
    "source_name": "google",
    "source_query": "Irrigation Equipment",
    "source_country": "IT",
    "country": "Italy",
    "state": "Emilia-Romagna",
    "city": "Ponte Taro"
  },
  {
    "source_id": "ChIJibulKBRogEcRV4de2DsWY6g",
    "name": "BRICOLIN",
    "category": "BRICOLIN",
    "formatted_address": "4,2(450)",
    "phone_number": "+390521347829",
    "source_url": "https://www.google.com/maps/place/BRICOLIN/data=!4m7!3m6!1s0x4780681428a5bb89:0xa863163bd85e8757!8m2!3d44.8287714!4d10.1980357!16s%2Fg%2F11j00s3m64!19sChIJibulKBRogEcRV4de2DsWY6g?authuser=0&hl=tr&rclk=1",
    "website_url": "https://bricolin.it/",
    "rating_text": "4,2",
    "stars": null,
    "number_of_reviews": null,
    "price_level": "",
    "open_hours": "",
    "extraction_timestamp": "2025-06-07T15:59:38.549Z",
    "source_name": "google",
    "source_query": "Irrigation Equipment",
    "source_country": "IT",
    "country": "Italy",
    "state": "Emilia-Romagna",
    "city": "Ponte Taro"
  },
  {
    "source_id": "ChIJy805WcDcgEcRtmGWlwosXQc",
    "name": "IRRIMEC SRL",
    "category": "IRRIMEC SRL",
    "formatted_address": "4,5(90)",
    "phone_number": "+390523760441",
    "source_url": "https://www.google.com/maps/place/IRRIMEC+SRL/data=!4m7!3m6!1s0x4780dcc05939cdcb:0x75d2c0a979661b6!8m2!3d45.0612353!4d9.630829!16s%2Fg%2F1tdgt7d_!19sChIJy805WcDcgEcRtmGWlwosXQc?authuser=0&hl=tr&rclk=1",
    "website_url": "http://www.irrimec.com/",
    "rating_text": "4,5",
    "stars": null,
    "number_of_reviews": null,
    "price_level": "",
    "open_hours": "",
    "extraction_timestamp": "2025-06-07T15:59:38.549Z",
    "source_name": "google",
    "source_query": "Irrigation Equipment",
    "source_country": "IT",
    "country": "Italy",
    "state": "Emilia-Romagna",
    "city": "Ponte Taro"
  },
  {
    "source_id": "ChIJ3ffAufBtgEcRCytqNHDLXR4",
    "name": "Del Frate Srl",
    "category": "Del Frate Srl",
    "formatted_address": "4,8(37)",
    "phone_number": "+390521986971",
    "source_url": "https://www.google.com/maps/place/Del+Frate+Srl/data=!4m7!3m6!1s0x47806df0b9c0f7dd:0x1e5dcb70346a2b0b!8m2!3d44.8108795!4d10.3145985!16s%2Fg%2F119w9gdyl!19sChIJ3ffAufBtgEcRCytqNHDLXR4?authuser=0&hl=tr&rclk=1",
    "website_url": "https://delfrate.it/",
    "rating_text": "4,8",
    "stars": null,
    "number_of_reviews": null,
    "price_level": "",
    "open_hours": "",
    "extraction_timestamp": "2025-06-07T15:59:38.559Z",
    "source_name": "google",
    "source_query": "Irrigation Equipment",
    "source_country": "IT",
    "country": "Italy",
    "state": "Emilia-Romagna",
    "city": "Ponte Taro"
  },
  {
    "source_id": "ChIJvWESljtqgEcRyACWMGuoih0",
    "name": "Idro Verde",
    "category": "Idro Verde",
    "formatted_address": "Çim Yağmurlama Sistemi Yüklenicisi ·  · Via Emilia Ovest, 129Açık ⋅ Kapanış saati: 21:00 · +39 338 397 2503",
    "phone_number": "+393383972503",
    "source_url": "https://www.google.com/maps/place/Idro+Verde/data=!4m7!3m6!1s0x47806a3b961261bd:0x1d8aa86b309600c8!8m2!3d44.8113047!4d10.2811005!16s%2Fg%2F11c6y_k67v!19sChIJvWESljtqgEcRyACWMGuoih0?authuser=0&hl=tr&rclk=1",
    "website_url": "http://idroverdeparma.it/",
    "rating_text": "",
    "stars": null,
    "number_of_reviews": null,
    "price_level": "",
    "open_hours": "",
    "extraction_timestamp": "2025-06-07T15:59:38.560Z",
    "source_name": "google",
    "source_query": "Irrigation Equipment",
    "source_country": "IT",
    "country": "Italy",
    "state": "Emilia-Romagna",
    "city": "Ponte Taro"
  },
  {
    "source_id": "ChIJoWn3Mt1ugEcRuJFECy0B-Rs",
    "name": "Maini Giardinaggio",
    "category": "Maini Giardinaggio",
    "formatted_address": "",
    "phone_number": "+393466905853",
    "source_url": "https://www.google.com/maps/place/Maini+Giardinaggio/data=!4m7!3m6!1s0x47806edd32f769a1:0x1bf9012d0b4491b8!8m2!3d41.29085!4d12.71216!16s%2Fg%2F1tg6tkcp!19sChIJoWn3Mt1ugEcRuJFECy0B-Rs?authuser=0&hl=tr&rclk=1",
    "website_url": "",
    "rating_text": "",
    "stars": null,
    "number_of_reviews": null,
    "price_level": "",
    "open_hours": "",
    "extraction_timestamp": "2025-06-07T15:59:38.560Z",
    "source_name": "google",
    "source_query": "Irrigation Equipment",
    "source_country": "IT",
    "country": "Italy",
    "state": "Emilia-Romagna",
    "city": "Ponte Taro"
  }
]
