[
  {
    "source_id": "ChIJE_3jOnMtfkcRkxtTFj3Ym9E",
    "name": "Irrigation Scarabelli Srl",
    "category": "Irrigation Scarabelli Srl",
    "formatted_address": "4,5(23)",
    "phone_number": "+39051763363",
    "source_url": "https://www.google.com/maps/place/Irrigation+Scarabelli+Srl/data=!4m7!3m6!1s0x477e2d733ae3fd13:0xd19bd83d16531b93!8m2!3d44.5426053!4d11.4189136!16s%2Fg%2F11gzdz6vf!19sChIJE_3jOnMtfkcRkxtTFj3Ym9E?authuser=0&hl=tr&rclk=1",
    "website_url": "",
    "rating_text": "4,5",
    "stars": null,
    "number_of_reviews": null,
    "price_level": "",
    "open_hours": "",
    "extraction_timestamp": "2025-06-07T16:10:38.364Z",
    "source_name": "google",
    "source_query": "Irrigation Equipment",
    "source_country": "IT",
    "country": "Italy",
    "state": "Emilia-Romagna",
    "city": "Ponte Ronca"
  },
  {
    "source_id": "ChIJi4GPjvrWf0cRVFtoiC8aPbc",
    "name": "Hydrapac Italia Srl - Oleodinamica - Hydraulic System & Components",
    "category": "Hydrapac Italia Srl - Oleodinamica - Hydraulic System & Components",
    "formatted_address": "5,0(8)",
    "phone_number": "+39051755082",
    "source_url": "https://www.google.com/maps/place/Hydrapac+Italia+Srl+-+Oleodinamica+-+Hydraulic+System+%26+Components/data=!4m7!3m6!1s0x477fd6fa8e8f818b:0xb73d1a2f88685b54!8m2!3d44.4905569!4d11.2347018!16s%2Fg%2F1wn_4z24!19sChIJi4GPjvrWf0cRVFtoiC8aPbc?authuser=0&hl=tr&rclk=1",
    "website_url": "https://www.hydrapac.it/",
    "rating_text": "5,0",
    "stars": null,
    "number_of_reviews": null,
    "price_level": "",
    "open_hours": "",
    "extraction_timestamp": "2025-06-07T16:10:38.365Z",
    "source_name": "google",
    "source_query": "Irrigation Equipment",
    "source_country": "IT",
    "country": "Italy",
    "state": "Emilia-Romagna",
    "city": "Ponte Ronca"
  },
  {
    "source_id": "ChIJ_SYf2IMsfkcRVw9xVhrnjyI",
    "name": "Irrigazione Bragaglia",
    "category": "Irrigazione Bragaglia",
    "formatted_address": "4,7(30)",
    "phone_number": "+39051534865",
    "source_url": "https://www.google.com/maps/place/Irrigazione+Bragaglia/data=!4m7!3m6!1s0x477e2c83d81f26fd:0x228fe71a56710f57!8m2!3d44.5053735!4d11.412403!16s%2Fg%2F1vp6z0gf!19sChIJ_SYf2IMsfkcRVw9xVhrnjyI?authuser=0&hl=tr&rclk=1",
    "website_url": "http://www.irrigazionebragaglia.it/",
    "rating_text": "4,7",
    "stars": null,
    "number_of_reviews": null,
    "price_level": "",
    "open_hours": "",
    "extraction_timestamp": "2025-06-07T16:10:38.365Z",
    "source_name": "google",
    "source_query": "Irrigation Equipment",
    "source_country": "IT",
    "country": "Italy",
    "state": "Emilia-Romagna",
    "city": "Ponte Ronca"
  },
  {
    "source_id": "ChIJh3Nd8G0sfkcR_m7VewEmxXM",
    "name": "Irrigarden",
    "category": "Irrigarden",
    "formatted_address": "4,7(158)",
    "phone_number": "+39051782013",
    "source_url": "https://www.google.com/maps/place/Irrigarden/data=!4m7!3m6!1s0x477e2c6df05d7387:0x73c526017bd56efe!8m2!3d44.5096266!4d11.4390897!16s%2Fg%2F1vgw_l7w!19sChIJh3Nd8G0sfkcR_m7VewEmxXM?authuser=0&hl=tr&rclk=1",
    "website_url": "https://www.irrigarden-bo.it/",
    "rating_text": "4,7",
    "stars": null,
    "number_of_reviews": null,
    "price_level": "",
    "open_hours": "",
    "extraction_timestamp": "2025-06-07T16:10:38.366Z",
    "source_name": "google",
    "source_query": "Irrigation Equipment",
    "source_country": "IT",
    "country": "Italy",
    "state": "Emilia-Romagna",
    "city": "Ponte Ronca"
  },
  {
    "source_id": "ChIJyXgg68QrfkcRAaJCOMJ3PxY",
    "name": "hidrisistem",
    "category": "hidrisistem",
    "formatted_address": "5,0(1)",
    "phone_number": "+39366448310824",
    "source_url": "https://www.google.com/maps/place/hidrisistem/data=!4m7!3m6!1s0x477e2bc4eb2078c9:0x163f77c23842a201!8m2!3d44.496029!4d11.402638!16s%2Fg%2F11w_zjhjy3!19sChIJyXgg68QrfkcRAaJCOMJ3PxY?authuser=0&hl=tr&rclk=1",
    "website_url": "",
    "rating_text": "5,0",
    "stars": null,
    "number_of_reviews": null,
    "price_level": "",
    "open_hours": "",
    "extraction_timestamp": "2025-06-07T16:10:38.366Z",
    "source_name": "google",
    "source_query": "Irrigation Equipment",
    "source_country": "IT",
    "country": "Italy",
    "state": "Emilia-Romagna",
    "city": "Ponte Ronca"
  },
  {
    "source_id": "ChIJ4f0MXkHRf0cRt8XT-F86zk4",
    "name": "Draintech s.r.l. Gruppo Transtecno Interpump",
    "category": "Draintech s.r.l. Gruppo Transtecno Interpump",
    "formatted_address": "4,4(5)",
    "phone_number": "+39051727447",
    "source_url": "https://www.google.com/maps/place/Draintech+s.r.l.+Gruppo+Transtecno+Interpump/data=!4m7!3m6!1s0x477fd1415e0cfde1:0x4ece3a5ff8d3c5b7!8m2!3d44.5355338!4d11.219571!16s%2Fg%2F11b6j8bd0w!19sChIJ4f0MXkHRf0cRt8XT-F86zk4?authuser=0&hl=tr&rclk=1",
    "website_url": "http://www.draintech.it/",
    "rating_text": "4,4",
    "stars": null,
    "number_of_reviews": null,
    "price_level": "",
    "open_hours": "",
    "extraction_timestamp": "2025-06-07T16:10:38.376Z",
    "source_name": "google",
    "source_query": "Irrigation Equipment",
    "source_country": "IT",
    "country": "Italy",
    "state": "Emilia-Romagna",
    "city": "Ponte Ronca"
  },
  {
    "source_id": "ChIJzcFNep4osk4R00QuDP5Z4uc",
    "name": "Alciappiner Multi Servizi",
    "category": "Alciappiner Multi Servizi",
    "formatted_address": "",
    "phone_number": "+393281841409",
    "source_url": "https://www.google.com/maps/place/Alciappiner+Multi+Servizi/data=!4m7!3m6!1s0x4eb2289e7a4dc1cd:0xe7e259fe0c2e44d3!8m2!3d44.4991361!4d11.3316855!16s%2Fg%2F11t7pjqt2v!19sChIJzcFNep4osk4R00QuDP5Z4uc?authuser=0&hl=tr&rclk=1",
    "website_url": "",
    "rating_text": "",
    "stars": null,
    "number_of_reviews": null,
    "price_level": "",
    "open_hours": "",
    "extraction_timestamp": "2025-06-07T16:10:38.377Z",
    "source_name": "google",
    "source_query": "Irrigation Equipment",
    "source_country": "IT",
    "country": "Italy",
    "state": "Emilia-Romagna",
    "city": "Ponte Ronca"
  }
]
