[
  {
    "source_id": "ChIJy805WcDcgEcRtmGWlwosXQc",
    "name": "IRRIMEC SRL",
    "category": "IRRIMEC SRL",
    "formatted_address": "4,5(90)",
    "phone_number": "+390523760441",
    "source_url": "https://www.google.com/maps/place/IRRIMEC+SRL/data=!4m7!3m6!1s0x4780dcc05939cdcb:0x75d2c0a979661b6!8m2!3d45.0612353!4d9.630829!16s%2Fg%2F1tdgt7d_!19sChIJy805WcDcgEcRtmGWlwosXQc?authuser=0&hl=tr&rclk=1",
    "website_url": "http://www.irrimec.com/",
    "rating_text": "4,5",
    "stars": null,
    "number_of_reviews": null,
    "price_level": "",
    "open_hours": "",
    "extraction_timestamp": "2025-06-07T16:54:56.776Z",
    "source_name": "google",
    "source_query": "Irrigation Equipment",
    "source_country": "IT",
    "country": "Italy",
    "state": "Emilia-Romagna",
    "city": "Pontenure"
  },
  {
    "source_id": "ChIJLQrtOSHvgEcRqgry4bXa2dg",
    "name": "Ferramenta Gruppi",
    "category": "Ferramenta Gruppi",
    "formatted_address": "4,5(33)",
    "phone_number": "+390523519045",
    "source_url": "https://www.google.com/maps/place/Ferramenta+Gruppi/data=!4m7!3m6!1s0x4780ef2139ed0a2d:0xd8d9dab5e1f20aaa!8m2!3d44.9925921!4d9.7867051!16s%2Fg%2F1tfl8hwv!19sChIJLQrtOSHvgEcRqgry4bXa2dg?authuser=0&hl=tr&rclk=1",
    "website_url": "http://www.ferramentagruppi.com/",
    "rating_text": "4,5",
    "stars": null,
    "number_of_reviews": null,
    "price_level": "",
    "open_hours": "",
    "extraction_timestamp": "2025-06-07T16:54:56.777Z",
    "source_name": "google",
    "source_query": "Irrigation Equipment",
    "source_country": "IT",
    "country": "Italy",
    "state": "Emilia-Romagna",
    "city": "Pontenure"
  },
  {
    "source_id": "ChIJvejtqM7ngEcRgy8oG7iASNI",
    "name": "Italtherm S.p.A.",
    "category": "Italtherm S.p.A.",
    "formatted_address": "4,1(173)",
    "phone_number": "+390523575611",
    "source_url": "https://www.google.com/maps/place/Italtherm+S.p.A./data=!4m7!3m6!1s0x4780e7cea8ede8bd:0xd24880b81b282f83!8m2!3d44.9916511!4d9.7852264!16s%2Fg%2F1hc6dc9hk!19sChIJvejtqM7ngEcRgy8oG7iASNI?authuser=0&hl=tr&rclk=1",
    "website_url": "http://www.italtherm.it/",
    "rating_text": "4,1",
    "stars": null,
    "number_of_reviews": null,
    "price_level": "",
    "open_hours": "",
    "extraction_timestamp": "2025-06-07T16:54:56.779Z",
    "source_name": "google",
    "source_query": "Irrigation Equipment",
    "source_country": "IT",
    "country": "Italy",
    "state": "Emilia-Romagna",
    "city": "Pontenure"
  },
  {
    "source_id": "ChIJCdwQIfbNgEcRtWOzhvtW0iA",
    "name": "Agrimil Tech Srl",
    "category": "Agrimil Tech Srl",
    "formatted_address": "4,8(9)",
    "phone_number": "+390523849679",
    "source_url": "https://www.google.com/maps/place/Agrimil+Tech+Srl/data=!4m7!3m6!1s0x4780cdf62110dc09:0x20d256fb86b363b5!8m2!3d45.0556557!4d9.5030905!16s%2Fg%2F1tdf9z93!19sChIJCdwQIfbNgEcRtWOzhvtW0iA?authuser=0&hl=tr&rclk=1",
    "website_url": "http://www.agrimil.it/",
    "rating_text": "4,8",
    "stars": null,
    "number_of_reviews": null,
    "price_level": "",
    "open_hours": "",
    "extraction_timestamp": "2025-06-07T16:54:56.781Z",
    "source_name": "google",
    "source_query": "Irrigation Equipment",
    "source_country": "IT",
    "country": "Italy",
    "state": "Emilia-Romagna",
    "city": "Pontenure"
  },
  {
    "source_id": "ChIJFVbJhifvgEcR1033PfQHY4k",
    "name": "Castignoli",
    "category": "Castignoli",
    "formatted_address": "4,2(15)",
    "phone_number": "+390523519111",
    "source_url": "https://www.google.com/maps/place/Castignoli/data=!4m7!3m6!1s0x4780ef2786c95615:0x896307f43df74dd7!8m2!3d44.9932319!4d9.7852841!16s%2Fg%2F1tgnqhzj!19sChIJFVbJhifvgEcR1033PfQHY4k?authuser=0&hl=tr&rclk=1",
    "website_url": "http://www.castignoli-anselmo.it/",
    "rating_text": "4,2",
    "stars": null,
    "number_of_reviews": null,
    "price_level": "",
    "open_hours": "",
    "extraction_timestamp": "2025-06-07T16:54:56.782Z",
    "source_name": "google",
    "source_query": "Irrigation Equipment",
    "source_country": "IT",
    "country": "Italy",
    "state": "Emilia-Romagna",
    "city": "Pontenure"
  },
  {
    "source_id": "ChIJwyaoPBHqgEcR3MSap-hG_ew",
    "name": "Tectubi Raccordi S.p.A.",
    "category": "Tectubi Raccordi S.p.A.",
    "formatted_address": "4,5(26)",
    "phone_number": "+390523555311",
    "source_url": "https://www.google.com/maps/place/Tectubi+Raccordi+S.p.A./data=!4m7!3m6!1s0x4780ea113ca826c3:0xecfd46e8a79ac4dc!8m2!3d44.9516792!4d9.6799516!16s%2Fg%2F1tdwtjqk!19sChIJwyaoPBHqgEcR3MSap-hG_ew?authuser=0&hl=tr&rclk=1",
    "website_url": "http://www.tectubiraccordi.com/",
    "rating_text": "4,5",
    "stars": null,
    "number_of_reviews": null,
    "price_level": "",
    "open_hours": "",
    "extraction_timestamp": "2025-06-07T16:54:56.784Z",
    "source_name": "google",
    "source_query": "Irrigation Equipment",
    "source_country": "IT",
    "country": "Italy",
    "state": "Emilia-Romagna",
    "city": "Pontenure"
  },
  {
    "source_id": "ChIJK1RNYVXsgEcR1miRztfmQNs",
    "name": "Idro Piacenza Srl",
    "category": "Idro Piacenza Srl",
    "formatted_address": "4,3(7)",
    "phone_number": "+390523853180",
    "source_url": "https://www.google.com/maps/place/Idro+Piacenza+Srl/data=!4m7!3m6!1s0x4780ec55614d542b:0xdb40e6d7ce9168d6!8m2!3d44.9125754!4d9.7729865!16s%2Fg%2F1thmjvv8!19sChIJK1RNYVXsgEcR1miRztfmQNs?authuser=0&hl=tr&rclk=1",
    "website_url": "https://www.idropiacenza.com/",
    "rating_text": "4,3",
    "stars": null,
    "number_of_reviews": null,
    "price_level": "",
    "open_hours": "",
    "extraction_timestamp": "2025-06-07T16:54:56.785Z",
    "source_name": "google",
    "source_query": "Irrigation Equipment",
    "source_country": "IT",
    "country": "Italy",
    "state": "Emilia-Romagna",
    "city": "Pontenure"
  },
  {
    "source_id": "ChIJ4WnZNofogEcRcCSJgGupNXk",
    "name": "Irrigarden",
    "category": "Irrigarden",
    "formatted_address": "3,7(6)",
    "phone_number": "+390523592012",
    "source_url": "https://www.google.com/maps/place/Irrigarden/data=!4m7!3m6!1s0x4780e88736d969e1:0x7935a96b80892470!8m2!3d45.0288739!4d9.7384753!16s%2Fg%2F11g4d1r753!19sChIJ4WnZNofogEcRcCSJgGupNXk?authuser=0&hl=tr&rclk=1",
    "website_url": "https://www.irrigarden.com/",
    "rating_text": "3,7",
    "stars": null,
    "number_of_reviews": null,
    "price_level": "",
    "open_hours": "",
    "extraction_timestamp": "2025-06-07T16:54:56.786Z",
    "source_name": "google",
    "source_query": "Irrigation Equipment",
    "source_country": "IT",
    "country": "Italy",
    "state": "Emilia-Romagna",
    "city": "Pontenure"
  },
  {
    "source_id": "ChIJtVDkNgRFgEcRqc6umwWIJuI",
    "name": "Rm Spa",
    "category": "Rm Spa",
    "formatted_address": "4,6(81)",
    "phone_number": "+390521872321",
    "source_url": "https://www.google.com/maps/place/Rm+Spa/data=!4m7!3m6!1s0x4780450436e450b5:0xe22688059baecea9!8m2!3d44.9105406!4d10.2583785!16s%2Fg%2F12hl93byl!19sChIJtVDkNgRFgEcRqc6umwWIJuI?authuser=0&hl=tr&rclk=1",
    "website_url": "http://www.rmirrigation.com/",
    "rating_text": "4,6",
    "stars": null,
    "number_of_reviews": null,
    "price_level": "",
    "open_hours": "",
    "extraction_timestamp": "2025-06-07T16:54:56.788Z",
    "source_name": "google",
    "source_query": "Irrigation Equipment",
    "source_country": "IT",
    "country": "Italy",
    "state": "Emilia-Romagna",
    "city": "Pontenure"
  },
  {
    "source_id": "ChIJGVuRBn7ogEcRGBzIo3J6pT0",
    "name": "Hydra Water",
    "category": "Hydra Water",
    "formatted_address": "3,0(2)",
    "phone_number": "+390523497185",
    "source_url": "https://www.google.com/maps/place/Hydra+Water/data=!4m7!3m6!1s0x4780e87e06915b19:0x3da57a72a3c81c18!8m2!3d45.0303299!4d9.7363131!16s%2Fg%2F12hnfyhf1!19sChIJGVuRBn7ogEcRGBzIo3J6pT0?authuser=0&hl=tr&rclk=1",
    "website_url": "http://www.hydrawater.it/",
    "rating_text": "3,0",
    "stars": null,
    "number_of_reviews": null,
    "price_level": "",
    "open_hours": "",
    "extraction_timestamp": "2025-06-07T16:54:56.789Z",
    "source_name": "google",
    "source_query": "Irrigation Equipment",
    "source_country": "IT",
    "country": "Italy",
    "state": "Emilia-Romagna",
    "city": "Pontenure"
  },
  {
    "source_id": "ChIJP-CISQ3-gEcRXwl1yi9NW2Q",
    "name": "SIIP - Società Impianti di irrigazione a pioggia",
    "category": "SIIP - Società Impianti di irrigazione a pioggia",
    "formatted_address": "5,0(2)",
    "phone_number": "+393356863605",
    "source_url": "https://www.google.com/maps/place/SIIP+-+Societ%C3%A0+Impianti+di+irrigazione+a+pioggia/data=!4m7!3m6!1s0x4780fe0d4988e03f:0x645b4d2fca75095f!8m2!3d45.1417827!4d10.0200624!16s%2Fg%2F1vqtfn9y!19sChIJP-CISQ3-gEcRXwl1yi9NW2Q?authuser=0&hl=tr&rclk=1",
    "website_url": "https://www.impiantiirrigazionicremona.com/",
    "rating_text": "5,0",
    "stars": null,
    "number_of_reviews": null,
    "price_level": "",
    "open_hours": "",
    "extraction_timestamp": "2025-06-07T16:54:56.791Z",
    "source_name": "google",
    "source_query": "Irrigation Equipment",
    "source_country": "IT",
    "country": "Italy",
    "state": "Emilia-Romagna",
    "city": "Pontenure"
  },
  {
    "source_id": "ChIJa9O7hCHvgEcRz45MrgIFGZU",
    "name": "Termoidraulica Lommi",
    "category": "Termoidraulica Lommi",
    "formatted_address": "3,0(2)",
    "phone_number": "+390523511305",
    "source_url": "https://www.google.com/maps/place/Termoidraulica+Lommi/data=!4m7!3m6!1s0x4780ef2184bbd36b:0x95190502ae4c8ecf!8m2!3d44.9958577!4d9.7925474!16s%2Fg%2F11h5jjb_n3!19sChIJa9O7hCHvgEcRz45MrgIFGZU?authuser=0&hl=tr&rclk=1",
    "website_url": "",
    "rating_text": "3,0",
    "stars": null,
    "number_of_reviews": null,
    "price_level": "",
    "open_hours": "",
    "extraction_timestamp": "2025-06-07T16:54:56.792Z",
    "source_name": "google",
    "source_query": "Irrigation Equipment",
    "source_country": "IT",
    "country": "Italy",
    "state": "Emilia-Romagna",
    "city": "Pontenure"
  },
  {
    "source_id": "ChIJQShIlY7zgEcRRmxc1LnUeW8",
    "name": "Hydro Pneumatic Srl",
    "category": "Hydro Pneumatic Srl",
    "formatted_address": "5,0(3)",
    "phone_number": "+390523982731",
    "source_url": "https://www.google.com/maps/place/Hydro+Pneumatic+Srl/data=!4m7!3m6!1s0x4780f38e95482841:0x6f79d4b9d45c6c46!8m2!3d44.9197095!4d9.9192837!16s%2Fg%2F1tmbtznx!19sChIJQShIlY7zgEcRRmxc1LnUeW8?authuser=0&hl=tr&rclk=1",
    "website_url": "https://www.hydropneumatic.it/",
    "rating_text": "5,0",
    "stars": null,
    "number_of_reviews": null,
    "price_level": "",
    "open_hours": "",
    "extraction_timestamp": "2025-06-07T16:54:56.794Z",
    "source_name": "google",
    "source_query": "Irrigation Equipment",
    "source_country": "IT",
    "country": "Italy",
    "state": "Emilia-Romagna",
    "city": "Pontenure"
  },
  {
    "source_id": "ChIJbeHhlIXngEcRYgN1AvYKVwY",
    "name": "Idrovalnure | Impianti civili e industriali",
    "category": "Idrovalnure | Impianti civili e industriali",
    "formatted_address": "5,0(1)",
    "phone_number": "+393333394326",
    "source_url": "https://www.google.com/maps/place/Idrovalnure+%7C+Impianti+civili+e+industriali/data=!4m7!3m6!1s0x4780e78594e1e16d:0x6570af602750362!8m2!3d45.0428775!4d9.6956378!16s%2Fg%2F11l2xvjg6q!19sChIJbeHhlIXngEcRYgN1AvYKVwY?authuser=0&hl=tr&rclk=1",
    "website_url": "http://www.idrovalnure.com/",
    "rating_text": "5,0",
    "stars": null,
    "number_of_reviews": null,
    "price_level": "",
    "open_hours": "",
    "extraction_timestamp": "2025-06-07T16:54:56.795Z",
    "source_name": "google",
    "source_query": "Irrigation Equipment",
    "source_country": "IT",
    "country": "Italy",
    "state": "Emilia-Romagna",
    "city": "Pontenure"
  },
  {
    "source_id": "ChIJlfKaqSlRfksRNvergECjVi8",
    "name": "Mannino Sistemi Trattamento Acqua",
    "category": "Mannino Sistemi Trattamento Acqua",
    "formatted_address": "4,8(16)",
    "phone_number": "+393505784936",
    "source_url": "https://www.google.com/maps/place/Mannino+Sistemi+Trattamento+Acqua/data=!4m7!3m6!1s0x4b7e5129a99af295:0x2f56a34080abf736!8m2!3d45.0422201!4d9.6981487!16s%2Fg%2F11q3q46xvv!19sChIJlfKaqSlRfksRNvergECjVi8?authuser=0&hl=tr&rclk=1",
    "website_url": "http://manninodepurazione.it/",
    "rating_text": "4,8",
    "stars": null,
    "number_of_reviews": null,
    "price_level": "",
    "open_hours": "",
    "extraction_timestamp": "2025-06-07T16:54:56.796Z",
    "source_name": "google",
    "source_query": "Irrigation Equipment",
    "source_country": "IT",
    "country": "Italy",
    "state": "Emilia-Romagna",
    "city": "Pontenure"
  },
  {
    "source_id": "ChIJcQG6ul7df0cR3VxKiu5OPBs",
    "name": "Scova Impianti Srl",
    "category": "Scova Impianti Srl",
    "formatted_address": "4,5(64)",
    "phone_number": "+39059923202",
    "source_url": "https://www.google.com/maps/place/Scova+Impianti+Srl/data=!4m7!3m6!1s0x477fdd5ebaba0171:0x1b3c4eee8a4a5cdd!8m2!3d44.6018135!4d11.032294!16s%2Fg%2F1tfzwbfb!19sChIJcQG6ul7df0cR3VxKiu5OPBs?authuser=0&hl=tr&rclk=1",
    "website_url": "https://www.scovaimpianti.com/",
    "rating_text": "4,5",
    "stars": null,
    "number_of_reviews": null,
    "price_level": "",
    "open_hours": "",
    "extraction_timestamp": "2025-06-07T16:54:56.798Z",
    "source_name": "google",
    "source_query": "Irrigation Equipment",
    "source_country": "IT",
    "country": "Italy",
    "state": "Emilia-Romagna",
    "city": "Pontenure"
  },
  {
    "source_id": "ChIJ-wPcHKnpgEcRYErDfUksad8",
    "name": "IRRIGARDEN PISCINE S.r.l.s.",
    "category": "IRRIGARDEN PISCINE S.r.l.s.",
    "formatted_address": "Yüzme Havuzu İşleri Yüklenicisi · Via Emilia Parmense, 148/HKapalı ⋅ Açılış zamanı: Pzt 08:30 · +39 335 716 6435",
    "phone_number": "+393357166435",
    "source_url": "https://www.google.com/maps/place/IRRIGARDEN+PISCINE+S.r.l.s./data=!4m7!3m6!1s0x4780e9a91cdc03fb:0xdf692c497dc34a60!8m2!3d45.0288519!4d9.7385134!16s%2Fg%2F11r9fb1llm!19sChIJ-wPcHKnpgEcRYErDfUksad8?authuser=0&hl=tr&rclk=1",
    "website_url": "https://www.irrigardenpiscine.it/",
    "rating_text": "",
    "stars": null,
    "number_of_reviews": null,
    "price_level": "",
    "open_hours": "",
    "extraction_timestamp": "2025-06-07T16:54:56.799Z",
    "source_name": "google",
    "source_query": "Irrigation Equipment",
    "source_country": "IT",
    "country": "Italy",
    "state": "Emilia-Romagna",
    "city": "Pontenure"
  },
  {
    "source_id": "ChIJxRNmggLngEcRzfJk9o3FHro",
    "name": "Impianto Idrovoro della Finarda",
    "category": "Impianto Idrovoro della Finarda",
    "formatted_address": "5,0(1)",
    "phone_number": "",
    "source_url": "https://www.google.com/maps/place/Impianto+Idrovoro+della+Finarda/data=!4m7!3m6!1s0x4780e702826613c5:0xba1ec58df664f2cd!8m2!3d45.0551999!4d9.7144666!16s%2Fg%2F11cndbpx0d!19sChIJxRNmggLngEcRzfJk9o3FHro?authuser=0&hl=tr&rclk=1",
    "website_url": "http://www.cbpiacenza.it/",
    "rating_text": "5,0",
    "stars": null,
    "number_of_reviews": null,
    "price_level": "",
    "open_hours": "",
    "extraction_timestamp": "2025-06-07T16:54:56.799Z",
    "source_name": "google",
    "source_query": "Irrigation Equipment",
    "source_country": "IT",
    "country": "Italy",
    "state": "Emilia-Romagna",
    "city": "Pontenure"
  },
  {
    "source_id": "ChIJJ6V6lMDgf0cR1SpFsfjDuHg",
    "name": "Ocmis Irrigazione Spa",
    "category": "Ocmis Irrigazione Spa",
    "formatted_address": "3,5(31)",
    "phone_number": "+39059702150",
    "source_url": "https://www.google.com/maps/place/Ocmis+Irrigazione+Spa/data=!4m7!3m6!1s0x477fe0c0947aa527:0x78b8c3f8b1452ad5!8m2!3d44.530494!4d10.9794578!16s%2Fg%2F1vd3tn19!19sChIJJ6V6lMDgf0cR1SpFsfjDuHg?authuser=0&hl=tr&rclk=1",
    "website_url": "http://www.ocmis-irrigazione.it/",
    "rating_text": "3,5",
    "stars": null,
    "number_of_reviews": null,
    "price_level": "",
    "open_hours": "",
    "extraction_timestamp": "2025-06-07T16:54:56.801Z",
    "source_name": "google",
    "source_query": "Irrigation Equipment",
    "source_country": "IT",
    "country": "Italy",
    "state": "Emilia-Romagna",
    "city": "Pontenure"
  },
  {
    "source_id": "ChIJ_T1hAwDvgEcRuluzQU3rEcI",
    "name": "Tigotà",
    "category": "Tigotà",
    "formatted_address": "4,0(3)",
    "phone_number": "",
    "source_url": "https://www.google.com/maps/place/Tigot%C3%A0/data=!4m7!3m6!1s0x4780ef0003613dfd:0xc211eb4d41b35bba!8m2!3d44.9971487!4d9.7939618!16s%2Fg%2F11x5d8jjps!19sChIJ_T1hAwDvgEcRuluzQU3rEcI?authuser=0&hl=tr&rclk=1",
    "website_url": "",
    "rating_text": "4,0",
    "stars": null,
    "number_of_reviews": null,
    "price_level": "",
    "open_hours": "",
    "extraction_timestamp": "2025-06-07T16:54:56.801Z",
    "source_name": "google",
    "source_query": "Irrigation Equipment",
    "source_country": "IT",
    "country": "Italy",
    "state": "Emilia-Romagna",
    "city": "Pontenure"
  },
  {
    "source_id": "ChIJcQbumsDcgEcRKMwG0M_aXQA",
    "name": "Sacos Serbatoi di Savi Stefano",
    "category": "Sacos Serbatoi di Savi Stefano",
    "formatted_address": "3,7(3)",
    "phone_number": "+390523762043",
    "source_url": "https://www.google.com/maps/place/Sacos+Serbatoi+di+Savi+Stefano/data=!4m7!3m6!1s0x4780dcc09aee0671:0x5ddacfd006cc28!8m2!3d45.0594258!4d9.6301283!16s%2Fg%2F1tgd5cfw!19sChIJcQbumsDcgEcRKMwG0M_aXQA?authuser=0&hl=tr&rclk=1",
    "website_url": "",
    "rating_text": "3,7",
    "stars": null,
    "number_of_reviews": null,
    "price_level": "",
    "open_hours": "",
    "extraction_timestamp": "2025-06-07T16:54:56.802Z",
    "source_name": "google",
    "source_query": "Irrigation Equipment",
    "source_country": "IT",
    "country": "Italy",
    "state": "Emilia-Romagna",
    "city": "Pontenure"
  },
  {
    "source_id": "ChIJGcE9ji_mgEcRCuT2HBY0xbA",
    "name": "SPAZIO - showroom | Arredo Bagno Sanitari Pavimenti Condizionatori Caldaie |",
    "category": "SPAZIO - showroom | Arredo Bagno Sanitari Pavimenti Condizionatori Caldaie |",
    "formatted_address": "4,1(64)",
    "phone_number": "+390523572811",
    "source_url": "https://www.google.com/maps/place/SPAZIO+-+showroom+%7C+Arredo+Bagno+Sanitari+Pavimenti+Condizionatori+Caldaie+%7C/data=!4m7!3m6!1s0x4780e62f8e3dc119:0xb0c534161cf6e40a!8m2!3d45.0421009!4d9.7425656!16s%2Fg%2F12hvgn5l2!19sChIJGcE9ji_mgEcRCuT2HBY0xbA?authuser=0&hl=tr&rclk=1",
    "website_url": "http://www.spaziospa.com/",
    "rating_text": "4,1",
    "stars": null,
    "number_of_reviews": null,
    "price_level": "",
    "open_hours": "",
    "extraction_timestamp": "2025-06-07T16:54:56.804Z",
    "source_name": "google",
    "source_query": "Irrigation Equipment",
    "source_country": "IT",
    "country": "Italy",
    "state": "Emilia-Romagna",
    "city": "Pontenure"
  },
  {
    "source_id": "ChIJGWoSvc9fgEcRIrimfsBGb0s",
    "name": "Gardenmax Giardini Srl",
    "category": "Gardenmax Giardini Srl",
    "formatted_address": "4,9(56)",
    "phone_number": "+393923449261",
    "source_url": "https://www.google.com/maps/place/Gardenmax+Giardini+Srl/data=!4m7!3m6!1s0x47805fcfbd126a19:0x4b6f46c07ea6b822!8m2!3d44.9040554!4d9.9561126!16s%2Fg%2F1v1knqfy!19sChIJGWoSvc9fgEcRIrimfsBGb0s?authuser=0&hl=tr&rclk=1",
    "website_url": "http://www.gardenmaxgiardini.it/",
    "rating_text": "4,9",
    "stars": null,
    "number_of_reviews": null,
    "price_level": "",
    "open_hours": "",
    "extraction_timestamp": "2025-06-07T16:54:56.805Z",
    "source_name": "google",
    "source_query": "Irrigation Equipment",
    "source_country": "IT",
    "country": "Italy",
    "state": "Emilia-Romagna",
    "city": "Pontenure"
  },
  {
    "source_id": "ChIJtbN9A-8rgEcRVZtaRSESNOU",
    "name": "Perazzi Irrigatori",
    "category": "Perazzi Irrigatori",
    "formatted_address": "5,0(1)",
    "phone_number": "+390376535952",
    "source_url": "https://www.google.com/maps/place/Perazzi+Irrigatori/data=!4m7!3m6!1s0x47802bef037db3b5:0xe5341221455a9b55!8m2!3d44.9841775!4d10.7699573!16s%2Fg%2F1vd74s01!19sChIJtbN9A-8rgEcRVZtaRSESNOU?authuser=0&hl=tr&rclk=1",
    "website_url": "http://www.gedanken-italia.com/",
    "rating_text": "5,0",
    "stars": null,
    "number_of_reviews": null,
    "price_level": "",
    "open_hours": "",
    "extraction_timestamp": "2025-06-07T16:54:56.806Z",
    "source_name": "google",
    "source_query": "Irrigation Equipment",
    "source_country": "IT",
    "country": "Italy",
    "state": "Emilia-Romagna",
    "city": "Pontenure"
  },
  {
    "source_id": "ChIJud93rv3egEcRahXiXSkMmxQ",
    "name": "Veris S.r.l.",
    "category": "Veris S.r.l.",
    "formatted_address": "4,5(156)",
    "phone_number": "+39037734829",
    "source_url": "https://www.google.com/maps/place/Veris+S.r.l./data=!4m7!3m6!1s0x4780defdae77dfb9:0x149b0c295de2156a!8m2!3d45.1515999!4d9.6768522!16s%2Fg%2F1tfwj6n9!19sChIJud93rv3egEcRahXiXSkMmxQ?authuser=0&hl=tr&rclk=1",
    "website_url": "http://www.verisitalia.it/",
    "rating_text": "4,5",
    "stars": null,
    "number_of_reviews": null,
    "price_level": "",
    "open_hours": "",
    "extraction_timestamp": "2025-06-07T16:54:56.808Z",
    "source_name": "google",
    "source_query": "Irrigation Equipment",
    "source_country": "IT",
    "country": "Italy",
    "state": "Emilia-Romagna",
    "city": "Pontenure"
  },
  {
    "source_id": "ChIJoZbdML6NgEcRcTACtuKyPT4",
    "name": "Quarantelli S.N.C",
    "category": "Quarantelli S.N.C",
    "formatted_address": "4,7(61)",
    "phone_number": "+390523891228",
    "source_url": "https://www.google.com/maps/place/Quarantelli+S.N.C/data=!4m7!3m6!1s0x47808dbe30dd96a1:0x3e3db2e2b6023071!8m2!3d44.8268993!4d9.8365811!16s%2Fg%2F1hc7c5my9!19sChIJoZbdML6NgEcRcTACtuKyPT4?authuser=0&hl=tr&rclk=1",
    "website_url": "",
    "rating_text": "4,7",
    "stars": null,
    "number_of_reviews": null,
    "price_level": "",
    "open_hours": "",
    "extraction_timestamp": "2025-06-07T16:54:56.809Z",
    "source_name": "google",
    "source_query": "Irrigation Equipment",
    "source_country": "IT",
    "country": "Italy",
    "state": "Emilia-Romagna",
    "city": "Pontenure"
  },
  {
    "source_id": "ChIJQySI8N7ngEcRWal8Dn4mFeQ",
    "name": "DF Sport Specialist",
    "category": "DF Sport Specialist",
    "formatted_address": "4,3(523)",
    "phone_number": "+390523594471",
    "source_url": "https://www.google.com/maps/place/DF+Sport+Specialist/data=!4m7!3m6!1s0x4780e7def0882443:0xe415267e0e7ca959!8m2!3d45.0384992!4d9.7199084!16s%2Fg%2F12hm9ls9b!19sChIJQySI8N7ngEcRWal8Dn4mFeQ?authuser=0&hl=tr&rclk=1",
    "website_url": "https://df-sportspecialist.it/",
    "rating_text": "4,3",
    "stars": null,
    "number_of_reviews": null,
    "price_level": "",
    "open_hours": "",
    "extraction_timestamp": "2025-06-07T16:54:56.810Z",
    "source_name": "google",
    "source_query": "Irrigation Equipment",
    "source_country": "IT",
    "country": "Italy",
    "state": "Emilia-Romagna",
    "city": "Pontenure"
  },
  {
    "source_id": "ChIJj8nUhj4kgEcRy8HJk69hn04",
    "name": "Euroclamp S.R.L.",
    "category": "Euroclamp S.R.L.",
    "formatted_address": "4,2(39)",
    "phone_number": "+390522832081",
    "source_url": "https://www.google.com/maps/place/Euroclamp+S.R.L./data=!4m7!3m6!1s0x4780243e86d4c98f:0x4e9f61af93c9c1cb!8m2!3d44.8993434!4d10.654448!16s%2Fg%2F1tdrd6nd!19sChIJj8nUhj4kgEcRy8HJk69hn04?authuser=0&hl=tr&rclk=1",
    "website_url": "http://euroclampsrl.com/",
    "rating_text": "4,2",
    "stars": null,
    "number_of_reviews": null,
    "price_level": "",
    "open_hours": "",
    "extraction_timestamp": "2025-06-07T16:54:56.811Z",
    "source_name": "google",
    "source_query": "Irrigation Equipment",
    "source_country": "IT",
    "country": "Italy",
    "state": "Emilia-Romagna",
    "city": "Pontenure"
  },
  {
    "source_id": "ChIJOVoYwcXvf0cRi3QVtRk6KRU",
    "name": "Caprari",
    "category": "Caprari",
    "formatted_address": "4,4(40)",
    "phone_number": "+39059897611",
    "source_url": "https://www.google.com/maps/place/Caprari/data=!4m7!3m6!1s0x477fefc5c1185a39:0x15293a19b515748b!8m2!3d44.6573831!4d10.880122!16s%2Fg%2F11b6zr3r2w!19sChIJOVoYwcXvf0cRi3QVtRk6KRU?authuser=0&hl=tr&rclk=1",
    "website_url": "http://www.caprari.it/",
    "rating_text": "4,4",
    "stars": null,
    "number_of_reviews": null,
    "price_level": "",
    "open_hours": "",
    "extraction_timestamp": "2025-06-07T16:54:56.812Z",
    "source_name": "google",
    "source_query": "Irrigation Equipment",
    "source_country": "IT",
    "country": "Italy",
    "state": "Emilia-Romagna",
    "city": "Pontenure"
  },
  {
    "source_id": "ChIJIaevy9zpgEcR8TwrelDIHIY",
    "name": "Würth Store Piacenza Sud",
    "category": "Würth Store Piacenza Sud",
    "formatted_address": "4,1(7)",
    "phone_number": "+390471828128",
    "source_url": "https://www.google.com/maps/place/W%C3%BCrth+Store+Piacenza+Sud/data=!4m7!3m6!1s0x4780e9dccbafa721:0x861cc8507a2b3cf1!8m2!3d45.0299874!4d9.7351457!16s%2Fg%2F11t5nk9kc9!19sChIJIaevy9zpgEcR8TwrelDIHIY?authuser=0&hl=tr&rclk=1",
    "website_url": "https://www.wuerth.it/negozi/promo-offerte/?utm_source=gmb&utm_medium=social&utm_campaign=gmb_pv_piacenza-sud",
    "rating_text": "4,1",
    "stars": null,
    "number_of_reviews": null,
    "price_level": "",
    "open_hours": "",
    "extraction_timestamp": "2025-06-07T16:54:56.813Z",
    "source_name": "google",
    "source_query": "Irrigation Equipment",
    "source_country": "IT",
    "country": "Italy",
    "state": "Emilia-Romagna",
    "city": "Pontenure"
  },
  {
    "source_id": "ChIJE2bauzqwgEcRSblgUQ8f-dM",
    "name": "Consorzio Agrario Terrepadane",
    "category": "Consorzio Agrario Terrepadane",
    "formatted_address": "3,8(4)",
    "phone_number": "+390523936241",
    "source_url": "https://www.google.com/maps/place/Consorzio+Agrario+Terrepadane/data=!4m7!3m6!1s0x4780b03abbda6613:0xd3f91f0f5160b949!8m2!3d44.7712359!4d9.3861053!16s%2Fg%2F1tpb9v6q!19sChIJE2bauzqwgEcRSblgUQ8f-dM?authuser=0&hl=tr&rclk=1",
    "website_url": "https://terrepadane.it/le-nostre-sedi/#bobbio",
    "rating_text": "3,8",
    "stars": null,
    "number_of_reviews": null,
    "price_level": "",
    "open_hours": "",
    "extraction_timestamp": "2025-06-07T16:54:56.814Z",
    "source_name": "google",
    "source_query": "Irrigation Equipment",
    "source_country": "IT",
    "country": "Italy",
    "state": "Emilia-Romagna",
    "city": "Pontenure"
  },
  {
    "source_id": "ChIJy3C5wcXngEcRQ2h427KDOfA",
    "name": "SPAZIO - ingrosso | Condizionatori Caldaie Arredo bagno Sanitari Pavimenti |",
    "category": "SPAZIO - ingrosso | Condizionatori Caldaie Arredo bagno Sanitari Pavimenti |",
    "formatted_address": "4,4(73)",
    "phone_number": "+390523576311",
    "source_url": "https://www.google.com/maps/place/SPAZIO+-+ingrosso+%7C+Condizionatori+Caldaie+Arredo+bagno+Sanitari+Pavimenti+%7C/data=!4m7!3m6!1s0x4780e7c5c1b970cb:0xf03983b2db786843!8m2!3d45.0478441!4d9.7314002!16s%2Fg%2F1tp06z2w!19sChIJy3C5wcXngEcRQ2h427KDOfA?authuser=0&hl=tr&rclk=1",
    "website_url": "http://www.spaziospa.com/",
    "rating_text": "4,4",
    "stars": null,
    "number_of_reviews": null,
    "price_level": "",
    "open_hours": "",
    "extraction_timestamp": "2025-06-07T16:54:56.816Z",
    "source_name": "google",
    "source_query": "Irrigation Equipment",
    "source_country": "IT",
    "country": "Italy",
    "state": "Emilia-Romagna",
    "city": "Pontenure"
  }
]
