[
  {
    "source_id": "ChIJa5Sz71CVKhMRWILhzC2_1c0",
    "name": "Lino Lenzi S.R.L.",
    "category": "Lino Lenzi S.R.L.",
    "formatted_address": "4,4(129)",
    "phone_number": "+39053430041",
    "source_url": "https://www.google.com/maps/place/Lino+Lenzi+S.R.L./data=!4m7!3m6!1s0x132a9550efb3946b:0xcdd5bf2dcce18258!8m2!3d44.1764414!4d10.978152!16s%2Fg%2F12ht0pkqn!19sChIJa5Sz71CVKhMRWILhzC2_1c0?authuser=0&hl=tr&rclk=1",
    "website_url": "",
    "rating_text": "4,4",
    "stars": null,
    "number_of_reviews": null,
    "price_level": "",
    "open_hours": "",
    "extraction_timestamp": "2025-06-07T16:39:19.392Z",
    "source_name": "google",
    "source_query": "Irrigation Equipment",
    "source_country": "IT",
    "country": "Italy",
    "state": "Emilia-Romagna",
    "city": "Porretta Terme"
  },
  {
    "source_id": "ChIJiSguxFWVKhMRS9kXvIxWJZc",
    "name": "G.B. S.r.l.",
    "category": "G.B. S.r.l.",
    "formatted_address": "4,5(10)",
    "phone_number": "+39053431410",
    "source_url": "https://www.google.com/maps/place/G.B.+S.r.l./data=!4m7!3m6!1s0x132a9555c42e2889:0x9725568cbc17d94b!8m2!3d44.1701974!4d10.9762476!16s%2Fg%2F1v38dncd!19sChIJiSguxFWVKhMRS9kXvIxWJZc?authuser=0&hl=tr&rclk=1",
    "website_url": "",
    "rating_text": "4,5",
    "stars": null,
    "number_of_reviews": null,
    "price_level": "",
    "open_hours": "",
    "extraction_timestamp": "2025-06-07T16:39:19.393Z",
    "source_name": "google",
    "source_query": "Irrigation Equipment",
    "source_country": "IT",
    "country": "Italy",
    "state": "Emilia-Romagna",
    "city": "Porretta Terme"
  },
  {
    "source_id": "ChIJt3Ej01WVKhMR1iD6g-EP7ps",
    "name": "Gualandi Giacomo Enoteca",
    "category": "Gualandi Giacomo Enoteca",
    "formatted_address": "4,6(65)",
    "phone_number": "+39053430124",
    "source_url": "https://www.google.com/maps/place/Gualandi+Giacomo+Enoteca/data=!4m7!3m6!1s0x132a9555d32371b7:0x9bee0fe183fa20d6!8m2!3d44.1693398!4d10.9756445!16s%2Fg%2F1hc884x3j!19sChIJt3Ej01WVKhMR1iD6g-EP7ps?authuser=0&hl=tr&rclk=1",
    "website_url": "",
    "rating_text": "4,6",
    "stars": null,
    "number_of_reviews": null,
    "price_level": "",
    "open_hours": "",
    "extraction_timestamp": "2025-06-07T16:39:19.394Z",
    "source_name": "google",
    "source_query": "Irrigation Equipment",
    "source_country": "IT",
    "country": "Italy",
    "state": "Emilia-Romagna",
    "city": "Porretta Terme"
  },
  {
    "source_id": "ChIJ_SYf2IMsfkcRVw9xVhrnjyI",
    "name": "Irrigazione Bragaglia",
    "category": "Irrigazione Bragaglia",
    "formatted_address": "4,7(30)",
    "phone_number": "+39051534865",
    "source_url": "https://www.google.com/maps/place/Irrigazione+Bragaglia/data=!4m7!3m6!1s0x477e2c83d81f26fd:0x228fe71a56710f57!8m2!3d44.5053735!4d11.412403!16s%2Fg%2F1vp6z0gf!19sChIJ_SYf2IMsfkcRVw9xVhrnjyI?authuser=0&hl=tr&rclk=1",
    "website_url": "",
    "rating_text": "4,7",
    "stars": null,
    "number_of_reviews": null,
    "price_level": "",
    "open_hours": "",
    "extraction_timestamp": "2025-06-07T16:39:19.395Z",
    "source_name": "google",
    "source_query": "Irrigation Equipment",
    "source_country": "IT",
    "country": "Italy",
    "state": "Emilia-Romagna",
    "city": "Porretta Terme"
  },
  {
    "source_id": "ChIJaxdWeve_KhMR6_076oTgypY",
    "name": "Materiali Per Costruzioni Eredi Cav.Anselmo Riccioni Di Ing.Ste",
    "category": "Materiali Per Costruzioni Eredi Cav.Anselmo Riccioni Di Ing.Ste",
    "formatted_address": "4,4(72)",
    "phone_number": "+39053431405",
    "source_url": "https://www.google.com/maps/place/Materiali+Per+Costruzioni+Eredi+Cav.Anselmo+Riccioni+Di+Ing.Ste/data=!4m7!3m6!1s0x132abff77a56176b:0x96cae084ea3bfdeb!8m2!3d44.1873072!4d10.9620548!16s%2Fg%2F11bwm32358!19sChIJaxdWeve_KhMR6_076oTgypY?authuser=0&hl=tr&rclk=1",
    "website_url": "",
    "rating_text": "4,4",
    "stars": null,
    "number_of_reviews": null,
    "price_level": "",
    "open_hours": "",
    "extraction_timestamp": "2025-06-07T16:39:19.397Z",
    "source_name": "google",
    "source_query": "Irrigation Equipment",
    "source_country": "IT",
    "country": "Italy",
    "state": "Emilia-Romagna",
    "city": "Porretta Terme"
  },
  {
    "source_id": "ChIJh3Nd8G0sfkcR_m7VewEmxXM",
    "name": "Irrigarden",
    "category": "Irrigarden",
    "formatted_address": "4,7(158)",
    "phone_number": "+39051782013",
    "source_url": "https://www.google.com/maps/place/Irrigarden/data=!4m7!3m6!1s0x477e2c6df05d7387:0x73c526017bd56efe!8m2!3d44.5096266!4d11.4390897!16s%2Fg%2F1vgw_l7w!19sChIJh3Nd8G0sfkcR_m7VewEmxXM?authuser=0&hl=tr&rclk=1",
    "website_url": "",
    "rating_text": "4,7",
    "stars": null,
    "number_of_reviews": null,
    "price_level": "",
    "open_hours": "",
    "extraction_timestamp": "2025-06-07T16:39:19.398Z",
    "source_name": "google",
    "source_query": "Irrigation Equipment",
    "source_country": "IT",
    "country": "Italy",
    "state": "Emilia-Romagna",
    "city": "Porretta Terme"
  },
  {
    "source_id": "ChIJd_vT8UuVKhMRNhZJvC06aXI",
    "name": "Erboristeria Sanitaria Di Porretta",
    "category": "Erboristeria Sanitaria Di Porretta",
    "formatted_address": "5,0(7)",
    "phone_number": "+39053424555",
    "source_url": "https://www.google.com/maps/place/Erboristeria+Sanitaria+Di+Porretta/data=!4m7!3m6!1s0x132a954bf1d3fb77:0x72693a2dbc491636!8m2!3d44.1573263!4d10.9757359!16s%2Fg%2F1ptyfp42t!19sChIJd_vT8UuVKhMRNhZJvC06aXI?authuser=0&hl=tr&rclk=1",
    "website_url": "",
    "rating_text": "5,0",
    "stars": null,
    "number_of_reviews": null,
    "price_level": "",
    "open_hours": "",
    "extraction_timestamp": "2025-06-07T16:39:19.420Z",
    "source_name": "google",
    "source_query": "Irrigation Equipment",
    "source_country": "IT",
    "country": "Italy",
    "state": "Emilia-Romagna",
    "city": "Porretta Terme"
  },
  {
    "source_id": "ChIJK_p6t0uVKhMRgT-oM2iNnR4",
    "name": "Audiocar",
    "category": "Audiocar",
    "formatted_address": "4,5(143)",
    "phone_number": "+39053421085",
    "source_url": "https://www.google.com/maps/place/Audiocar/data=!4m7!3m6!1s0x132a954bb77afa2b:0x1e9d8d6833a83f81!8m2!3d44.1566228!4d10.975799!16s%2Fg%2F1hc13rycf!19sChIJK_p6t0uVKhMRgT-oM2iNnR4?authuser=0&hl=tr&rclk=1",
    "website_url": "",
    "rating_text": "4,5",
    "stars": null,
    "number_of_reviews": null,
    "price_level": "",
    "open_hours": "",
    "extraction_timestamp": "2025-06-07T16:39:19.422Z",
    "source_name": "google",
    "source_query": "Irrigation Equipment",
    "source_country": "IT",
    "country": "Italy",
    "state": "Emilia-Romagna",
    "city": "Porretta Terme"
  },
  {
    "source_id": "ChIJiY6OD0yVKhMR4egmxkcyMps",
    "name": "Hotel Bertusi",
    "category": "Hotel Bertusi",
    "formatted_address": "3,8(229)",
    "phone_number": "+39053422072",
    "source_url": "https://www.google.com/maps/place/Hotel+Bertusi/data=!4m10!3m9!1s0x132a954c0f8e8e89:0x9b323247c626e8e1!5m2!4m1!1i2!8m2!3d44.1579132!4d10.9757872!16s%2Fg%2F1tdv3d_m!19sChIJiY6OD0yVKhMR4egmxkcyMps?authuser=0&hl=tr&rclk=1",
    "website_url": "",
    "rating_text": "3,8",
    "stars": null,
    "number_of_reviews": null,
    "price_level": "",
    "open_hours": "",
    "extraction_timestamp": "2025-06-07T16:39:19.423Z",
    "source_name": "google",
    "source_query": "Irrigation Equipment",
    "source_country": "IT",
    "country": "Italy",
    "state": "Emilia-Romagna",
    "city": "Porretta Terme"
  },
  {
    "source_id": "ChIJJ6V6lMDgf0cR1SpFsfjDuHg",
    "name": "Ocmis Irrigazione Spa",
    "category": "Ocmis Irrigazione Spa",
    "formatted_address": "3,5(31)",
    "phone_number": "+39059702150",
    "source_url": "https://www.google.com/maps/place/Ocmis+Irrigazione+Spa/data=!4m7!3m6!1s0x477fe0c0947aa527:0x78b8c3f8b1452ad5!8m2!3d44.530494!4d10.9794578!16s%2Fg%2F1vd3tn19!19sChIJJ6V6lMDgf0cR1SpFsfjDuHg?authuser=0&hl=tr&rclk=1",
    "website_url": "",
    "rating_text": "3,5",
    "stars": null,
    "number_of_reviews": null,
    "price_level": "",
    "open_hours": "",
    "extraction_timestamp": "2025-06-07T16:39:19.424Z",
    "source_name": "google",
    "source_query": "Irrigation Equipment",
    "source_country": "IT",
    "country": "Italy",
    "state": "Emilia-Romagna",
    "city": "Porretta Terme"
  },
  {
    "source_id": "ChIJdZSPQzGVKhMRPL9_fglDnm4",
    "name": "La Parafarmacia e Sanitaria di Porretta",
    "category": "La Parafarmacia e Sanitaria di Porretta",
    "formatted_address": "5,0(10)",
    "phone_number": "+390534490125",
    "source_url": "https://www.google.com/maps/place/La+Parafarmacia+e+Sanitaria+di+Porretta/data=!4m7!3m6!1s0x132a9531438f9475:0x6e9e43097e7fbf3c!8m2!3d44.1521603!4d10.9792118!16s%2Fg%2F11sd4f1mwd!19sChIJdZSPQzGVKhMRPL9_fglDnm4?authuser=0&hl=tr&rclk=1",
    "website_url": "",
    "rating_text": "5,0",
    "stars": null,
    "number_of_reviews": null,
    "price_level": "",
    "open_hours": "",
    "extraction_timestamp": "2025-06-07T16:39:19.426Z",
    "source_name": "google",
    "source_query": "Irrigation Equipment",
    "source_country": "IT",
    "country": "Italy",
    "state": "Emilia-Romagna",
    "city": "Porretta Terme"
  },
  {
    "source_id": "ChIJ1fJLPkyVKhMRcAReoWZUKR8",
    "name": "Appennino Formaggi S.N.C.",
    "category": "Appennino Formaggi S.N.C.",
    "formatted_address": "4,6(9)",
    "phone_number": "+39053424416",
    "source_url": "https://www.google.com/maps/place/Appennino+Formaggi+S.N.C./data=!4m7!3m6!1s0x132a954c3e4bf2d5:0x1f295466a15e0470!8m2!3d44.1590715!4d10.9760095!16s%2Fg%2F1vxq8zbp!19sChIJ1fJLPkyVKhMRcAReoWZUKR8?authuser=0&hl=tr&rclk=1",
    "website_url": "",
    "rating_text": "4,6",
    "stars": null,
    "number_of_reviews": null,
    "price_level": "",
    "open_hours": "",
    "extraction_timestamp": "2025-06-07T16:39:19.428Z",
    "source_name": "google",
    "source_query": "Irrigation Equipment",
    "source_country": "IT",
    "country": "Italy",
    "state": "Emilia-Romagna",
    "city": "Porretta Terme"
  },
  {
    "source_id": "ChIJQ-GgUk6VKhMR91MUowOL_AY",
    "name": "Abc di Neri Claudio - assistenza vendita e manutenzione caldaie e bruciatori",
    "category": "Abc di Neri Claudio - assistenza vendita e manutenzione caldaie e bruciatori",
    "formatted_address": "4,2(21)",
    "phone_number": "+39053424343",
    "source_url": "https://www.google.com/maps/place/Abc+di+Neri+Claudio+-+assistenza+vendita+e+manutenzione+caldaie+e+bruciatori/data=!4m7!3m6!1s0x132a954e52a0e143:0x6fc8b03a31453f7!8m2!3d44.160747!4d10.97241!16s%2Fg%2F1tp68nk4!19sChIJQ-GgUk6VKhMR91MUowOL_AY?authuser=0&hl=tr&rclk=1",
    "website_url": "",
    "rating_text": "4,2",
    "stars": null,
    "number_of_reviews": null,
    "price_level": "",
    "open_hours": "",
    "extraction_timestamp": "2025-06-07T16:39:19.429Z",
    "source_name": "google",
    "source_query": "Irrigation Equipment",
    "source_country": "IT",
    "country": "Italy",
    "state": "Emilia-Romagna",
    "city": "Porretta Terme"
  },
  {
    "source_id": "ChIJtVDkNgRFgEcRqc6umwWIJuI",
    "name": "Rm Spa",
    "category": "Rm Spa",
    "formatted_address": "4,6(81)",
    "phone_number": "+390521872321",
    "source_url": "https://www.google.com/maps/place/Rm+Spa/data=!4m7!3m6!1s0x4780450436e450b5:0xe22688059baecea9!8m2!3d44.9105406!4d10.2583785!16s%2Fg%2F12hl93byl!19sChIJtVDkNgRFgEcRqc6umwWIJuI?authuser=0&hl=tr&rclk=1",
    "website_url": "",
    "rating_text": "4,6",
    "stars": null,
    "number_of_reviews": null,
    "price_level": "",
    "open_hours": "",
    "extraction_timestamp": "2025-06-07T16:39:19.431Z",
    "source_name": "google",
    "source_query": "Irrigation Equipment",
    "source_country": "IT",
    "country": "Italy",
    "state": "Emilia-Romagna",
    "city": "Porretta Terme"
  },
  {
    "source_id": "ChIJk_Sj7kuVKhMR2x-zCOQKCj0",
    "name": "Tigotà",
    "category": "Tigotà",
    "formatted_address": "4,4(234)",
    "phone_number": "+39053421173",
    "source_url": "https://www.google.com/maps/place/Tigot%C3%A0/data=!4m7!3m6!1s0x132a954beea3f493:0x3d0a0ae408b31fdb!8m2!3d44.156912!4d10.976081!16s%2Fg%2F12hwthc5_!19sChIJk_Sj7kuVKhMR2x-zCOQKCj0?authuser=0&hl=tr&rclk=1",
    "website_url": "",
    "rating_text": "4,4",
    "stars": null,
    "number_of_reviews": null,
    "price_level": "",
    "open_hours": "",
    "extraction_timestamp": "2025-06-07T16:39:19.432Z",
    "source_name": "google",
    "source_query": "Irrigation Equipment",
    "source_country": "IT",
    "country": "Italy",
    "state": "Emilia-Romagna",
    "city": "Porretta Terme"
  },
  {
    "source_id": "ChIJrYqtCUyVKhMRb8EiM3M730A",
    "name": "Mondo Casa",
    "category": "Mondo Casa",
    "formatted_address": "4,3(52)",
    "phone_number": "+39053421338",
    "source_url": "https://www.google.com/maps/place/Mondo+Casa/data=!4m7!3m6!1s0x132a954c09ad8aad:0x40df3b733322c16f!8m2!3d44.1647628!4d10.9716695!16s%2Fg%2F11b6jgnzc0!19sChIJrYqtCUyVKhMRb8EiM3M730A?authuser=0&hl=tr&rclk=1",
    "website_url": "",
    "rating_text": "4,3",
    "stars": null,
    "number_of_reviews": null,
    "price_level": "",
    "open_hours": "",
    "extraction_timestamp": "2025-06-07T16:39:19.433Z",
    "source_name": "google",
    "source_query": "Irrigation Equipment",
    "source_country": "IT",
    "country": "Italy",
    "state": "Emilia-Romagna",
    "city": "Porretta Terme"
  },
  {
    "source_id": "ChIJp2R3w7_Qf0cRHlt9J4ovm_o",
    "name": "Irritec S.p.A. - Stabilimento F",
    "category": "Irritec S.p.A. - Stabilimento F",
    "formatted_address": "5,0(2)",
    "phone_number": "+390516508020",
    "source_url": "https://www.google.com/maps/place/Irritec+S.p.A.+-+Stabilimento+F/data=!4m7!3m6!1s0x477fd0bfc37764a7:0xfa9b2f8a277d5b1e!8m2!3d44.6210254!4d11.3703614!16s%2Fg%2F1xpwhmq4!19sChIJp2R3w7_Qf0cRHlt9J4ovm_o?authuser=0&hl=tr&rclk=1",
    "website_url": "",
    "rating_text": "5,0",
    "stars": null,
    "number_of_reviews": null,
    "price_level": "",
    "open_hours": "",
    "extraction_timestamp": "2025-06-07T16:39:19.435Z",
    "source_name": "google",
    "source_query": "Irrigation Equipment",
    "source_country": "IT",
    "country": "Italy",
    "state": "Emilia-Romagna",
    "city": "Porretta Terme"
  },
  {
    "source_id": "ChIJOfY3EyjrKhMR7Osiq91HeZE",
    "name": "Ferramenta Gherardini",
    "category": "Ferramenta Gherardini",
    "formatted_address": "4,6(395)",
    "phone_number": "+39053460065",
    "source_url": "https://www.google.com/maps/place/Ferramenta+Gherardini/data=!4m7!3m6!1s0x132aeb281337f639:0x917947ddab22ebec!8m2!3d44.129906!4d10.9913305!16s%2Fg%2F1v9gxl22!19sChIJOfY3EyjrKhMR7Osiq91HeZE?authuser=0&hl=tr&rclk=1",
    "website_url": "",
    "rating_text": "4,6",
    "stars": null,
    "number_of_reviews": null,
    "price_level": "",
    "open_hours": "",
    "extraction_timestamp": "2025-06-07T16:39:19.436Z",
    "source_name": "google",
    "source_query": "Irrigation Equipment",
    "source_country": "IT",
    "country": "Italy",
    "state": "Emilia-Romagna",
    "city": "Porretta Terme"
  },
  {
    "source_id": "ChIJo35coqrhf0cRTLWyfHFEKxU",
    "name": "Irtec (S.R.L.)",
    "category": "Irtec (S.R.L.)",
    "formatted_address": "4,5(2)",
    "phone_number": "+39059702150",
    "source_url": "https://www.google.com/maps/place/Irtec+%28S.R.L.%29/data=!4m7!3m6!1s0x477fe1aaa25c7ea3:0x152b44717cb2b54c!8m2!3d44.5304847!4d10.9796055!16s%2Fg%2F1tgn8gft!19sChIJo35coqrhf0cRTLWyfHFEKxU?authuser=0&hl=tr&rclk=1",
    "website_url": "",
    "rating_text": "4,5",
    "stars": null,
    "number_of_reviews": null,
    "price_level": "",
    "open_hours": "",
    "extraction_timestamp": "2025-06-07T16:39:19.437Z",
    "source_name": "google",
    "source_query": "Irrigation Equipment",
    "source_country": "IT",
    "country": "Italy",
    "state": "Emilia-Romagna",
    "city": "Porretta Terme"
  },
  {
    "source_id": "ChIJm4BtYUqVKhMR-QV_Dwm3rqs",
    "name": "Coop",
    "category": "Coop",
    "formatted_address": "3,9(643)",
    "phone_number": "+390518906934",
    "source_url": "https://www.google.com/maps/place/Coop/data=!4m7!3m6!1s0x132a954a616d809b:0xabaeb7090f7f05f9!8m2!3d44.1551919!4d10.9772782!16s%2Fg%2F1q62cyd62!19sChIJm4BtYUqVKhMR-QV_Dwm3rqs?authuser=0&hl=tr&rclk=1",
    "website_url": "",
    "rating_text": "3,9",
    "stars": null,
    "number_of_reviews": null,
    "price_level": "",
    "open_hours": "",
    "extraction_timestamp": "2025-06-07T16:39:19.438Z",
    "source_name": "google",
    "source_query": "Irrigation Equipment",
    "source_country": "IT",
    "country": "Italy",
    "state": "Emilia-Romagna",
    "city": "Porretta Terme"
  },
  {
    "source_id": "ChIJ9TIc9quVKhMR8z_nglVVtM0",
    "name": "in's mercato spa",
    "category": "in's mercato spa",
    "formatted_address": "4,2(329)",
    "phone_number": "+393421326465",
    "source_url": "https://www.google.com/maps/place/in%27s+mercato+spa/data=!4m7!3m6!1s0x132a95abf61c32f5:0xcdb4555582e73ff3!8m2!3d44.1629756!4d10.9710808!16s%2Fg%2F11sy3fmvhr!19sChIJ9TIc9quVKhMR8z_nglVVtM0?authuser=0&hl=tr&rclk=1",
    "website_url": "",
    "rating_text": "4,2",
    "stars": null,
    "number_of_reviews": null,
    "price_level": "",
    "open_hours": "",
    "extraction_timestamp": "2025-06-07T16:39:19.438Z",
    "source_name": "google",
    "source_query": "Irrigation Equipment",
    "source_country": "IT",
    "country": "Italy",
    "state": "Emilia-Romagna",
    "city": "Porretta Terme"
  },
  {
    "source_id": "ChIJs29sE3Pjf0cRQykUVUXAUC4",
    "name": "Adesital S.P.A.",
    "category": "Adesital S.P.A.",
    "formatted_address": "4,7(10)",
    "phone_number": "+390536927511",
    "source_url": "https://www.google.com/maps/place/Adesital+S.P.A./data=!4m7!3m6!1s0x477fe373136c6fb3:0x2e50c04555142943!8m2!3d44.5397414!4d10.8591898!16s%2Fg%2F1tj499w9!19sChIJs29sE3Pjf0cRQykUVUXAUC4?authuser=0&hl=tr&rclk=1",
    "website_url": "",
    "rating_text": "4,7",
    "stars": null,
    "number_of_reviews": null,
    "price_level": "",
    "open_hours": "",
    "extraction_timestamp": "2025-06-07T16:39:19.439Z",
    "source_name": "google",
    "source_query": "Irrigation Equipment",
    "source_country": "IT",
    "country": "Italy",
    "state": "Emilia-Romagna",
    "city": "Porretta Terme"
  },
  {
    "source_id": "ChIJKXm9k7_8f0cRp7XntRaamh8",
    "name": "Monte Ave Società Cooperativa Agricola",
    "category": "Monte Ave Società Cooperativa Agricola",
    "formatted_address": "4,5(30)",
    "phone_number": "+390536804115",
    "source_url": "https://www.google.com/maps/place/Monte+Ave+Societ%C3%A0+Cooperativa+Agricola/data=!4m7!3m6!1s0x477ffcbf93bd7929:0x1f9a9a16b5e7b5a7!8m2!3d44.5446307!4d10.8001567!16s%2Fg%2F1tfnxfjc!19sChIJKXm9k7_8f0cRp7XntRaamh8?authuser=0&hl=tr&rclk=1",
    "website_url": "",
    "rating_text": "4,5",
    "stars": null,
    "number_of_reviews": null,
    "price_level": "",
    "open_hours": "",
    "extraction_timestamp": "2025-06-07T16:39:19.440Z",
    "source_name": "google",
    "source_query": "Irrigation Equipment",
    "source_country": "IT",
    "country": "Italy",
    "state": "Emilia-Romagna",
    "city": "Porretta Terme"
  },
  {
    "source_id": "ChIJhf9dU-rnf0cRADjx8jbXWtE",
    "name": "KARAG Italia SRL",
    "category": "KARAG Italia SRL",
    "formatted_address": "4,5(13)",
    "phone_number": "+390595332125",
    "source_url": "https://www.google.com/maps/place/KARAG+Italia+SRL/data=!4m7!3m6!1s0x477fe7ea535dff85:0xd15ad736f2f13800!8m2!3d44.5530166!4d10.9291505!16s%2Fg%2F11qwxqkpqn!19sChIJhf9dU-rnf0cRADjx8jbXWtE?authuser=0&hl=tr&rclk=1",
    "website_url": "",
    "rating_text": "4,5",
    "stars": null,
    "number_of_reviews": null,
    "price_level": "",
    "open_hours": "",
    "extraction_timestamp": "2025-06-07T16:39:19.441Z",
    "source_name": "google",
    "source_query": "Irrigation Equipment",
    "source_country": "IT",
    "country": "Italy",
    "state": "Emilia-Romagna",
    "city": "Porretta Terme"
  },
  {
    "source_id": "ChIJqww04MP8f0cRBPrbKR4_9cw",
    "name": "Tecnoagricola Fiorano",
    "category": "Tecnoagricola Fiorano",
    "formatted_address": "4,5(285)",
    "phone_number": "+390536805806",
    "source_url": "https://www.google.com/maps/place/Tecnoagricola+Fiorano/data=!4m7!3m6!1s0x477ffcc3e0340cab:0xccf53f1e29dbfa04!8m2!3d44.5390441!4d10.8009076!16s%2Fg%2F11d_7st142!19sChIJqww04MP8f0cRBPrbKR4_9cw?authuser=0&hl=tr&rclk=1",
    "website_url": "",
    "rating_text": "4,5",
    "stars": null,
    "number_of_reviews": null,
    "price_level": "",
    "open_hours": "",
    "extraction_timestamp": "2025-06-07T16:39:19.442Z",
    "source_name": "google",
    "source_query": "Irrigation Equipment",
    "source_country": "IT",
    "country": "Italy",
    "state": "Emilia-Romagna",
    "city": "Porretta Terme"
  },
  {
    "source_id": "ChIJa8flob_wf0cRa7XVBodnL2I",
    "name": "Arag Srl",
    "category": "Arag Srl",
    "formatted_address": "4,6(141)",
    "phone_number": "+390522622011",
    "source_url": "https://www.google.com/maps/place/Arag+Srl/data=!4m7!3m6!1s0x477ff0bfa1e5c76b:0x622f678706d5b56b!8m2!3d44.6556162!4d10.7922409!16s%2Fg%2F1tdnd2vb!19sChIJa8flob_wf0cRa7XVBodnL2I?authuser=0&hl=tr&rclk=1",
    "website_url": "",
    "rating_text": "4,6",
    "stars": null,
    "number_of_reviews": null,
    "price_level": "",
    "open_hours": "",
    "extraction_timestamp": "2025-06-07T16:39:19.443Z",
    "source_name": "google",
    "source_query": "Irrigation Equipment",
    "source_country": "IT",
    "country": "Italy",
    "state": "Emilia-Romagna",
    "city": "Porretta Terme"
  },
  {
    "source_id": "ChIJce0-LgCVKhMRkdLZJQFgiNk",
    "name": "Supermercato A&O",
    "category": "Supermercato A&O",
    "formatted_address": "5,0(2)",
    "phone_number": "",
    "source_url": "https://www.google.com/maps/place/Supermercato+A%26O/data=!4m7!3m6!1s0x132a95002e3eed71:0xd988600125d9d291!8m2!3d44.158594!4d10.9751802!16s%2Fg%2F11lv8wpklh!19sChIJce0-LgCVKhMRkdLZJQFgiNk?authuser=0&hl=tr&rclk=1",
    "website_url": "",
    "rating_text": "5,0",
    "stars": null,
    "number_of_reviews": null,
    "price_level": "",
    "open_hours": "",
    "extraction_timestamp": "2025-06-07T16:39:19.444Z",
    "source_name": "google",
    "source_query": "Irrigation Equipment",
    "source_country": "IT",
    "country": "Italy",
    "state": "Emilia-Romagna",
    "city": "Porretta Terme"
  },
  {
    "source_id": "ChIJHalA8sf8f0cRSJdBt5XR5ns",
    "name": "Lazzaretti Giovanni Snc di Scorzoni Giuliano & Pini Francesca",
    "category": "Lazzaretti Giovanni Snc di Scorzoni Giuliano & Pini Francesca",
    "formatted_address": "4,6(54)",
    "phone_number": "+390536830118",
    "source_url": "https://www.google.com/maps/place/Lazzaretti+Giovanni+Snc+di+Scorzoni+Giuliano+%26+Pini+Francesca/data=!4m7!3m6!1s0x477ffcc7f240a91d:0x7be6d195b7419748!8m2!3d44.5522158!4d10.8064512!16s%2Fg%2F1thnmmq2!19sChIJHalA8sf8f0cRSJdBt5XR5ns?authuser=0&hl=tr&rclk=1",
    "website_url": "",
    "rating_text": "4,6",
    "stars": null,
    "number_of_reviews": null,
    "price_level": "",
    "open_hours": "",
    "extraction_timestamp": "2025-06-07T16:39:19.445Z",
    "source_name": "google",
    "source_query": "Irrigation Equipment",
    "source_country": "IT",
    "country": "Italy",
    "state": "Emilia-Romagna",
    "city": "Porretta Terme"
  }
]
