[
  {
    "source_id": "ChIJ-eLL5ShMfkcRkJZIiiw4RaU",
    "name": "P.M. di Peverati M. srl",
    "category": "P.M. di Peverati M. srl",
    "formatted_address": "4,7(50)",
    "phone_number": "+39053294452",
    "source_url": "https://www.google.com/maps/place/P.M.+di+Peverati+M.+srl/data=!4m7!3m6!1s0x477e4c28e5cbe2f9:0xa545382c8a489690!8m2!3d44.8147477!4d11.5887959!16s%2Fg%2F1thp6v8g!19sChIJ-eLL5ShMfkcRkJZIiiw4RaU?authuser=0&hl=tr&rclk=1",
    "website_url": "http://www.pmpeverati.it/",
    "rating_text": "4,7",
    "stars": null,
    "number_of_reviews": null,
    "price_level": "",
    "open_hours": "",
    "extraction_timestamp": "2025-06-07T16:33:31.188Z",
    "source_name": "google",
    "source_query": "Irrigation Equipment",
    "source_country": "IT",
    "country": "Italy",
    "state": "Emilia-Romagna",
    "city": "Portomaggiore"
  },
  {
    "source_id": "ChIJqc9MqxJAfkcRpX0syWtDbTY",
    "name": "De Maria Michele - Vendita alimenti per cani e gatti",
    "category": "De Maria Michele - Vendita alimenti per cani e gatti",
    "formatted_address": "4,8(72)",
    "phone_number": "+390532811657",
    "source_url": "https://www.google.com/maps/place/De+Maria+Michele+-+Vendita+alimenti+per+cani+e+gatti/data=!4m7!3m6!1s0x477e4012ab4ccfa9:0x366d436bc92c7da5!8m2!3d44.696604!4d11.807102!16s%2Fg%2F113j4psnj!19sChIJqc9MqxJAfkcRpX0syWtDbTY?authuser=0&hl=tr&rclk=1",
    "website_url": "https://www.demariamichele.com/",
    "rating_text": "4,8",
    "stars": null,
    "number_of_reviews": null,
    "price_level": "",
    "open_hours": "",
    "extraction_timestamp": "2025-06-07T16:33:31.191Z",
    "source_name": "google",
    "source_query": "Irrigation Equipment",
    "source_country": "IT",
    "country": "Italy",
    "state": "Emilia-Romagna",
    "city": "Portomaggiore"
  },
  {
    "source_id": "ChIJn3CmKgA_fkcRSVrYEKJS4tU",
    "name": "Impianto Irriguo Cavo Spina",
    "category": "Impianto Irriguo Cavo Spina",
    "formatted_address": "3,0(1)",
    "phone_number": "",
    "source_url": "https://www.google.com/maps/place/Impianto+Irriguo+Cavo+Spina/data=!4m7!3m6!1s0x477e3f002aa6709f:0xd5e252a210d85a49!8m2!3d44.6574803!4d11.7354165!16s%2Fg%2F11wftnkpw8!19sChIJn3CmKgA_fkcRSVrYEKJS4tU?authuser=0&hl=tr&rclk=1",
    "website_url": "",
    "rating_text": "3,0",
    "stars": null,
    "number_of_reviews": null,
    "price_level": "",
    "open_hours": "",
    "extraction_timestamp": "2025-06-07T16:33:31.193Z",
    "source_name": "google",
    "source_query": "Irrigation Equipment",
    "source_country": "IT",
    "country": "Italy",
    "state": "Emilia-Romagna",
    "city": "Portomaggiore"
  },
  {
    "source_id": "ChIJcxhr7m9AfkcRSlahf5eGf0E",
    "name": "Bertoni Stefano",
    "category": "Bertoni Stefano",
    "formatted_address": "4,7(154)",
    "phone_number": "+390532811120",
    "source_url": "https://www.google.com/maps/place/Bertoni+Stefano/data=!4m7!3m6!1s0x477e406fee6b1873:0x417f86977fa1564a!8m2!3d44.6968003!4d11.8067804!16s%2Fg%2F1hc40_tb6!19sChIJcxhr7m9AfkcRSlahf5eGf0E?authuser=0&hl=tr&rclk=1",
    "website_url": "",
    "rating_text": "4,7",
    "stars": null,
    "number_of_reviews": null,
    "price_level": "",
    "open_hours": "",
    "extraction_timestamp": "2025-06-07T16:33:31.195Z",
    "source_name": "google",
    "source_query": "Irrigation Equipment",
    "source_country": "IT",
    "country": "Italy",
    "state": "Emilia-Romagna",
    "city": "Portomaggiore"
  },
  {
    "source_id": "ChIJmWZU0olBfkcRlxH9v-cvBEs",
    "name": "MF Cartucce e Toner di Mistroni Francesco",
    "category": "MF Cartucce e Toner di Mistroni Francesco",
    "formatted_address": "4,4(7)",
    "phone_number": "+393299809495",
    "source_url": "https://www.google.com/maps/place/MF+Cartucce+e+Toner+di+Mistroni+Francesco/data=!4m7!3m6!1s0x477e4189d2546699:0x4b042fe7bffd1197!8m2!3d44.6993328!4d11.8082041!16s%2Fg%2F11h6vd0sjg!19sChIJmWZU0olBfkcRlxH9v-cvBEs?authuser=0&hl=tr&rclk=1",
    "website_url": "",
    "rating_text": "4,4",
    "stars": null,
    "number_of_reviews": null,
    "price_level": "",
    "open_hours": "",
    "extraction_timestamp": "2025-06-07T16:33:31.197Z",
    "source_name": "google",
    "source_query": "Irrigation Equipment",
    "source_country": "IT",
    "country": "Italy",
    "state": "Emilia-Romagna",
    "city": "Portomaggiore"
  },
  {
    "source_id": "ChIJ_SYf2IMsfkcRVw9xVhrnjyI",
    "name": "Irrigazione Bragaglia",
    "category": "Irrigazione Bragaglia",
    "formatted_address": "4,7(30)",
    "phone_number": "+39051534865",
    "source_url": "https://www.google.com/maps/place/Irrigazione+Bragaglia/data=!4m7!3m6!1s0x477e2c83d81f26fd:0x228fe71a56710f57!8m2!3d44.5053735!4d11.412403!16s%2Fg%2F1vp6z0gf!19sChIJ_SYf2IMsfkcRVw9xVhrnjyI?authuser=0&hl=tr&rclk=1",
    "website_url": "http://www.irrigazionebragaglia.it/",
    "rating_text": "4,7",
    "stars": null,
    "number_of_reviews": null,
    "price_level": "",
    "open_hours": "",
    "extraction_timestamp": "2025-06-07T16:33:31.198Z",
    "source_name": "google",
    "source_query": "Irrigation Equipment",
    "source_country": "IT",
    "country": "Italy",
    "state": "Emilia-Romagna",
    "city": "Portomaggiore"
  },
  {
    "source_id": "ChIJlWNlfQFBfkcR1l5fyHWG4Z4",
    "name": "EURONICS POINT - DIOLI",
    "category": "EURONICS POINT - DIOLI",
    "formatted_address": "4,4(46)",
    "phone_number": "+390532812188",
    "source_url": "https://www.google.com/maps/place/EURONICS+POINT+-+DIOLI/data=!4m7!3m6!1s0x477e41017d656395:0x9ee18675c85f5ed6!8m2!3d44.7001598!4d11.8124382!16s%2Fg%2F11fjz9sf_r!19sChIJlWNlfQFBfkcR1l5fyHWG4Z4?authuser=0&hl=tr&rclk=1",
    "website_url": "",
    "rating_text": "4,4",
    "stars": null,
    "number_of_reviews": null,
    "price_level": "",
    "open_hours": "",
    "extraction_timestamp": "2025-06-07T16:33:31.200Z",
    "source_name": "google",
    "source_query": "Irrigation Equipment",
    "source_country": "IT",
    "country": "Italy",
    "state": "Emilia-Romagna",
    "city": "Portomaggiore"
  },
  {
    "source_id": "ChIJh3Nd8G0sfkcR_m7VewEmxXM",
    "name": "Irrigarden",
    "category": "Irrigarden",
    "formatted_address": "4,7(158)",
    "phone_number": "+39051782013",
    "source_url": "https://www.google.com/maps/place/Irrigarden/data=!4m7!3m6!1s0x477e2c6df05d7387:0x73c526017bd56efe!8m2!3d44.5096266!4d11.4390897!16s%2Fg%2F1vgw_l7w!19sChIJh3Nd8G0sfkcR_m7VewEmxXM?authuser=0&hl=tr&rclk=1",
    "website_url": "https://www.irrigarden-bo.it/",
    "rating_text": "4,7",
    "stars": null,
    "number_of_reviews": null,
    "price_level": "",
    "open_hours": "",
    "extraction_timestamp": "2025-06-07T16:33:31.202Z",
    "source_name": "google",
    "source_query": "Irrigation Equipment",
    "source_country": "IT",
    "country": "Italy",
    "state": "Emilia-Romagna",
    "city": "Portomaggiore"
  },
  {
    "source_id": "ChIJQ8fJol1SKxMRShirn3slxH4",
    "name": "Tecnir",
    "category": "Tecnir",
    "formatted_address": "4,4(17)",
    "phone_number": "+390546641026",
    "source_url": "https://www.google.com/maps/place/Tecnir/data=!4m7!3m6!1s0x132b525da2c9c743:0x7ec4257b9fab184a!8m2!3d44.363732!4d11.935557!16s%2Fg%2F1vfps_3m!19sChIJQ8fJol1SKxMRShirn3slxH4?authuser=0&hl=tr&rclk=1",
    "website_url": "https://www.tecnirirrigazione.it/",
    "rating_text": "4,4",
    "stars": null,
    "number_of_reviews": null,
    "price_level": "",
    "open_hours": "",
    "extraction_timestamp": "2025-06-07T16:33:31.203Z",
    "source_name": "google",
    "source_query": "Irrigation Equipment",
    "source_country": "IT",
    "country": "Italy",
    "state": "Emilia-Romagna",
    "city": "Portomaggiore"
  },
  {
    "source_id": "ChIJZ-ptQ_jHk6oRoSE8Bi0A69U",
    "name": "MCP - Trattamento Acqua",
    "category": "MCP - Trattamento Acqua",
    "formatted_address": "",
    "phone_number": "+393385255156",
    "source_url": "https://www.google.com/maps/place/MCP+-+Trattamento+Acqua/data=!4m7!3m6!1s0xaa93c7f8436dea67:0xd5eb002d063c21a1!8m2!3d41.29085!4d12.71216!16s%2Fg%2F11wwnqdy84!19sChIJZ-ptQ_jHk6oRoSE8Bi0A69U?authuser=0&hl=tr&rclk=1",
    "website_url": "",
    "rating_text": "",
    "stars": null,
    "number_of_reviews": null,
    "price_level": "",
    "open_hours": "",
    "extraction_timestamp": "2025-06-07T16:33:31.204Z",
    "source_name": "google",
    "source_query": "Irrigation Equipment",
    "source_country": "IT",
    "country": "Italy",
    "state": "Emilia-Romagna",
    "city": "Portomaggiore"
  },
  {
    "source_id": "ChIJtVDkNgRFgEcRqc6umwWIJuI",
    "name": "Rm Spa",
    "category": "Rm Spa",
    "formatted_address": "4,6(81)",
    "phone_number": "+390521872321",
    "source_url": "https://www.google.com/maps/place/Rm+Spa/data=!4m7!3m6!1s0x4780450436e450b5:0xe22688059baecea9!8m2!3d44.9105406!4d10.2583785!16s%2Fg%2F12hl93byl!19sChIJtVDkNgRFgEcRqc6umwWIJuI?authuser=0&hl=tr&rclk=1",
    "website_url": "http://www.rmirrigation.com/",
    "rating_text": "4,6",
    "stars": null,
    "number_of_reviews": null,
    "price_level": "",
    "open_hours": "",
    "extraction_timestamp": "2025-06-07T16:33:31.206Z",
    "source_name": "google",
    "source_query": "Irrigation Equipment",
    "source_country": "IT",
    "country": "Italy",
    "state": "Emilia-Romagna",
    "city": "Portomaggiore"
  },
  {
    "source_id": "ChIJpevHcRVAfkcRpqk3r5kRsXw",
    "name": "Lidl",
    "category": "Lidl",
    "formatted_address": "4,0(601)",
    "phone_number": "+39800480048",
    "source_url": "https://www.google.com/maps/place/Lidl/data=!4m7!3m6!1s0x477e401571c7eba5:0x7cb11199af37a9a6!8m2!3d44.7000604!4d11.8078284!16s%2Fg%2F11c44dldv0!19sChIJpevHcRVAfkcRpqk3r5kRsXw?authuser=0&hl=tr&rclk=1",
    "website_url": "https://www.lidl.it/",
    "rating_text": "4,0",
    "stars": null,
    "number_of_reviews": null,
    "price_level": "",
    "open_hours": "",
    "extraction_timestamp": "2025-06-07T16:33:31.207Z",
    "source_name": "google",
    "source_query": "Irrigation Equipment",
    "source_country": "IT",
    "country": "Italy",
    "state": "Emilia-Romagna",
    "city": "Portomaggiore"
  }
]
