[
  {
    "source_id": "ChIJ5Vsm_QQ9gEcR6lkBB0i_jyc",
    "name": "Geofarm Srl Poviglio",
    "category": "Geofarm Srl Poviglio",
    "formatted_address": "4,5(84)",
    "phone_number": "+390522967042",
    "source_url": "https://www.google.com/maps/place/Geofarm+Srl+Poviglio/data=!4m7!3m6!1s0x47803d04fd265be5:0x278fbf48070159ea!8m2!3d44.8445297!4d10.5200061!16s%2Fg%2F1tkc0z92!19sChIJ5Vsm_QQ9gEcR6lkBB0i_jyc?authuser=0&hl=tr&rclk=1",
    "website_url": "http://www.geofarmgarden.com/",
    "rating_text": "4,5",
    "stars": null,
    "number_of_reviews": null,
    "price_level": "",
    "open_hours": "",
    "extraction_timestamp": "2025-06-07T16:53:09.188Z",
    "source_name": "google",
    "source_query": "Irrigation Equipment",
    "source_country": "IT",
    "country": "Italy",
    "state": "Emilia-Romagna",
    "city": "Poviglio"
  },
  {
    "source_id": "ChIJzWyZEf8dgEcRM0sVtbJE3TI",
    "name": "Impiantistica LAVONE",
    "category": "Impiantistica LAVONE",
    "formatted_address": "5,0(3)",
    "phone_number": "+393514759408",
    "source_url": "https://www.google.com/maps/place/Impiantistica+LAVONE/data=!4m7!3m6!1s0x47801dff11996ccd:0x32dd44b2b5154b33!8m2!3d44.7120611!4d10.6241549!16s%2Fg%2F11lp1gdrnd!19sChIJzWyZEf8dgEcRM0sVtbJE3TI?authuser=0&hl=tr&rclk=1",
    "website_url": "",
    "rating_text": "5,0",
    "stars": null,
    "number_of_reviews": null,
    "price_level": "",
    "open_hours": "",
    "extraction_timestamp": "2025-06-07T16:53:09.189Z",
    "source_name": "google",
    "source_query": "Irrigation Equipment",
    "source_country": "IT",
    "country": "Italy",
    "state": "Emilia-Romagna",
    "city": "Poviglio"
  },
  {
    "source_id": "ChIJJw8zDgsYgEcRb4fhCyV5QXo",
    "name": "Speroni S.p.A. - Water Pumps",
    "category": "Speroni S.p.A. - Water Pumps",
    "formatted_address": "4,6(135)",
    "phone_number": "+390522487011",
    "source_url": "https://www.google.com/maps/place/Speroni+S.p.A.+-+Water+Pumps/data=!4m7!3m6!1s0x4780180b0e330f27:0x7a4179250be1876f!8m2!3d44.7991725!4d10.5714246!16s%2Fg%2F1tr9m89z!19sChIJJw8zDgsYgEcRb4fhCyV5QXo?authuser=0&hl=tr&rclk=1",
    "website_url": "https://www.speroni.it/",
    "rating_text": "4,6",
    "stars": null,
    "number_of_reviews": null,
    "price_level": "",
    "open_hours": "",
    "extraction_timestamp": "2025-06-07T16:53:09.190Z",
    "source_name": "google",
    "source_query": "Irrigation Equipment",
    "source_country": "IT",
    "country": "Italy",
    "state": "Emilia-Romagna",
    "city": "Poviglio"
  },
  {
    "source_id": "ChIJPU3Kg54XgEcRRH9cIT6-ZQ8",
    "name": "Sae Tecnology S.R.L. Soluzioni Trattamento Acque",
    "category": "Sae Tecnology S.R.L. Soluzioni Trattamento Acque",
    "formatted_address": "4,9(173)",
    "phone_number": "+390522676796",
    "source_url": "https://www.google.com/maps/place/Sae+Tecnology+S.R.L.+Soluzioni+Trattamento+Acque/data=!4m7!3m6!1s0x4780179e83ca4d3d:0xf65be3e215c7f44!8m2!3d44.775246!4d10.5151594!16s%2Fg%2F11b6hy9gf1!19sChIJPU3Kg54XgEcRRH9cIT6-ZQ8?authuser=0&hl=tr&rclk=1",
    "website_url": "https://www.saedepuratori.it/",
    "rating_text": "4,9",
    "stars": null,
    "number_of_reviews": null,
    "price_level": "",
    "open_hours": "",
    "extraction_timestamp": "2025-06-07T16:53:09.191Z",
    "source_name": "google",
    "source_query": "Irrigation Equipment",
    "source_country": "IT",
    "country": "Italy",
    "state": "Emilia-Romagna",
    "city": "Poviglio"
  },
  {
    "source_id": "ChIJCSPKTpQ8gEcR5v3MgofNtYc",
    "name": "Rainbow Irrigazione",
    "category": "Rainbow Irrigazione",
    "formatted_address": "3,8(5)",
    "phone_number": "+390522969903",
    "source_url": "https://www.google.com/maps/place/Rainbow+Irrigazione/data=!4m7!3m6!1s0x47803c944eca2309:0x87b5cd8782ccfde6!8m2!3d44.8714903!4d10.5420231!16s%2Fg%2F1tk9pmd5!19sChIJCSPKTpQ8gEcR5v3MgofNtYc?authuser=0&hl=tr&rclk=1",
    "website_url": "",
    "rating_text": "3,8",
    "stars": null,
    "number_of_reviews": null,
    "price_level": "",
    "open_hours": "",
    "extraction_timestamp": "2025-06-07T16:53:09.192Z",
    "source_name": "google",
    "source_query": "Irrigation Equipment",
    "source_country": "IT",
    "country": "Italy",
    "state": "Emilia-Romagna",
    "city": "Poviglio"
  },
  {
    "source_id": "ChIJcQG6ul7df0cR3VxKiu5OPBs",
    "name": "Scova Impianti Srl",
    "category": "Scova Impianti Srl",
    "formatted_address": "4,5(64)",
    "phone_number": "+39059923202",
    "source_url": "https://www.google.com/maps/place/Scova+Impianti+Srl/data=!4m7!3m6!1s0x477fdd5ebaba0171:0x1b3c4eee8a4a5cdd!8m2!3d44.6018135!4d11.032294!16s%2Fg%2F1tfzwbfb!19sChIJcQG6ul7df0cR3VxKiu5OPBs?authuser=0&hl=tr&rclk=1",
    "website_url": "https://www.scovaimpianti.com/",
    "rating_text": "4,5",
    "stars": null,
    "number_of_reviews": null,
    "price_level": "",
    "open_hours": "",
    "extraction_timestamp": "2025-06-07T16:53:09.193Z",
    "source_name": "google",
    "source_query": "Irrigation Equipment",
    "source_country": "IT",
    "country": "Italy",
    "state": "Emilia-Romagna",
    "city": "Poviglio"
  },
  {
    "source_id": "ChIJuzHNyiY9gEcRuu7mSAX3Vv8",
    "name": "Saccani Ferramenta snc di Saccani Bruno & C.",
    "category": "Saccani Ferramenta snc di Saccani Bruno & C.",
    "formatted_address": "4,6(152)",
    "phone_number": "+390522969372",
    "source_url": "https://www.google.com/maps/place/Saccani+Ferramenta+snc+di+Saccani+Bruno+%26+C./data=!4m7!3m6!1s0x47803d26cacd31bb:0xff56f70548e6eeba!8m2!3d44.8459595!4d10.541871!16s%2Fg%2F1tf68xfm!19sChIJuzHNyiY9gEcRuu7mSAX3Vv8?authuser=0&hl=tr&rclk=1",
    "website_url": "",
    "rating_text": "4,6",
    "stars": null,
    "number_of_reviews": null,
    "price_level": "",
    "open_hours": "",
    "extraction_timestamp": "2025-06-07T16:53:09.194Z",
    "source_name": "google",
    "source_query": "Irrigation Equipment",
    "source_country": "IT",
    "country": "Italy",
    "state": "Emilia-Romagna",
    "city": "Poviglio"
  },
  {
    "source_id": "ChIJR0cLXhQkgEcRi9oI9GALzlg",
    "name": "IRRILAND",
    "category": "IRRILAND",
    "formatted_address": "4,0(4)",
    "phone_number": "+390522831544",
    "source_url": "https://www.google.com/maps/place/IRRILAND/data=!4m7!3m6!1s0x478024145e0b4747:0x58ce0b60f408da8b!8m2!3d44.891987!4d10.650983!16s%2Fg%2F1tczjb0h!19sChIJR0cLXhQkgEcRi9oI9GALzlg?authuser=0&hl=tr&rclk=1",
    "website_url": "http://www.irriland.it/",
    "rating_text": "4,0",
    "stars": null,
    "number_of_reviews": null,
    "price_level": "",
    "open_hours": "",
    "extraction_timestamp": "2025-06-07T16:53:09.195Z",
    "source_name": "google",
    "source_query": "Irrigation Equipment",
    "source_country": "IT",
    "country": "Italy",
    "state": "Emilia-Romagna",
    "city": "Poviglio"
  },
  {
    "source_id": "ChIJ_d0-86UigEcRaileQkA2Xvk",
    "name": "Idrostar Sas",
    "category": "Idrostar Sas",
    "formatted_address": "4,8(49)",
    "phone_number": "+393471604393",
    "source_url": "https://www.google.com/maps/place/Idrostar+Sas/data=!4m7!3m6!1s0x478022a5f33eddfd:0xf95e3640425e296a!8m2!3d44.8156625!4d10.560921!16s%2Fg%2F11bc7sxrlg!19sChIJ_d0-86UigEcRaileQkA2Xvk?authuser=0&hl=tr&rclk=1",
    "website_url": "https://www.idrostardepuratori.it/",
    "rating_text": "4,8",
    "stars": null,
    "number_of_reviews": null,
    "price_level": "",
    "open_hours": "",
    "extraction_timestamp": "2025-06-07T16:53:09.196Z",
    "source_name": "google",
    "source_query": "Irrigation Equipment",
    "source_country": "IT",
    "country": "Italy",
    "state": "Emilia-Romagna",
    "city": "Poviglio"
  },
  {
    "source_id": "ChIJa30wiigXgEcRs_I6dZm5x4o",
    "name": "Interpump Group S.p.A.",
    "category": "Interpump Group S.p.A.",
    "formatted_address": "4,0(13)",
    "phone_number": "+390522904311",
    "source_url": "https://www.google.com/maps/place/Interpump+Group+S.p.A./data=!4m7!3m6!1s0x478017288a307d6b:0x8ac7b999753af2b3!8m2!3d44.7510122!4d10.4807515!16s%2Fg%2F1v6l6bq9!19sChIJa30wiigXgEcRs_I6dZm5x4o?authuser=0&hl=tr&rclk=1",
    "website_url": "http://www.interpumpgroup.it/",
    "rating_text": "4,0",
    "stars": null,
    "number_of_reviews": null,
    "price_level": "",
    "open_hours": "",
    "extraction_timestamp": "2025-06-07T16:53:09.197Z",
    "source_name": "google",
    "source_query": "Irrigation Equipment",
    "source_country": "IT",
    "country": "Italy",
    "state": "Emilia-Romagna",
    "city": "Poviglio"
  },
  {
    "source_id": "ChIJF3F-VDA9gEcR0h-mrBl7Lk0",
    "name": "Tagliani Sas - Produttore di articoli per la pulizia",
    "category": "Tagliani Sas - Produttore di articoli per la pulizia",
    "formatted_address": "Üretici ·  · Via Romana, 52Kapalı ⋅ Açılış zamanı: Pzt 08:00 · +39 0522 969252",
    "phone_number": "+390522969252",
    "source_url": "https://www.google.com/maps/place/Tagliani+Sas+-+Produttore+di+articoli+per+la+pulizia/data=!4m7!3m6!1s0x47803d30547e7117:0x4d2e7b19aca61fd2!8m2!3d44.8367025!4d10.5487054!16s%2Fg%2F1hc1tf4lb!19sChIJF3F-VDA9gEcR0h-mrBl7Lk0?authuser=0&hl=tr&rclk=1",
    "website_url": "http://www.tagliani.it/",
    "rating_text": "",
    "stars": null,
    "number_of_reviews": null,
    "price_level": "",
    "open_hours": "",
    "extraction_timestamp": "2025-06-07T16:53:09.197Z",
    "source_name": "google",
    "source_query": "Irrigation Equipment",
    "source_country": "IT",
    "country": "Italy",
    "state": "Emilia-Romagna",
    "city": "Poviglio"
  },
  {
    "source_id": "ChIJf7K7J70igEcRcuy1LHej7q8",
    "name": "Ferroni Srl",
    "category": "Ferroni Srl",
    "formatted_address": "3,7(6)",
    "phone_number": "+390522682484",
    "source_url": "https://www.google.com/maps/place/Ferroni+Srl/data=!4m7!3m6!1s0x478022bd27bbb27f:0xafeea3772cb5ec72!8m2!3d44.8189133!4d10.5704138!16s%2Fg%2F1tfqk72n!19sChIJf7K7J70igEcRcuy1LHej7q8?authuser=0&hl=tr&rclk=1",
    "website_url": "https://www.ferroni-srl.com/",
    "rating_text": "3,7",
    "stars": null,
    "number_of_reviews": null,
    "price_level": "",
    "open_hours": "",
    "extraction_timestamp": "2025-06-07T16:53:09.198Z",
    "source_name": "google",
    "source_query": "Irrigation Equipment",
    "source_country": "IT",
    "country": "Italy",
    "state": "Emilia-Romagna",
    "city": "Poviglio"
  },
  {
    "source_id": "ChIJ61ba_mY8gEcRTcX6QZsTcUU",
    "name": "Officina Dallafiora srls costruzione riparazione e manutenzione macchine agricole",
    "category": "Officina Dallafiora srls costruzione riparazione e manutenzione macchine agricole",
    "formatted_address": "5,0(3)",
    "phone_number": "+390522969787",
    "source_url": "https://www.google.com/maps/place/Officina+Dallafiora+srls+costruzione+riparazione+e+manutenzione+macchine+agricole/data=!4m7!3m6!1s0x47803c66feda56eb:0x4571139b41fac54d!8m2!3d44.8454412!4d10.5108368!16s%2Fg%2F1ptwsb6r1!19sChIJ61ba_mY8gEcRTcX6QZsTcUU?authuser=0&hl=tr&rclk=1",
    "website_url": "http://www.officinadallafiora.it/",
    "rating_text": "5,0",
    "stars": null,
    "number_of_reviews": null,
    "price_level": "",
    "open_hours": "",
    "extraction_timestamp": "2025-06-07T16:53:09.200Z",
    "source_name": "google",
    "source_query": "Irrigation Equipment",
    "source_country": "IT",
    "country": "Italy",
    "state": "Emilia-Romagna",
    "city": "Poviglio"
  },
  {
    "source_id": "ChIJtVDkNgRFgEcRqc6umwWIJuI",
    "name": "Rm Spa",
    "category": "Rm Spa",
    "formatted_address": "4,6(81)",
    "phone_number": "+390521872321",
    "source_url": "https://www.google.com/maps/place/Rm+Spa/data=!4m7!3m6!1s0x4780450436e450b5:0xe22688059baecea9!8m2!3d44.9105406!4d10.2583785!16s%2Fg%2F12hl93byl!19sChIJtVDkNgRFgEcRqc6umwWIJuI?authuser=0&hl=tr&rclk=1",
    "website_url": "http://www.rmirrigation.com/",
    "rating_text": "4,6",
    "stars": null,
    "number_of_reviews": null,
    "price_level": "",
    "open_hours": "",
    "extraction_timestamp": "2025-06-07T16:53:09.201Z",
    "source_name": "google",
    "source_query": "Irrigation Equipment",
    "source_country": "IT",
    "country": "Italy",
    "state": "Emilia-Romagna",
    "city": "Poviglio"
  },
  {
    "source_id": "ChIJ8S_H450fgEcRen1BwvkupIc",
    "name": "Agro-system Snc di Bassoli - Piscine e Macchine giardino - Reggio Emilia",
    "category": "Agro-system Snc di Bassoli - Piscine e Macchine giardino - Reggio Emilia",
    "formatted_address": "4,6(88)",
    "phone_number": "+390522954100",
    "source_url": "https://www.google.com/maps/place/Agro-system+Snc+di+Bassoli+-+Piscine+e+Macchine+giardino+-+Reggio+Emilia/data=!4m7!3m6!1s0x47801f9de3c72ff1:0x87a42ef9c2417d7a!8m2!3d44.797091!4d10.686568!16s%2Fg%2F1tfb5f45!19sChIJ8S_H450fgEcRen1BwvkupIc?authuser=0&hl=tr&rclk=1",
    "website_url": "https://agrosystem.info/",
    "rating_text": "4,6",
    "stars": null,
    "number_of_reviews": null,
    "price_level": "",
    "open_hours": "",
    "extraction_timestamp": "2025-06-07T16:53:09.202Z",
    "source_name": "google",
    "source_query": "Irrigation Equipment",
    "source_country": "IT",
    "country": "Italy",
    "state": "Emilia-Romagna",
    "city": "Poviglio"
  },
  {
    "source_id": "ChIJ92_dOrU7gEcReBl9RwrRL6s",
    "name": "SISTEMA",
    "category": "SISTEMA",
    "formatted_address": "3,6(5)",
    "phone_number": "+3905221750007",
    "source_url": "https://www.google.com/maps/place/SISTEMA/data=!4m7!3m6!1s0x47803bb53add6ff7:0xab2fd10a477d1978!8m2!3d44.7990606!4d10.5653558!16s%2Fg%2F11r2hbkl1w!19sChIJ92_dOrU7gEcReBl9RwrRL6s?authuser=0&hl=tr&rclk=1",
    "website_url": "https://sistema.it/",
    "rating_text": "3,6",
    "stars": null,
    "number_of_reviews": null,
    "price_level": "",
    "open_hours": "",
    "extraction_timestamp": "2025-06-07T16:53:09.203Z",
    "source_name": "google",
    "source_query": "Irrigation Equipment",
    "source_country": "IT",
    "country": "Italy",
    "state": "Emilia-Romagna",
    "city": "Poviglio"
  },
  {
    "source_id": "ChIJK5acGzQ9gEcR64DEUvHgw2Y",
    "name": "BRICOLIN",
    "category": "BRICOLIN",
    "formatted_address": "3,8(378)",
    "phone_number": "+390522486415",
    "source_url": "https://www.google.com/maps/place/BRICOLIN/data=!4m7!3m6!1s0x47803d341b9c962b:0x66c3e0f152c480eb!8m2!3d44.8364932!4d10.5490449!16s%2Fg%2F11fzyvw9x6!19sChIJK5acGzQ9gEcR64DEUvHgw2Y?authuser=0&hl=tr&rclk=1",
    "website_url": "https://www.facebook.com/BRICOLINsuperstore/",
    "rating_text": "3,8",
    "stars": null,
    "number_of_reviews": null,
    "price_level": "",
    "open_hours": "",
    "extraction_timestamp": "2025-06-07T16:53:09.204Z",
    "source_name": "google",
    "source_query": "Irrigation Equipment",
    "source_country": "IT",
    "country": "Italy",
    "state": "Emilia-Romagna",
    "city": "Poviglio"
  },
  {
    "source_id": "ChIJ47vrYT09gEcRh8jIUNjKoyQ",
    "name": "Rainbow Irrigazione Srl",
    "category": "Rainbow Irrigazione Srl",
    "formatted_address": "Tarım Makineleri İmalatçısı ·  · Via Grande, 69+39 0522 969903",
    "phone_number": "+390522969903",
    "source_url": "https://www.google.com/maps/place/Rainbow+Irrigazione+Srl/data=!4m7!3m6!1s0x47803d3d61ebbbe3:0x24a3cad850c8c887!8m2!3d44.8592119!4d10.5548889!16s%2Fg%2F11n8tt08yf!19sChIJ47vrYT09gEcRh8jIUNjKoyQ?authuser=0&hl=tr&rclk=1",
    "website_url": "",
    "rating_text": "",
    "stars": null,
    "number_of_reviews": null,
    "price_level": "",
    "open_hours": "",
    "extraction_timestamp": "2025-06-07T16:53:09.204Z",
    "source_name": "google",
    "source_query": "Irrigation Equipment",
    "source_country": "IT",
    "country": "Italy",
    "state": "Emilia-Romagna",
    "city": "Poviglio"
  },
  {
    "source_id": "ChIJFSaz0so9gEcRNlJ1MXpRUhw",
    "name": "NEWPOVILIMPIANTI SRL",
    "category": "NEWPOVILIMPIANTI SRL",
    "formatted_address": "",
    "phone_number": "+393477872793",
    "source_url": "https://www.google.com/maps/place/NEWPOVILIMPIANTI+SRL/data=!4m7!3m6!1s0x47803dcad2b32615:0x1c52517a31755236!8m2!3d41.29085!4d12.71216!16s%2Fg%2F11b6j0h0ts!19sChIJFSaz0so9gEcRNlJ1MXpRUhw?authuser=0&hl=tr&rclk=1",
    "website_url": "",
    "rating_text": "",
    "stars": null,
    "number_of_reviews": null,
    "price_level": "",
    "open_hours": "",
    "extraction_timestamp": "2025-06-07T16:53:09.205Z",
    "source_name": "google",
    "source_query": "Irrigation Equipment",
    "source_country": "IT",
    "country": "Italy",
    "state": "Emilia-Romagna",
    "city": "Poviglio"
  },
  {
    "source_id": "ChIJveAeFroEgEcRZfa9xqlB6vM",
    "name": "Morelli Irrigazioni",
    "category": "Morelli Irrigazioni",
    "formatted_address": "1,0(1)",
    "phone_number": "+393480042122",
    "source_url": "https://www.google.com/maps/place/Morelli+Irrigazioni/data=!4m7!3m6!1s0x478004ba161ee0bd:0xf3ea41a9c6bdf665!8m2!3d44.649256!4d10.5636837!16s%2Fg%2F11gy01p0bd!19sChIJveAeFroEgEcRZfa9xqlB6vM?authuser=0&hl=tr&rclk=1",
    "website_url": "http://irrigazionimorelli.it/",
    "rating_text": "1,0",
    "stars": null,
    "number_of_reviews": null,
    "price_level": "",
    "open_hours": "",
    "extraction_timestamp": "2025-06-07T16:53:09.206Z",
    "source_name": "google",
    "source_query": "Irrigation Equipment",
    "source_country": "IT",
    "country": "Italy",
    "state": "Emilia-Romagna",
    "city": "Poviglio"
  }
]
