[
  {
    "source_id": "ChIJO1kw4n9eKxMRCM0df8Z3zCQ",
    "name": "Pippo Olimpico Sport di Proli Sauro",
    "category": "Pippo Olimpico Sport di Proli Sauro",
    "formatted_address": "4,8(145)",
    "phone_number": "+390543923039",
    "source_url": "https://www.google.com/maps/place/Pippo+Olimpico+Sport+di+Proli+Sauro/data=!4m7!3m6!1s0x132b5e7fe230593b:0x24cc77c67f1dcd08!8m2!3d44.1075398!4d11.9814198!16s%2Fg%2F1hc18hlxy!19sChIJO1kw4n9eKxMRCM0df8Z3zCQ?authuser=0&hl=tr&rclk=1",
    "website_url": "",
    "rating_text": "4,8",
    "stars": null,
    "number_of_reviews": null,
    "price_level": "",
    "open_hours": "",
    "extraction_timestamp": "2025-06-07T16:57:09.304Z",
    "source_name": "google",
    "source_query": "Irrigation Equipment",
    "source_country": "IT",
    "country": "Italy",
    "state": "Emilia-Romagna",
    "city": "Predappio"
  },
  {
    "source_id": "ChIJe7rPICpcKxMRPGd6NLD5hiA",
    "name": "Energy Now",
    "category": "Energy Now",
    "formatted_address": "4,7(9)",
    "phone_number": "+390543922506",
    "source_url": "https://www.google.com/maps/place/Energy+Now/data=!4m7!3m6!1s0x132b5c2a20cfba7b:0x2086f9b0347a673c!8m2!3d44.1121473!4d11.9785382!16s%2Fg%2F11cn3qlly8!19sChIJe7rPICpcKxMRPGd6NLD5hiA?authuser=0&hl=tr&rclk=1",
    "website_url": "",
    "rating_text": "4,7",
    "stars": null,
    "number_of_reviews": null,
    "price_level": "",
    "open_hours": "",
    "extraction_timestamp": "2025-06-07T16:57:09.306Z",
    "source_name": "google",
    "source_query": "Irrigation Equipment",
    "source_country": "IT",
    "country": "Italy",
    "state": "Emilia-Romagna",
    "city": "Predappio"
  },
  {
    "source_id": "ChIJxaF4ICpcKxMROtcWU8Gkk_g",
    "name": "Camporesi Elvezio & Giardini Mauro Snc",
    "category": "Camporesi Elvezio & Giardini Mauro Snc",
    "formatted_address": "3,3(3)",
    "phone_number": "+390543922506",
    "source_url": "https://www.google.com/maps/place/Camporesi+Elvezio+%26+Giardini+Mauro+Snc/data=!4m7!3m6!1s0x132b5c2a2078a1c5:0xf893a4c15316d73a!8m2!3d44.1121362!4d11.9785814!16s%2Fg%2F1tkzjnc8!19sChIJxaF4ICpcKxMROtcWU8Gkk_g?authuser=0&hl=tr&rclk=1",
    "website_url": "",
    "rating_text": "3,3",
    "stars": null,
    "number_of_reviews": null,
    "price_level": "",
    "open_hours": "",
    "extraction_timestamp": "2025-06-07T16:57:09.308Z",
    "source_name": "google",
    "source_query": "Irrigation Equipment",
    "source_country": "IT",
    "country": "Italy",
    "state": "Emilia-Romagna",
    "city": "Predappio"
  },
  {
    "source_id": "ChIJy4AVn9C-LBMRn6nsnuZl82A",
    "name": "Ramilli Irrigazioni S.R.L.",
    "category": "Ramilli Irrigazioni S.R.L.",
    "formatted_address": "4,3(52)",
    "phone_number": "+390541945335",
    "source_url": "https://www.google.com/maps/place/Ramilli+Irrigazioni+S.R.L./data=!4m7!3m6!1s0x132cbed09f1580cb:0x60f365e69eeca99f!8m2!3d44.0923156!4d12.3843691!16s%2Fg%2F1ts2ls1r!19sChIJy4AVn9C-LBMRn6nsnuZl82A?authuser=0&hl=tr&rclk=1",
    "website_url": "",
    "rating_text": "4,3",
    "stars": null,
    "number_of_reviews": null,
    "price_level": "",
    "open_hours": "",
    "extraction_timestamp": "2025-06-07T16:57:09.310Z",
    "source_name": "google",
    "source_query": "Irrigation Equipment",
    "source_country": "IT",
    "country": "Italy",
    "state": "Emilia-Romagna",
    "city": "Predappio"
  },
  {
    "source_id": "ChIJhRaJyjJXKxMR6i4Y72gCAKs",
    "name": "Bagioni Archimede - Husqvarna Professional",
    "category": "Bagioni Archimede - Husqvarna Professional",
    "formatted_address": "4,4(131)",
    "phone_number": "+390543756178",
    "source_url": "https://www.google.com/maps/place/Bagioni+Archimede+-+Husqvarna+Professional/data=!4m7!3m6!1s0x132b5732ca891685:0xab000268ef182eea!8m2!3d44.246768!4d11.980808!16s%2Fg%2F1tk5ql95!19sChIJhRaJyjJXKxMR6i4Y72gCAKs?authuser=0&hl=tr&rclk=1",
    "website_url": "",
    "rating_text": "4,4",
    "stars": null,
    "number_of_reviews": null,
    "price_level": "",
    "open_hours": "",
    "extraction_timestamp": "2025-06-07T16:57:09.312Z",
    "source_name": "google",
    "source_query": "Irrigation Equipment",
    "source_country": "IT",
    "country": "Italy",
    "state": "Emilia-Romagna",
    "city": "Predappio"
  },
  {
    "source_id": "ChIJbe6-WOFXKxMRK2ggb9TRbow",
    "name": "Idro Zeta - Magazzino - Forlì",
    "category": "Idro Zeta - Magazzino - Forlì",
    "formatted_address": "4,2(42)",
    "phone_number": "+390543802711",
    "source_url": "https://www.google.com/maps/place/Idro+Zeta+-+Magazzino+-+Forl%C3%AC/data=!4m7!3m6!1s0x132b57e158beee6d:0x8c6ed1d46f20682b!8m2!3d44.2230296!4d12.0695581!16s%2Fg%2F1hhwshbhd!19sChIJbe6-WOFXKxMRK2ggb9TRbow?authuser=0&hl=tr&rclk=1",
    "website_url": "",
    "rating_text": "4,2",
    "stars": null,
    "number_of_reviews": null,
    "price_level": "",
    "open_hours": "",
    "extraction_timestamp": "2025-06-07T16:57:09.313Z",
    "source_name": "google",
    "source_query": "Irrigation Equipment",
    "source_country": "IT",
    "country": "Italy",
    "state": "Emilia-Romagna",
    "city": "Predappio"
  },
  {
    "source_id": "ChIJp2S7lX9eKxMRy4LYMFK7J2M",
    "name": "Camporesi Vittorio",
    "category": "Camporesi Vittorio",
    "formatted_address": "5,0(8)",
    "phone_number": "+390543922269",
    "source_url": "https://www.google.com/maps/place/Camporesi+Vittorio/data=!4m7!3m6!1s0x132b5e7f95bb64a7:0x6327bb5230d882cb!8m2!3d44.1063649!4d11.981837!16s%2Fg%2F1hc3rw8fx!19sChIJp2S7lX9eKxMRy4LYMFK7J2M?authuser=0&hl=tr&rclk=1",
    "website_url": "",
    "rating_text": "5,0",
    "stars": null,
    "number_of_reviews": null,
    "price_level": "",
    "open_hours": "",
    "extraction_timestamp": "2025-06-07T16:57:09.314Z",
    "source_name": "google",
    "source_query": "Irrigation Equipment",
    "source_country": "IT",
    "country": "Italy",
    "state": "Emilia-Romagna",
    "city": "Predappio"
  },
  {
    "source_id": "ChIJ2ZCgtnNXKxMRvE4eP6gKPu8",
    "name": "Bagioni Alfiero Snc Di Bagioni Aurenzo E Antonella",
    "category": "Bagioni Alfiero Snc Di Bagioni Aurenzo E Antonella",
    "formatted_address": "4,6(78)",
    "phone_number": "+390543703993",
    "source_url": "https://www.google.com/maps/place/Bagioni+Alfiero+Snc+Di+Bagioni+Aurenzo+E+Antonella/data=!4m7!3m6!1s0x132b5773b6a090d9:0xef3e0aa83f1e4ebc!8m2!3d44.2312246!4d12.0185019!16s%2Fg%2F11bc7t932x!19sChIJ2ZCgtnNXKxMRvE4eP6gKPu8?authuser=0&hl=tr&rclk=1",
    "website_url": "",
    "rating_text": "4,6",
    "stars": null,
    "number_of_reviews": null,
    "price_level": "",
    "open_hours": "",
    "extraction_timestamp": "2025-06-07T16:57:09.316Z",
    "source_name": "google",
    "source_query": "Irrigation Equipment",
    "source_country": "IT",
    "country": "Italy",
    "state": "Emilia-Romagna",
    "city": "Predappio"
  },
  {
    "source_id": "ChIJZzqUGABfKxMRJ8A6ByZpNdw",
    "name": "Bio Salute",
    "category": "Bio Salute",
    "formatted_address": "5,0(2)",
    "phone_number": "+393937137133",
    "source_url": "https://www.google.com/maps/place/Bio+Salute/data=!4m7!3m6!1s0x132b5f0018943a67:0xdc356926073ac027!8m2!3d44.1045347!4d11.982413!16s%2Fg%2F11wqqwdtqn!19sChIJZzqUGABfKxMRJ8A6ByZpNdw?authuser=0&hl=tr&rclk=1",
    "website_url": "",
    "rating_text": "5,0",
    "stars": null,
    "number_of_reviews": null,
    "price_level": "",
    "open_hours": "",
    "extraction_timestamp": "2025-06-07T16:57:09.318Z",
    "source_name": "google",
    "source_query": "Irrigation Equipment",
    "source_country": "IT",
    "country": "Italy",
    "state": "Emilia-Romagna",
    "city": "Predappio"
  },
  {
    "source_id": "ChIJFW3XPJejLBMRDpQWGwmYqU4",
    "name": "Raggini Irrigazioni e Robot Tosaerba",
    "category": "Raggini Irrigazioni e Robot Tosaerba",
    "formatted_address": "5,0(1)",
    "phone_number": "+393926808947",
    "source_url": "https://www.google.com/maps/place/Raggini+Irrigazioni+e+Robot+Tosaerba/data=!4m7!3m6!1s0x132ca3973cd76d15:0x4ea998091b16940e!8m2!3d44.36369!4d11.8460774!16s%2Fg%2F11dz0bbs9t!19sChIJFW3XPJejLBMRDpQWGwmYqU4?authuser=0&hl=tr&rclk=1",
    "website_url": "",
    "rating_text": "5,0",
    "stars": null,
    "number_of_reviews": null,
    "price_level": "",
    "open_hours": "",
    "extraction_timestamp": "2025-06-07T16:57:09.319Z",
    "source_name": "google",
    "source_query": "Irrigation Equipment",
    "source_country": "IT",
    "country": "Italy",
    "state": "Emilia-Romagna",
    "city": "Predappio"
  },
  {
    "source_id": "ChIJx2elCYBeKxMRDO1YYzNT6Lg",
    "name": "Svelto Conad nello S.n.c.",
    "category": "Svelto Conad nello S.n.c.",
    "formatted_address": "4,5(81)",
    "phone_number": "+390543923289",
    "source_url": "https://www.google.com/maps/place/Svelto+Conad+nello+S.n.c./data=!4m7!3m6!1s0x132b5e8009a567c7:0xb8e853336358ed0c!8m2!3d44.1071379!4d11.9812319!16s%2Fg%2F1tfhwv6x!19sChIJx2elCYBeKxMRDO1YYzNT6Lg?authuser=0&hl=tr&rclk=1",
    "website_url": "",
    "rating_text": "4,5",
    "stars": null,
    "number_of_reviews": null,
    "price_level": "",
    "open_hours": "",
    "extraction_timestamp": "2025-06-07T16:57:09.320Z",
    "source_name": "google",
    "source_query": "Irrigation Equipment",
    "source_country": "IT",
    "country": "Italy",
    "state": "Emilia-Romagna",
    "city": "Predappio"
  },
  {
    "source_id": "ChIJ62peI39eKxMRKyjfW57ySa8",
    "name": "CONAD",
    "category": "CONAD",
    "formatted_address": "4,2(215)",
    "phone_number": "+390543922105",
    "source_url": "https://www.google.com/maps/place/CONAD/data=!4m7!3m6!1s0x132b5e7f235e6aeb:0xaf49f29e5bdf282b!8m2!3d44.103038!4d11.984735!16s%2Fg%2F11gfd2dtsm!19sChIJ62peI39eKxMRKyjfW57ySa8?authuser=0&hl=tr&rclk=1",
    "website_url": "",
    "rating_text": "4,2",
    "stars": null,
    "number_of_reviews": null,
    "price_level": "",
    "open_hours": "",
    "extraction_timestamp": "2025-06-07T16:57:09.322Z",
    "source_name": "google",
    "source_query": "Irrigation Equipment",
    "source_country": "IT",
    "country": "Italy",
    "state": "Emilia-Romagna",
    "city": "Predappio"
  }
]
