[
  {
    "source_id": "ChIJy805WcDcgEcRtmGWlwosXQc",
    "name": "IRRIMEC SRL",
    "category": "IRRIMEC SRL",
    "formatted_address": "4,5(90)",
    "phone_number": "+390523760441",
    "source_url": "https://www.google.com/maps/place/IRRIMEC+SRL/data=!4m7!3m6!1s0x4780dcc05939cdcb:0x75d2c0a979661b6!8m2!3d45.0612353!4d9.630829!16s%2Fg%2F1tdgt7d_!19sChIJy805WcDcgEcRtmGWlwosXQc?authuser=0&hl=tr&rclk=1",
    "website_url": "http://www.irrimec.com/",
    "rating_text": "4,5",
    "stars": null,
    "number_of_reviews": null,
    "price_level": "",
    "open_hours": "",
    "extraction_timestamp": "2025-06-07T15:57:44.406Z",
    "source_name": "google",
    "source_query": "Irrigation Equipment",
    "source_country": "IT",
    "country": "Italy",
    "state": "Emilia-Romagna",
    "city": "Provincia di Piacenza"
  },
  {
    "source_id": "ChIJCdwQIfbNgEcRtWOzhvtW0iA",
    "name": "Agrimil Tech Srl",
    "category": "Agrimil Tech Srl",
    "formatted_address": "4,8(9)",
    "phone_number": "+390523849679",
    "source_url": "https://www.google.com/maps/place/Agrimil+Tech+Srl/data=!4m7!3m6!1s0x4780cdf62110dc09:0x20d256fb86b363b5!8m2!3d45.0556557!4d9.5030905!16s%2Fg%2F1tdf9z93!19sChIJCdwQIfbNgEcRtWOzhvtW0iA?authuser=0&hl=tr&rclk=1",
    "website_url": "http://www.agrimil.it/",
    "rating_text": "4,8",
    "stars": null,
    "number_of_reviews": null,
    "price_level": "",
    "open_hours": "",
    "extraction_timestamp": "2025-06-07T15:57:44.407Z",
    "source_name": "google",
    "source_query": "Irrigation Equipment",
    "source_country": "IT",
    "country": "Italy",
    "state": "Emilia-Romagna",
    "city": "Provincia di Piacenza"
  },
  {
    "source_id": "ChIJ4WnZNofogEcRcCSJgGupNXk",
    "name": "Irrigarden",
    "category": "Irrigarden",
    "formatted_address": "3,7(6)",
    "phone_number": "+390523592012",
    "source_url": "https://www.google.com/maps/place/Irrigarden/data=!4m7!3m6!1s0x4780e88736d969e1:0x7935a96b80892470!8m2!3d45.0288739!4d9.7384753!16s%2Fg%2F11g4d1r753!19sChIJ4WnZNofogEcRcCSJgGupNXk?authuser=0&hl=tr&rclk=1",
    "website_url": "https://www.irrigarden.com/",
    "rating_text": "3,7",
    "stars": null,
    "number_of_reviews": null,
    "price_level": "",
    "open_hours": "",
    "extraction_timestamp": "2025-06-07T15:57:44.408Z",
    "source_name": "google",
    "source_query": "Irrigation Equipment",
    "source_country": "IT",
    "country": "Italy",
    "state": "Emilia-Romagna",
    "city": "Provincia di Piacenza"
  },
  {
    "source_id": "ChIJcQZuTi3dgEcRccBT5GxQAK0",
    "name": "Ricerca perdite acqua Piacenza",
    "category": "Ricerca perdite acqua Piacenza",
    "formatted_address": "3,0(2)",
    "phone_number": "+3905231798229",
    "source_url": "https://www.google.com/maps/place/Ricerca+perdite+acqua+Piacenza/data=!4m7!3m6!1s0x4780dd2d4e6e0671:0xad00506ce453c071!8m2!3d45.0410049!4d9.694159!16s%2Fg%2F11jz798x8h!19sChIJcQZuTi3dgEcRccBT5GxQAK0?authuser=0&hl=tr&rclk=1",
    "website_url": "https://www.ricercaperditeacqua24.it/ricerca-perdite-acqua-piacenza/",
    "rating_text": "3,0",
    "stars": null,
    "number_of_reviews": null,
    "price_level": "",
    "open_hours": "",
    "extraction_timestamp": "2025-06-07T15:57:44.410Z",
    "source_name": "google",
    "source_query": "Irrigation Equipment",
    "source_country": "IT",
    "country": "Italy",
    "state": "Emilia-Romagna",
    "city": "Provincia di Piacenza"
  },
  {
    "source_id": "ChIJN1atg4npgEcRZvz-ElSIojc",
    "name": "Ecotek srl",
    "category": "Ecotek srl",
    "formatted_address": "4,7(15)",
    "phone_number": "+390523593386",
    "source_url": "https://www.google.com/maps/place/Ecotek+srl/data=!4m7!3m6!1s0x4780e98983ad5637:0x37a2885412fefc66!8m2!3d45.0368303!4d9.704905!16s%2Fg%2F11f70_71yz!19sChIJN1atg4npgEcRZvz-ElSIojc?authuser=0&hl=tr&rclk=1",
    "website_url": "http://www.ecotekpiacenza.it/",
    "rating_text": "4,7",
    "stars": null,
    "number_of_reviews": null,
    "price_level": "",
    "open_hours": "",
    "extraction_timestamp": "2025-06-07T15:57:44.411Z",
    "source_name": "google",
    "source_query": "Irrigation Equipment",
    "source_country": "IT",
    "country": "Italy",
    "state": "Emilia-Romagna",
    "city": "Provincia di Piacenza"
  },
  {
    "source_id": "ChIJR2FOAqbCgEcRX8L22Sl0Imc",
    "name": "Leroy Merlin Piacenza",
    "category": "Leroy Merlin Piacenza",
    "formatted_address": "4,0(4.017)",
    "phone_number": "+3905231748900",
    "source_url": "https://www.google.com/maps/place/Leroy+Merlin+Piacenza/data=!4m7!3m6!1s0x4780c2a6024e6147:0x67227429d9f6c25f!8m2!3d45.0291113!4d9.6848621!16s%2Fg%2F11b6qhyd99!19sChIJR2FOAqbCgEcRX8L22Sl0Imc?authuser=0&hl=tr&rclk=1",
    "website_url": "https://www.leroymerlin.it/negozi/piacenza.html",
    "rating_text": "4,0",
    "stars": null,
    "number_of_reviews": null,
    "price_level": "",
    "open_hours": "",
    "extraction_timestamp": "2025-06-07T15:57:44.413Z",
    "source_name": "google",
    "source_query": "Irrigation Equipment",
    "source_country": "IT",
    "country": "Italy",
    "state": "Emilia-Romagna",
    "city": "Provincia di Piacenza"
  },
  {
    "source_id": "ChIJPzARJO7sgEcRiLa8c2yngpg",
    "name": "Casella Macchine Agricole Srl",
    "category": "Casella Macchine Agricole Srl",
    "formatted_address": "4,6(290)",
    "phone_number": "+390523853911",
    "source_url": "https://www.google.com/maps/place/Casella+Macchine+Agricole+Srl/data=!4m7!3m6!1s0x4780ecee2411303f:0x9882a76c73bcb688!8m2!3d44.9181761!4d9.7741966!16s%2Fg%2F1tfghp4p!19sChIJPzARJO7sgEcRiLa8c2yngpg?authuser=0&hl=tr&rclk=1",
    "website_url": "http://www.casella.it/",
    "rating_text": "4,6",
    "stars": null,
    "number_of_reviews": null,
    "price_level": "",
    "open_hours": "",
    "extraction_timestamp": "2025-06-07T15:57:44.415Z",
    "source_name": "google",
    "source_query": "Irrigation Equipment",
    "source_country": "IT",
    "country": "Italy",
    "state": "Emilia-Romagna",
    "city": "Provincia di Piacenza"
  },
  {
    "source_id": "ChIJnyyozzLFgEcRveCr7YkDeKI",
    "name": "Carella Sas di Carella Enrico Filippo e C.",
    "category": "Carella Sas di Carella Enrico Filippo e C.",
    "formatted_address": "4,7(46)",
    "phone_number": "+390523884055",
    "source_url": "https://www.google.com/maps/place/Carella+Sas+di+Carella+Enrico+Filippo+e+C./data=!4m7!3m6!1s0x4780c532cfa82c9f:0xa2780389edabe0bd!8m2!3d45.0555848!4d9.5038928!16s%2Fg%2F11jpkclgfy!19sChIJnyyozzLFgEcRveCr7YkDeKI?authuser=0&hl=tr&rclk=1",
    "website_url": "https://www.carellastore.it/",
    "rating_text": "4,7",
    "stars": null,
    "number_of_reviews": null,
    "price_level": "",
    "open_hours": "",
    "extraction_timestamp": "2025-06-07T15:57:44.416Z",
    "source_name": "google",
    "source_query": "Irrigation Equipment",
    "source_country": "IT",
    "country": "Italy",
    "state": "Emilia-Romagna",
    "city": "Provincia di Piacenza"
  },
  {
    "source_id": "ChIJf1rZSIfogEcR3YyIhIElauY",
    "name": "Padana Impianti s.r.l.",
    "category": "Padana Impianti s.r.l.",
    "formatted_address": "2,6(10)",
    "phone_number": "+390523593433",
    "source_url": "https://www.google.com/maps/place/Padana+Impianti+s.r.l./data=!4m7!3m6!1s0x4780e88748d95a7f:0xe66a258184888cdd!8m2!3d45.0296596!4d9.7377708!16s%2Fg%2F1ptw328_0!19sChIJf1rZSIfogEcR3YyIhIElauY?authuser=0&hl=tr&rclk=1",
    "website_url": "http://www.padanaimpianti.it/",
    "rating_text": "2,6",
    "stars": null,
    "number_of_reviews": null,
    "price_level": "",
    "open_hours": "",
    "extraction_timestamp": "2025-06-07T15:57:44.418Z",
    "source_name": "google",
    "source_query": "Irrigation Equipment",
    "source_country": "IT",
    "country": "Italy",
    "state": "Emilia-Romagna",
    "city": "Provincia di Piacenza"
  },
  {
    "source_id": "ChIJs8lwOdncgEcR3wYvmZZ_D6w",
    "name": "OBI Piacenza",
    "category": "OBI Piacenza",
    "formatted_address": "4,0(2.128)",
    "phone_number": "+390523540000",
    "source_url": "https://www.google.com/maps/place/OBI+Piacenza/data=!4m7!3m6!1s0x4780dcd93970c9b3:0xac0f7f96992f06df!8m2!3d45.0281206!4d9.7353903!16s%2Fg%2F1tjy0bmd!19sChIJs8lwOdncgEcR3wYvmZZ_D6w?authuser=0&hl=tr&rclk=1",
    "website_url": "https://www.obi-italia.it/negozio/piacenza?wt__mc=gp.it064_Piacenza%E2%80%A6",
    "rating_text": "4,0",
    "stars": null,
    "number_of_reviews": null,
    "price_level": "",
    "open_hours": "",
    "extraction_timestamp": "2025-06-07T15:57:44.420Z",
    "source_name": "google",
    "source_query": "Irrigation Equipment",
    "source_country": "IT",
    "country": "Italy",
    "state": "Emilia-Romagna",
    "city": "Provincia di Piacenza"
  },
  {
    "source_id": "ChIJP-CISQ3-gEcRXwl1yi9NW2Q",
    "name": "SIIP - Società Impianti di irrigazione a pioggia",
    "category": "SIIP - Società Impianti di irrigazione a pioggia",
    "formatted_address": "5,0(2)",
    "phone_number": "+393356863605",
    "source_url": "https://www.google.com/maps/place/SIIP+-+Societ%C3%A0+Impianti+di+irrigazione+a+pioggia/data=!4m7!3m6!1s0x4780fe0d4988e03f:0x645b4d2fca75095f!8m2!3d45.1417827!4d10.0200624!16s%2Fg%2F1vqtfn9y!19sChIJP-CISQ3-gEcRXwl1yi9NW2Q?authuser=0&hl=tr&rclk=1",
    "website_url": "https://www.impiantiirrigazionicremona.com/",
    "rating_text": "5,0",
    "stars": null,
    "number_of_reviews": null,
    "price_level": "",
    "open_hours": "",
    "extraction_timestamp": "2025-06-07T15:57:44.421Z",
    "source_name": "google",
    "source_query": "Irrigation Equipment",
    "source_country": "IT",
    "country": "Italy",
    "state": "Emilia-Romagna",
    "city": "Provincia di Piacenza"
  },
  {
    "source_id": "ChIJURNsXunRgEcRmae-SVNqONs",
    "name": "IDROPAVESE SAS DI VARESI GIAMPAOLO E VARESI MARA",
    "category": "IDROPAVESE SAS DI VARESI GIAMPAOLO E VARESI MARA",
    "formatted_address": "4,2(17)",
    "phone_number": "+390523882596",
    "source_url": "https://www.google.com/maps/place/IDROPAVESE+SAS+DI+VARESI+GIAMPAOLO+E+VARESI+MARA/data=!4m7!3m6!1s0x4780d1e95e6c1351:0xdb386a5349bea799!8m2!3d45.0733425!4d9.4455294!16s%2Fg%2F11b6hssh7j!19sChIJURNsXunRgEcRmae-SVNqONs?authuser=0&hl=tr&rclk=1",
    "website_url": "http://www.idropavese.it/",
    "rating_text": "4,2",
    "stars": null,
    "number_of_reviews": null,
    "price_level": "",
    "open_hours": "",
    "extraction_timestamp": "2025-06-07T15:57:44.423Z",
    "source_name": "google",
    "source_query": "Irrigation Equipment",
    "source_country": "IT",
    "country": "Italy",
    "state": "Emilia-Romagna",
    "city": "Provincia di Piacenza"
  },
  {
    "source_id": "ChIJ-fEaeozAgEcRNSgMpLv4a24",
    "name": "Macchine Agricole Fontana Mauro",
    "category": "Macchine Agricole Fontana Mauro",
    "formatted_address": "4,0(42)",
    "phone_number": "+390523958262",
    "source_url": "https://www.google.com/maps/place/Macchine+Agricole+Fontana+Mauro/data=!4m7!3m6!1s0x4780c08c7a1af1f9:0x6e6bf8bba40c2835!8m2!3d44.92372!4d9.6053983!16s%2Fg%2F1hc12vth7!19sChIJ-fEaeozAgEcRNSgMpLv4a24?authuser=0&hl=tr&rclk=1",
    "website_url": "https://www.macchineagricolefontana.it/",
    "rating_text": "4,0",
    "stars": null,
    "number_of_reviews": null,
    "price_level": "",
    "open_hours": "",
    "extraction_timestamp": "2025-06-07T15:57:44.424Z",
    "source_name": "google",
    "source_query": "Irrigation Equipment",
    "source_country": "IT",
    "country": "Italy",
    "state": "Emilia-Romagna",
    "city": "Provincia di Piacenza"
  },
  {
    "source_id": "ChIJC0LYzsXngEcR8g_5HSSzAko",
    "name": "Pulitecno",
    "category": "Pulitecno",
    "formatted_address": "5,0(5)",
    "phone_number": "+390523577811",
    "source_url": "https://www.google.com/maps/place/Pulitecno/data=!4m7!3m6!1s0x4780e7c5ced8420b:0x4a02b3241df90ff2!8m2!3d45.0483093!4d9.7294483!16s%2Fg%2F11fxwb60cv!19sChIJC0LYzsXngEcR8g_5HSSzAko?authuser=0&hl=tr&rclk=1",
    "website_url": "http://www.pulitecnosrl.it/",
    "rating_text": "5,0",
    "stars": null,
    "number_of_reviews": null,
    "price_level": "",
    "open_hours": "",
    "extraction_timestamp": "2025-06-07T15:57:44.425Z",
    "source_name": "google",
    "source_query": "Irrigation Equipment",
    "source_country": "IT",
    "country": "Italy",
    "state": "Emilia-Romagna",
    "city": "Provincia di Piacenza"
  },
  {
    "source_id": "ChIJe9ktXa7cgEcRupB1QHEh_OI",
    "name": "Gardenitaliastore",
    "category": "Gardenitaliastore",
    "formatted_address": "3,7(42)",
    "phone_number": "+390523764811",
    "source_url": "https://www.google.com/maps/place/Gardenitaliastore/data=!4m7!3m6!1s0x4780dcae5d2dd97b:0xe2fc2171407590ba!8m2!3d45.0587957!4d9.5905342!16s%2Fg%2F1tj9583t!19sChIJe9ktXa7cgEcRupB1QHEh_OI?authuser=0&hl=tr&rclk=1",
    "website_url": "http://www.gardenitaliastore.it/",
    "rating_text": "3,7",
    "stars": null,
    "number_of_reviews": null,
    "price_level": "",
    "open_hours": "",
    "extraction_timestamp": "2025-06-07T15:57:44.427Z",
    "source_name": "google",
    "source_query": "Irrigation Equipment",
    "source_country": "IT",
    "country": "Italy",
    "state": "Emilia-Romagna",
    "city": "Provincia di Piacenza"
  },
  {
    "source_id": "ChIJtVDkNgRFgEcRqc6umwWIJuI",
    "name": "Rm Spa",
    "category": "Rm Spa",
    "formatted_address": "4,6(81)",
    "phone_number": "+390521872321",
    "source_url": "https://www.google.com/maps/place/Rm+Spa/data=!4m7!3m6!1s0x4780450436e450b5:0xe22688059baecea9!8m2!3d44.9105406!4d10.2583785!16s%2Fg%2F12hl93byl!19sChIJtVDkNgRFgEcRqc6umwWIJuI?authuser=0&hl=tr&rclk=1",
    "website_url": "http://www.rmirrigation.com/",
    "rating_text": "4,6",
    "stars": null,
    "number_of_reviews": null,
    "price_level": "",
    "open_hours": "",
    "extraction_timestamp": "2025-06-07T15:57:44.428Z",
    "source_name": "google",
    "source_query": "Irrigation Equipment",
    "source_country": "IT",
    "country": "Italy",
    "state": "Emilia-Romagna",
    "city": "Provincia di Piacenza"
  },
  {
    "source_id": "ChIJO7jWLS7dgEcR2kjGP0llQyk",
    "name": "La Goccia | Giardinaggio - Manutenzione Aree Verdi",
    "category": "La Goccia | Giardinaggio - Manutenzione Aree Verdi",
    "formatted_address": "5,0(4)",
    "phone_number": "+393485109315",
    "source_url": "https://www.google.com/maps/place/La+Goccia+%7C+Giardinaggio+-+Manutenzione+Aree+Verdi/data=!4m7!3m6!1s0x4780dd2e2dd6b83b:0x294365493fc648da!8m2!3d45.0474341!4d9.6611087!16s%2Fg%2F1tgprgny!19sChIJO7jWLS7dgEcR2kjGP0llQyk?authuser=0&hl=tr&rclk=1",
    "website_url": "http://irrigazionegiardinilagoccia.com/",
    "rating_text": "5,0",
    "stars": null,
    "number_of_reviews": null,
    "price_level": "",
    "open_hours": "",
    "extraction_timestamp": "2025-06-07T15:57:44.430Z",
    "source_name": "google",
    "source_query": "Irrigation Equipment",
    "source_country": "IT",
    "country": "Italy",
    "state": "Emilia-Romagna",
    "city": "Provincia di Piacenza"
  },
  {
    "source_id": "ChIJ90762m6rgUcRrOpHkQtN0qE",
    "name": "ACQUAFERT",
    "category": "ACQUAFERT",
    "formatted_address": "4,8(13)",
    "phone_number": "+390372835672",
    "source_url": "https://www.google.com/maps/place/ACQUAFERT/data=!4m7!3m6!1s0x4781ab6edafa4ef7:0xa1d24d0b9147eaac!8m2!3d45.1695663!4d10.1916537!16s%2Fg%2F11c1ny5b5r!19sChIJ90762m6rgUcRrOpHkQtN0qE?authuser=0&hl=tr&rclk=1",
    "website_url": "https://www.acquafertagri.it/",
    "rating_text": "4,8",
    "stars": null,
    "number_of_reviews": null,
    "price_level": "",
    "open_hours": "",
    "extraction_timestamp": "2025-06-07T15:57:44.431Z",
    "source_name": "google",
    "source_query": "Irrigation Equipment",
    "source_country": "IT",
    "country": "Italy",
    "state": "Emilia-Romagna",
    "city": "Provincia di Piacenza"
  },
  {
    "source_id": "ChIJGWoSvc9fgEcRIrimfsBGb0s",
    "name": "Gardenmax Giardini Srl",
    "category": "Gardenmax Giardini Srl",
    "formatted_address": "4,9(56)",
    "phone_number": "+393923449261",
    "source_url": "https://www.google.com/maps/place/Gardenmax+Giardini+Srl/data=!4m7!3m6!1s0x47805fcfbd126a19:0x4b6f46c07ea6b822!8m2!3d44.9040554!4d9.9561126!16s%2Fg%2F1v1knqfy!19sChIJGWoSvc9fgEcRIrimfsBGb0s?authuser=0&hl=tr&rclk=1",
    "website_url": "http://www.gardenmaxgiardini.it/",
    "rating_text": "4,9",
    "stars": null,
    "number_of_reviews": null,
    "price_level": "",
    "open_hours": "",
    "extraction_timestamp": "2025-06-07T15:57:44.433Z",
    "source_name": "google",
    "source_query": "Irrigation Equipment",
    "source_country": "IT",
    "country": "Italy",
    "state": "Emilia-Romagna",
    "city": "Provincia di Piacenza"
  },
  {
    "source_id": "ChIJGVuRBn7ogEcRGBzIo3J6pT0",
    "name": "Hydra Water",
    "category": "Hydra Water",
    "formatted_address": "3,0(2)",
    "phone_number": "+390523497185",
    "source_url": "https://www.google.com/maps/place/Hydra+Water/data=!4m7!3m6!1s0x4780e87e06915b19:0x3da57a72a3c81c18!8m2!3d45.0303299!4d9.7363131!16s%2Fg%2F12hnfyhf1!19sChIJGVuRBn7ogEcRGBzIo3J6pT0?authuser=0&hl=tr&rclk=1",
    "website_url": "http://www.hydrawater.it/",
    "rating_text": "3,0",
    "stars": null,
    "number_of_reviews": null,
    "price_level": "",
    "open_hours": "",
    "extraction_timestamp": "2025-06-07T15:57:44.434Z",
    "source_name": "google",
    "source_query": "Irrigation Equipment",
    "source_country": "IT",
    "country": "Italy",
    "state": "Emilia-Romagna",
    "city": "Provincia di Piacenza"
  },
  {
    "source_id": "ChIJi4SteyvBgUcRWJDLSb2DZBM",
    "name": "Aqua Verde Srl",
    "category": "Aqua Verde Srl",
    "formatted_address": "5,0(11)",
    "phone_number": "+390376804122",
    "source_url": "https://www.google.com/maps/place/Aqua+Verde+Srl/data=!4m7!3m6!1s0x4781c12b7bad848b:0x136483bd49cb9058!8m2!3d45.3361772!4d10.6060539!16s%2Fg%2F1tdhcwh_!19sChIJi4SteyvBgUcRWJDLSb2DZBM?authuser=0&hl=tr&rclk=1",
    "website_url": "http://www.aquaverde.it/",
    "rating_text": "5,0",
    "stars": null,
    "number_of_reviews": null,
    "price_level": "",
    "open_hours": "",
    "extraction_timestamp": "2025-06-07T15:57:44.435Z",
    "source_name": "google",
    "source_query": "Irrigation Equipment",
    "source_country": "IT",
    "country": "Italy",
    "state": "Emilia-Romagna",
    "city": "Provincia di Piacenza"
  },
  {
    "source_id": "ChIJkZNIBCPdgEcR8lGWPEt6YFI",
    "name": "Eli",
    "category": "Eli",
    "formatted_address": "4,6(15)",
    "phone_number": "+390523489862",
    "source_url": "https://www.google.com/maps/place/Eli/data=!4m7!3m6!1s0x4780dd2304489391:0x52607a4b3c9651f2!8m2!3d45.0568157!4d9.6615652!16s%2Fg%2F1pty1hzpt!19sChIJkZNIBCPdgEcR8lGWPEt6YFI?authuser=0&hl=tr&rclk=1",
    "website_url": "https://www.eliprodottiindustriali.com/",
    "rating_text": "4,6",
    "stars": null,
    "number_of_reviews": null,
    "price_level": "",
    "open_hours": "",
    "extraction_timestamp": "2025-06-07T15:57:44.436Z",
    "source_name": "google",
    "source_query": "Irrigation Equipment",
    "source_country": "IT",
    "country": "Italy",
    "state": "Emilia-Romagna",
    "city": "Provincia di Piacenza"
  },
  {
    "source_id": "ChIJXQIqLg0sgUcRg3Y6gpNOTVg",
    "name": "Novazzi Srl",
    "category": "Novazzi Srl",
    "formatted_address": "4,6(328)",
    "phone_number": "+39037169537",
    "source_url": "https://www.google.com/maps/place/Novazzi+Srl/data=!4m7!3m6!1s0x47812c0d2e2a025d:0x584d4e93823a7683!8m2!3d45.2892664!4d9.4771459!16s%2Fg%2F1pv2v0tvv!19sChIJXQIqLg0sgUcRg3Y6gpNOTVg?authuser=0&hl=tr&rclk=1",
    "website_url": "http://www.novazzi.it/",
    "rating_text": "4,6",
    "stars": null,
    "number_of_reviews": null,
    "price_level": "",
    "open_hours": "",
    "extraction_timestamp": "2025-06-07T15:57:44.437Z",
    "source_name": "google",
    "source_query": "Irrigation Equipment",
    "source_country": "IT",
    "country": "Italy",
    "state": "Emilia-Romagna",
    "city": "Provincia di Piacenza"
  },
  {
    "source_id": "ChIJpQqVUKTngEcRic24vCU8Fo0",
    "name": "Organika SRL",
    "category": "Organika SRL",
    "formatted_address": "5,0(3)",
    "phone_number": "+393391632066",
    "source_url": "https://www.google.com/maps/place/Organika+SRL/data=!4m7!3m6!1s0x4780e7a450950aa5:0x8d163c25bcb8cd89!8m2!3d45.0532073!4d9.7709199!16s%2Fg%2F11smypnpzt!19sChIJpQqVUKTngEcRic24vCU8Fo0?authuser=0&hl=tr&rclk=1",
    "website_url": "http://www.organikasrl.com/",
    "rating_text": "5,0",
    "stars": null,
    "number_of_reviews": null,
    "price_level": "",
    "open_hours": "",
    "extraction_timestamp": "2025-06-07T15:57:44.437Z",
    "source_name": "google",
    "source_query": "Irrigation Equipment",
    "source_country": "IT",
    "country": "Italy",
    "state": "Emilia-Romagna",
    "city": "Provincia di Piacenza"
  },
  {
    "source_id": "ChIJ0879KczngEcRPBFqPs6d-6g",
    "name": "CCRE Spa Filiale di Piacenza",
    "category": "CCRE Spa Filiale di Piacenza",
    "formatted_address": "3,9(8)",
    "phone_number": "+390523576011",
    "source_url": "https://www.google.com/maps/place/CCRE+Spa+Filiale+di+Piacenza/data=!4m7!3m6!1s0x4780e7cc29fdced3:0xa8fb9dce3e6a113c!8m2!3d45.0462357!4d9.7368741!16s%2Fg%2F11gbk4rgm9!19sChIJ0879KczngEcRPBFqPs6d-6g?authuser=0&hl=tr&rclk=1",
    "website_url": "http://www.ccre.it/",
    "rating_text": "3,9",
    "stars": null,
    "number_of_reviews": null,
    "price_level": "",
    "open_hours": "",
    "extraction_timestamp": "2025-06-07T15:57:44.439Z",
    "source_name": "google",
    "source_query": "Irrigation Equipment",
    "source_country": "IT",
    "country": "Italy",
    "state": "Emilia-Romagna",
    "city": "Provincia di Piacenza"
  }
]
