[
  {
    "source_id": "ChIJtVDkNgRFgEcRqc6umwWIJuI",
    "name": "Rm Spa",
    "category": "Rm Spa",
    "formatted_address": "4,6(81)",
    "phone_number": "+390521872321",
    "source_url": "https://www.google.com/maps/place/Rm+Spa/data=!4m7!3m6!1s0x4780450436e450b5:0xe22688059baecea9!8m2!3d44.9105406!4d10.2583785!16s%2Fg%2F12hl93byl!19sChIJtVDkNgRFgEcRqc6umwWIJuI?authuser=0&hl=tr&rclk=1",
    "website_url": "",
    "rating_text": "4,6",
    "stars": null,
    "number_of_reviews": null,
    "price_level": "",
    "open_hours": "",
    "extraction_timestamp": "2025-06-07T16:22:18.027Z",
    "source_name": "google",
    "source_query": "Irrigation Equipment",
    "source_country": "IT",
    "country": "Italy",
    "state": "Emilia-Romagna",
    "city": "Provincia di Parma"
  },
  {
    "source_id": "ChIJLZjfOX1ogEcR-Cx4hC5-p84",
    "name": "Union clima srl & B&C",
    "category": "Union clima srl & B&C",
    "formatted_address": "4,9(609)",
    "phone_number": "+393200758899",
    "source_url": "https://www.google.com/maps/place/Union+clima+srl+%26+B%26C/data=!4m7!3m6!1s0x4780687d39df982d:0xcea77e2e84782cf8!8m2!3d44.7941613!4d10.1856206!16s%2Fg%2F11hc_0vgp8!19sChIJLZjfOX1ogEcR-Cx4hC5-p84?authuser=0&hl=tr&rclk=1",
    "website_url": "",
    "rating_text": "4,9",
    "stars": null,
    "number_of_reviews": null,
    "price_level": "",
    "open_hours": "",
    "extraction_timestamp": "2025-06-07T16:22:18.027Z",
    "source_name": "google",
    "source_query": "Irrigation Equipment",
    "source_country": "IT",
    "country": "Italy",
    "state": "Emilia-Romagna",
    "city": "Provincia di Parma"
  },
  {
    "source_id": "ChIJufH9mcNqgEcRijiLDrXno90",
    "name": "Sartorelli Depurazione Srl",
    "category": "Sartorelli Depurazione Srl",
    "formatted_address": "4,9(35)",
    "phone_number": "+390521772282",
    "source_url": "https://www.google.com/maps/place/Sartorelli+Depurazione+Srl/data=!4m7!3m6!1s0x47806ac399fdf1b9:0xdda3e7b50e8b388a!8m2!3d44.8074697!4d10.2950985!16s%2Fg%2F1thk_q1t!19sChIJufH9mcNqgEcRijiLDrXno90?authuser=0&hl=tr&rclk=1",
    "website_url": "",
    "rating_text": "4,9",
    "stars": null,
    "number_of_reviews": null,
    "price_level": "",
    "open_hours": "",
    "extraction_timestamp": "2025-06-07T16:22:18.028Z",
    "source_name": "google",
    "source_query": "Irrigation Equipment",
    "source_country": "IT",
    "country": "Italy",
    "state": "Emilia-Romagna",
    "city": "Provincia di Parma"
  },
  {
    "source_id": "ChIJv8HEBmw-gEcRVNdR6E-nqBU",
    "name": "SACCO' WT S.r.l. - Trattamento Acqua",
    "category": "SACCO' WT S.r.l. - Trattamento Acqua",
    "formatted_address": "5,0(2)",
    "phone_number": "+3905211511405",
    "source_url": "https://www.google.com/maps/place/SACCO%27+WT+S.r.l.+-+Trattamento+Acqua/data=!4m7!3m6!1s0x47803e6c06c4c1bf:0x15a8a74fe851d754!8m2!3d44.7516192!4d10.3312489!16s%2Fg%2F1vvywybb!19sChIJv8HEBmw-gEcRVNdR6E-nqBU?authuser=0&hl=tr&rclk=1",
    "website_url": "",
    "rating_text": "5,0",
    "stars": null,
    "number_of_reviews": null,
    "price_level": "",
    "open_hours": "",
    "extraction_timestamp": "2025-06-07T16:22:18.028Z",
    "source_name": "google",
    "source_query": "Irrigation Equipment",
    "source_country": "IT",
    "country": "Italy",
    "state": "Emilia-Romagna",
    "city": "Provincia di Parma"
  },
  {
    "source_id": "ChIJ3ffAufBtgEcRCytqNHDLXR4",
    "name": "Del Frate Srl",
    "category": "Del Frate Srl",
    "formatted_address": "4,8(37)",
    "phone_number": "+390521986971",
    "source_url": "https://www.google.com/maps/place/Del+Frate+Srl/data=!4m7!3m6!1s0x47806df0b9c0f7dd:0x1e5dcb70346a2b0b!8m2!3d44.8108795!4d10.3145985!16s%2Fg%2F119w9gdyl!19sChIJ3ffAufBtgEcRCytqNHDLXR4?authuser=0&hl=tr&rclk=1",
    "website_url": "",
    "rating_text": "4,8",
    "stars": null,
    "number_of_reviews": null,
    "price_level": "",
    "open_hours": "",
    "extraction_timestamp": "2025-06-07T16:22:18.028Z",
    "source_name": "google",
    "source_query": "Irrigation Equipment",
    "source_country": "IT",
    "country": "Italy",
    "state": "Emilia-Romagna",
    "city": "Provincia di Parma"
  },
  {
    "source_id": "ChIJv-LktyZAgEcR4FCP_T_dgwo",
    "name": "Tecnomat",
    "category": "Tecnomat",
    "formatted_address": "4,2(6.681)",
    "phone_number": "+390283905463",
    "source_url": "https://www.google.com/maps/place/Tecnomat/data=!4m7!3m6!1s0x47804026b7e4e2bf:0xa83dd3ffd8f50e0!8m2!3d44.8338762!4d10.3376824!16s%2Fg%2F11b5pj9j55!19sChIJv-LktyZAgEcR4FCP_T_dgwo?authuser=0&hl=tr&rclk=1",
    "website_url": "",
    "rating_text": "4,2",
    "stars": null,
    "number_of_reviews": null,
    "price_level": "",
    "open_hours": "",
    "extraction_timestamp": "2025-06-07T16:22:18.029Z",
    "source_name": "google",
    "source_query": "Irrigation Equipment",
    "source_country": "IT",
    "country": "Italy",
    "state": "Emilia-Romagna",
    "city": "Provincia di Parma"
  },
  {
    "source_id": "ChIJFVDnN95rgEcRCofHBagiDCk",
    "name": "AFIS Parma (Magazzino)",
    "category": "AFIS Parma (Magazzino)",
    "formatted_address": "4,5(79)",
    "phone_number": "+3905211390000",
    "source_url": "https://www.google.com/maps/place/AFIS+Parma+%28Magazzino%29/data=!4m7!3m6!1s0x47806bde37e75015:0x290c22a805c7870a!8m2!3d44.8121118!4d10.3080465!16s%2Fg%2F11hyp5wjjt!19sChIJFVDnN95rgEcRCofHBagiDCk?authuser=0&hl=tr&rclk=1",
    "website_url": "",
    "rating_text": "4,5",
    "stars": null,
    "number_of_reviews": null,
    "price_level": "",
    "open_hours": "",
    "extraction_timestamp": "2025-06-07T16:22:18.029Z",
    "source_name": "google",
    "source_query": "Irrigation Equipment",
    "source_country": "IT",
    "country": "Italy",
    "state": "Emilia-Romagna",
    "city": "Provincia di Parma"
  },
  {
    "source_id": "ChIJC4I8YwsVgEcRCOpZEnLtD1c",
    "name": "Bertani S.p.a. - Magazzino di Parma",
    "category": "Bertani S.p.a. - Magazzino di Parma",
    "formatted_address": "4,9(14)",
    "phone_number": "+390521798182",
    "source_url": "https://www.google.com/maps/place/Bertani+S.p.a.+-+Magazzino+di+Parma/data=!4m7!3m6!1s0x4780150b633c820b:0x570fed721259ea08!8m2!3d44.8100767!4d10.3630365!16s%2Fg%2F11s8dp6_25!19sChIJC4I8YwsVgEcRCOpZEnLtD1c?authuser=0&hl=tr&rclk=1",
    "website_url": "",
    "rating_text": "4,9",
    "stars": null,
    "number_of_reviews": null,
    "price_level": "",
    "open_hours": "",
    "extraction_timestamp": "2025-06-07T16:22:18.029Z",
    "source_name": "google",
    "source_query": "Irrigation Equipment",
    "source_country": "IT",
    "country": "Italy",
    "state": "Emilia-Romagna",
    "city": "Provincia di Parma"
  },
  {
    "source_id": "ChIJVVJtEGBtgEcRaoK0JLj-wDk",
    "name": "GEA FUN EXPERIENCE",
    "category": "GEA FUN EXPERIENCE",
    "formatted_address": "5,0(21)",
    "phone_number": "+390521853262",
    "source_url": "https://www.google.com/maps/place/GEA+FUN+EXPERIENCE/data=!4m7!3m6!1s0x47806d60106d5255:0x39c0feb824b4826a!8m2!3d44.6861489!4d10.2878527!16s%2Fg%2F12hk2hcy4!19sChIJVVJtEGBtgEcRaoK0JLj-wDk?authuser=0&hl=tr&rclk=1",
    "website_url": "",
    "rating_text": "5,0",
    "stars": null,
    "number_of_reviews": null,
    "price_level": "",
    "open_hours": "",
    "extraction_timestamp": "2025-06-07T16:22:18.029Z",
    "source_name": "google",
    "source_query": "Irrigation Equipment",
    "source_country": "IT",
    "country": "Italy",
    "state": "Emilia-Romagna",
    "city": "Provincia di Parma"
  },
  {
    "source_id": "ChIJP3W9AjMMgEcRR-7LYDlxrPA",
    "name": "Mentani Srl",
    "category": "Mentani Srl",
    "formatted_address": "5,0(2)",
    "phone_number": "+390521842128",
    "source_url": "https://www.google.com/maps/place/Mentani+Srl/data=!4m7!3m6!1s0x47800c3302bd753f:0xf0ac713960cbee47!8m2!3d44.6471783!4d10.3777348!16s%2Fg%2F1thbvhzz!19sChIJP3W9AjMMgEcRR-7LYDlxrPA?authuser=0&hl=tr&rclk=1",
    "website_url": "",
    "rating_text": "5,0",
    "stars": null,
    "number_of_reviews": null,
    "price_level": "",
    "open_hours": "",
    "extraction_timestamp": "2025-06-07T16:22:18.030Z",
    "source_name": "google",
    "source_query": "Irrigation Equipment",
    "source_country": "IT",
    "country": "Italy",
    "state": "Emilia-Romagna",
    "city": "Provincia di Parma"
  },
  {
    "source_id": "ChIJU4k8l8ZhgEcR8GuH7Z1iewQ",
    "name": "C.s.a. srl",
    "category": "C.s.a. srl",
    "formatted_address": "4,6(12)",
    "phone_number": "+390524523978",
    "source_url": "https://www.google.com/maps/place/C.s.a.+srl/data=!4m7!3m6!1s0x478061c6973c8953:0x47b629ded876bf0!8m2!3d44.8392168!4d10.0169961!16s%2Fg%2F1tkqz31s!19sChIJU4k8l8ZhgEcR8GuH7Z1iewQ?authuser=0&hl=tr&rclk=1",
    "website_url": "",
    "rating_text": "4,6",
    "stars": null,
    "number_of_reviews": null,
    "price_level": "",
    "open_hours": "",
    "extraction_timestamp": "2025-06-07T16:22:18.030Z",
    "source_name": "google",
    "source_query": "Irrigation Equipment",
    "source_country": "IT",
    "country": "Italy",
    "state": "Emilia-Romagna",
    "city": "Provincia di Parma"
  },
  {
    "source_id": "ChIJy805WcDcgEcRtmGWlwosXQc",
    "name": "IRRIMEC SRL",
    "category": "IRRIMEC SRL",
    "formatted_address": "4,5(90)",
    "phone_number": "+390523760441",
    "source_url": "https://www.google.com/maps/place/IRRIMEC+SRL/data=!4m7!3m6!1s0x4780dcc05939cdcb:0x75d2c0a979661b6!8m2!3d45.0612353!4d9.630829!16s%2Fg%2F1tdgt7d_!19sChIJy805WcDcgEcRtmGWlwosXQc?authuser=0&hl=tr&rclk=1",
    "website_url": "",
    "rating_text": "4,5",
    "stars": null,
    "number_of_reviews": null,
    "price_level": "",
    "open_hours": "",
    "extraction_timestamp": "2025-06-07T16:22:18.030Z",
    "source_name": "google",
    "source_query": "Irrigation Equipment",
    "source_country": "IT",
    "country": "Italy",
    "state": "Emilia-Romagna",
    "city": "Provincia di Parma"
  },
  {
    "source_id": "ChIJ30RJaL9qgEcRNHGGsivmkDs",
    "name": "Gazza Anselmo",
    "category": "Gazza Anselmo",
    "formatted_address": "4,8(13)",
    "phone_number": "+390521784943",
    "source_url": "https://www.google.com/maps/place/Gazza+Anselmo/data=!4m7!3m6!1s0x47806abf684944df:0x3b90e62bb2867134!8m2!3d44.8122901!4d10.3403136!16s%2Fg%2F11bc7nlnjr!19sChIJ30RJaL9qgEcRNHGGsivmkDs?authuser=0&hl=tr&rclk=1",
    "website_url": "",
    "rating_text": "4,8",
    "stars": null,
    "number_of_reviews": null,
    "price_level": "",
    "open_hours": "",
    "extraction_timestamp": "2025-06-07T16:22:18.031Z",
    "source_name": "google",
    "source_query": "Irrigation Equipment",
    "source_country": "IT",
    "country": "Italy",
    "state": "Emilia-Romagna",
    "city": "Provincia di Parma"
  },
  {
    "source_id": "ChIJvWESljtqgEcRyACWMGuoih0",
    "name": "Idro Verde",
    "category": "Idro Verde",
    "formatted_address": "Çim Yağmurlama Sistemi Yüklenicisi ·  · Via Emilia Ovest, 129Açık ⋅ Kapanış saati: 21:00 · +39 338 397 2503",
    "phone_number": "+393383972503",
    "source_url": "https://www.google.com/maps/place/Idro+Verde/data=!4m7!3m6!1s0x47806a3b961261bd:0x1d8aa86b309600c8!8m2!3d44.8113047!4d10.2811005!16s%2Fg%2F11c6y_k67v!19sChIJvWESljtqgEcRyACWMGuoih0?authuser=0&hl=tr&rclk=1",
    "website_url": "",
    "rating_text": "",
    "stars": null,
    "number_of_reviews": null,
    "price_level": "",
    "open_hours": "",
    "extraction_timestamp": "2025-06-07T16:22:18.031Z",
    "source_name": "google",
    "source_query": "Irrigation Equipment",
    "source_country": "IT",
    "country": "Italy",
    "state": "Emilia-Romagna",
    "city": "Provincia di Parma"
  },
  {
    "source_id": "ChIJq6qqqvsOgEcRu1RvVh_HOxo",
    "name": "HYDRO TECHNOLOGY di Giacopini Matteo",
    "category": "HYDRO TECHNOLOGY di Giacopini Matteo",
    "formatted_address": "4,7(13)",
    "phone_number": "+393203091135",
    "source_url": "https://www.google.com/maps/place/HYDRO+TECHNOLOGY+di+Giacopini+Matteo/data=!4m7!3m6!1s0x47800efbaaaaaaab:0x1a3bc71f566f54bb!8m2!3d44.5879042!4d10.4047862!16s%2Fg%2F11fjvwhnlp!19sChIJq6qqqvsOgEcRu1RvVh_HOxo?authuser=0&hl=tr&rclk=1",
    "website_url": "",
    "rating_text": "4,7",
    "stars": null,
    "number_of_reviews": null,
    "price_level": "",
    "open_hours": "",
    "extraction_timestamp": "2025-06-07T16:22:18.031Z",
    "source_name": "google",
    "source_query": "Irrigation Equipment",
    "source_country": "IT",
    "country": "Italy",
    "state": "Emilia-Romagna",
    "city": "Provincia di Parma"
  },
  {
    "source_id": "ChIJOYwGlIYOgEcRoOe71cnw7Ws",
    "name": "Puro s.r.l.",
    "category": "Puro s.r.l.",
    "formatted_address": "5,0(2)",
    "phone_number": "+390521340813",
    "source_url": "https://www.google.com/maps/place/Puro+s.r.l./data=!4m7!3m6!1s0x47800e8694068c39:0x6bedf0c9d5bbe7a0!8m2!3d44.6552709!4d10.3700315!16s%2Fg%2F1tlbhds9!19sChIJOYwGlIYOgEcRoOe71cnw7Ws?authuser=0&hl=tr&rclk=1",
    "website_url": "",
    "rating_text": "5,0",
    "stars": null,
    "number_of_reviews": null,
    "price_level": "",
    "open_hours": "",
    "extraction_timestamp": "2025-06-07T16:22:18.031Z",
    "source_name": "google",
    "source_query": "Irrigation Equipment",
    "source_country": "IT",
    "country": "Italy",
    "state": "Emilia-Romagna",
    "city": "Provincia di Parma"
  },
  {
    "source_id": "ChIJr-Ej5xlqgEcR4151q3Mxkms",
    "name": "Idro Alexander S.N.C.",
    "category": "Idro Alexander S.N.C.",
    "formatted_address": "4,6(11)",
    "phone_number": "+390521671107",
    "source_url": "https://www.google.com/maps/place/Idro+Alexander+S.N.C./data=!4m7!3m6!1s0x47806a19e723e1af:0x6b923173ab755ee3!8m2!3d44.8204807!4d10.2802481!16s%2Fg%2F11b6hs_2hl!19sChIJr-Ej5xlqgEcR4151q3Mxkms?authuser=0&hl=tr&rclk=1",
    "website_url": "",
    "rating_text": "4,6",
    "stars": null,
    "number_of_reviews": null,
    "price_level": "",
    "open_hours": "",
    "extraction_timestamp": "2025-06-07T16:22:18.032Z",
    "source_name": "google",
    "source_query": "Irrigation Equipment",
    "source_country": "IT",
    "country": "Italy",
    "state": "Emilia-Romagna",
    "city": "Provincia di Parma"
  },
  {
    "source_id": "ChIJEyv6InRHgEcRUQtoj18c7bM",
    "name": "Tesoro Impianti Idraulico Parma",
    "category": "Tesoro Impianti Idraulico Parma",
    "formatted_address": "4,8(80)",
    "phone_number": "+39328852121024",
    "source_url": "https://www.google.com/maps/place/Tesoro+Impianti+Idraulico+Parma/data=!4m7!3m6!1s0x4780477422fa2b13:0xb3ed1c5f8f680b51!8m2!3d44.7997131!4d10.3374215!16s%2Fg%2F11ll7cv3r4!19sChIJEyv6InRHgEcRUQtoj18c7bM?authuser=0&hl=tr&rclk=1",
    "website_url": "",
    "rating_text": "4,8",
    "stars": null,
    "number_of_reviews": null,
    "price_level": "",
    "open_hours": "",
    "extraction_timestamp": "2025-06-07T16:22:18.032Z",
    "source_name": "google",
    "source_query": "Irrigation Equipment",
    "source_country": "IT",
    "country": "Italy",
    "state": "Emilia-Romagna",
    "city": "Provincia di Parma"
  },
  {
    "source_id": "ChIJrwRfy3RAgEcR8CKM63l7R8Y",
    "name": "BRAM-COR S.p.A.",
    "category": "BRAM-COR S.p.A.",
    "formatted_address": "5,0(4)",
    "phone_number": "+390521538711",
    "source_url": "https://www.google.com/maps/place/BRAM-COR+S.p.A./data=!4m7!3m6!1s0x47804074cb5f04af:0xc6477b79eb8c22f0!8m2!3d44.8474041!4d10.3690097!16s%2Fg%2F1vq9l3yp!19sChIJrwRfy3RAgEcR8CKM63l7R8Y?authuser=0&hl=tr&rclk=1",
    "website_url": "",
    "rating_text": "5,0",
    "stars": null,
    "number_of_reviews": null,
    "price_level": "",
    "open_hours": "",
    "extraction_timestamp": "2025-06-07T16:22:18.032Z",
    "source_name": "google",
    "source_query": "Irrigation Equipment",
    "source_country": "IT",
    "country": "Italy",
    "state": "Emilia-Romagna",
    "city": "Provincia di Parma"
  },
  {
    "source_id": "ChIJ69PdR1EvgEcRzaszzDo7sjQ",
    "name": "Nodolini s.n.c.",
    "category": "Nodolini s.n.c.",
    "formatted_address": "5,0(8)",
    "phone_number": "+390522977491",
    "source_url": "https://www.google.com/maps/place/Nodolini+s.n.c./data=!4m7!3m6!1s0x47802f5147ddd3eb:0x34b23b3acc33abcd!8m2!3d44.9541974!4d10.6879499!16s%2Fg%2F11b6j0n4vm!19sChIJ69PdR1EvgEcRzaszzDo7sjQ?authuser=0&hl=tr&rclk=1",
    "website_url": "",
    "rating_text": "5,0",
    "stars": null,
    "number_of_reviews": null,
    "price_level": "",
    "open_hours": "",
    "extraction_timestamp": "2025-06-07T16:22:18.032Z",
    "source_name": "google",
    "source_query": "Irrigation Equipment",
    "source_country": "IT",
    "country": "Italy",
    "state": "Emilia-Romagna",
    "city": "Provincia di Parma"
  },
  {
    "source_id": "ChIJUQp2IXSKgEcRW0nfEsWzEBc",
    "name": "Agraria Dioni di Dioni Pierluigi &C SNC",
    "category": "Agraria Dioni di Dioni Pierluigi &C SNC",
    "formatted_address": "4,6(72)",
    "phone_number": "+390524573347",
    "source_url": "https://www.google.com/maps/place/Agraria+Dioni+di+Dioni+Pierluigi+%26C+SNC/data=!4m7!3m6!1s0x47808a7421760a51:0x1710b3c512df495b!8m2!3d44.8103996!4d9.9819385!16s%2Fg%2F1tycvhlj!19sChIJUQp2IXSKgEcRW0nfEsWzEBc?authuser=0&hl=tr&rclk=1",
    "website_url": "",
    "rating_text": "4,6",
    "stars": null,
    "number_of_reviews": null,
    "price_level": "",
    "open_hours": "",
    "extraction_timestamp": "2025-06-07T16:22:18.033Z",
    "source_name": "google",
    "source_query": "Irrigation Equipment",
    "source_country": "IT",
    "country": "Italy",
    "state": "Emilia-Romagna",
    "city": "Provincia di Parma"
  },
  {
    "source_id": "ChIJzcFQMxQkgEcRn-wZrxhX9_E",
    "name": "Omv Officine Meccaniche",
    "category": "Omv Officine Meccaniche",
    "formatted_address": "4,3(26)",
    "phone_number": "+390522831361",
    "source_url": "https://www.google.com/maps/place/Omv+Officine+Meccaniche/data=!4m7!3m6!1s0x478024143350c1cd:0xf1f75718af19ec9f!8m2!3d44.8935027!4d10.6517664!16s%2Fg%2F1td5q3gq!19sChIJzcFQMxQkgEcRn-wZrxhX9_E?authuser=0&hl=tr&rclk=1",
    "website_url": "",
    "rating_text": "4,3",
    "stars": null,
    "number_of_reviews": null,
    "price_level": "",
    "open_hours": "",
    "extraction_timestamp": "2025-06-07T16:22:18.033Z",
    "source_name": "google",
    "source_query": "Irrigation Equipment",
    "source_country": "IT",
    "country": "Italy",
    "state": "Emilia-Romagna",
    "city": "Provincia di Parma"
  },
  {
    "source_id": "ChIJj8nUhj4kgEcRy8HJk69hn04",
    "name": "Euroclamp S.R.L.",
    "category": "Euroclamp S.R.L.",
    "formatted_address": "4,2(39)",
    "phone_number": "+390522832081",
    "source_url": "https://www.google.com/maps/place/Euroclamp+S.R.L./data=!4m7!3m6!1s0x4780243e86d4c98f:0x4e9f61af93c9c1cb!8m2!3d44.8993434!4d10.654448!16s%2Fg%2F1tdrd6nd!19sChIJj8nUhj4kgEcRy8HJk69hn04?authuser=0&hl=tr&rclk=1",
    "website_url": "",
    "rating_text": "4,2",
    "stars": null,
    "number_of_reviews": null,
    "price_level": "",
    "open_hours": "",
    "extraction_timestamp": "2025-06-07T16:22:18.033Z",
    "source_name": "google",
    "source_query": "Irrigation Equipment",
    "source_country": "IT",
    "country": "Italy",
    "state": "Emilia-Romagna",
    "city": "Provincia di Parma"
  },
  {
    "source_id": "ChIJW6_4YAdrgEcRr9Ewwgwp5wM",
    "name": "Idraulica Emiliana S.p.A.",
    "category": "Idraulica Emiliana S.p.A.",
    "formatted_address": "4,4(15)",
    "phone_number": "+390521953311",
    "source_url": "https://www.google.com/maps/place/Idraulica+Emiliana+S.p.A./data=!4m7!3m6!1s0x47806b0760f8af5b:0x3e7290cc230d1af!8m2!3d44.7899429!4d10.3052022!16s%2Fg%2F11c6v98y5k!19sChIJW6_4YAdrgEcRr9Ewwgwp5wM?authuser=0&hl=tr&rclk=1",
    "website_url": "",
    "rating_text": "4,4",
    "stars": null,
    "number_of_reviews": null,
    "price_level": "",
    "open_hours": "",
    "extraction_timestamp": "2025-06-07T16:22:18.033Z",
    "source_name": "google",
    "source_query": "Irrigation Equipment",
    "source_country": "IT",
    "country": "Italy",
    "state": "Emilia-Romagna",
    "city": "Provincia di Parma"
  },
  {
    "source_id": "ChIJp15_CT1HgEcRkD_IJjV1XWA",
    "name": "Parma Idraulica",
    "category": "Parma Idraulica",
    "formatted_address": "3,7(3)",
    "phone_number": "+39349362149124",
    "source_url": "https://www.google.com/maps/place/Parma+Idraulica/data=!4m7!3m6!1s0x4780473d097f5ea7:0x605d753526c83f90!8m2!3d44.9201968!4d10.3670604!16s%2Fg%2F11h3lg8qhp!19sChIJp15_CT1HgEcRkD_IJjV1XWA?authuser=0&hl=tr&rclk=1",
    "website_url": "",
    "rating_text": "3,7",
    "stars": null,
    "number_of_reviews": null,
    "price_level": "",
    "open_hours": "",
    "extraction_timestamp": "2025-06-07T16:22:18.034Z",
    "source_name": "google",
    "source_query": "Irrigation Equipment",
    "source_country": "IT",
    "country": "Italy",
    "state": "Emilia-Romagna",
    "city": "Provincia di Parma"
  },
  {
    "source_id": "ChIJP6wAy9ENgEcRxLzDjOCp8jY",
    "name": "Ferramenta Galvani s.r.l.",
    "category": "Ferramenta Galvani s.r.l.",
    "formatted_address": "4,0(36)",
    "phone_number": "+390521841519",
    "source_url": "https://www.google.com/maps/place/Ferramenta+Galvani+s.r.l./data=!4m7!3m6!1s0x47800dd1cb00ac3f:0x36f2a9e08cc3bcc4!8m2!3d44.6460357!4d10.381393!16s%2Fg%2F1tcz751y!19sChIJP6wAy9ENgEcRxLzDjOCp8jY?authuser=0&hl=tr&rclk=1",
    "website_url": "",
    "rating_text": "4,0",
    "stars": null,
    "number_of_reviews": null,
    "price_level": "",
    "open_hours": "",
    "extraction_timestamp": "2025-06-07T16:22:18.034Z",
    "source_name": "google",
    "source_query": "Irrigation Equipment",
    "source_country": "IT",
    "country": "Italy",
    "state": "Emilia-Romagna",
    "city": "Provincia di Parma"
  },
  {
    "source_id": "ChIJveAeFroEgEcRZfa9xqlB6vM",
    "name": "Morelli Irrigazioni",
    "category": "Morelli Irrigazioni",
    "formatted_address": "1,0(1)",
    "phone_number": "+393480042122",
    "source_url": "https://www.google.com/maps/place/Morelli+Irrigazioni/data=!4m7!3m6!1s0x478004ba161ee0bd:0xf3ea41a9c6bdf665!8m2!3d44.649256!4d10.5636837!16s%2Fg%2F11gy01p0bd!19sChIJveAeFroEgEcRZfa9xqlB6vM?authuser=0&hl=tr&rclk=1",
    "website_url": "",
    "rating_text": "1,0",
    "stars": null,
    "number_of_reviews": null,
    "price_level": "",
    "open_hours": "",
    "extraction_timestamp": "2025-06-07T16:22:18.050Z",
    "source_name": "google",
    "source_query": "Irrigation Equipment",
    "source_country": "IT",
    "country": "Italy",
    "state": "Emilia-Romagna",
    "city": "Provincia di Parma"
  },
  {
    "source_id": "ChIJ7W4u4kJqgEcRmHxRDr8ltC4",
    "name": "Tekna Parma",
    "category": "Tekna Parma",
    "formatted_address": "3,5(2)",
    "phone_number": "+390521294824",
    "source_url": "https://www.google.com/maps/place/Tekna+Parma/data=!4m7!3m6!1s0x47806a42e22e6eed:0x2eb425bf0e517c98!8m2!3d44.812968!4d10.2993676!16s%2Fg%2F1wj_s3fc!19sChIJ7W4u4kJqgEcRmHxRDr8ltC4?authuser=0&hl=tr&rclk=1",
    "website_url": "",
    "rating_text": "3,5",
    "stars": null,
    "number_of_reviews": null,
    "price_level": "",
    "open_hours": "",
    "extraction_timestamp": "2025-06-07T16:22:18.051Z",
    "source_name": "google",
    "source_query": "Irrigation Equipment",
    "source_country": "IT",
    "country": "Italy",
    "state": "Emilia-Romagna",
    "city": "Provincia di Parma"
  }
]
