[
  {
    "source_id": "ChIJzWyZEf8dgEcRM0sVtbJE3TI",
    "name": "Impiantistica LAVONE",
    "category": "Impiantistica LAVONE",
    "formatted_address": "5,0(3)",
    "phone_number": "+393514759408",
    "source_url": "https://www.google.com/maps/place/Impiantistica+LAVONE/data=!4m7!3m6!1s0x47801dff11996ccd:0x32dd44b2b5154b33!8m2!3d44.7120611!4d10.6241549!16s%2Fg%2F11lp1gdrnd!19sChIJzWyZEf8dgEcRM0sVtbJE3TI?authuser=0&hl=tr&rclk=1",
    "website_url": "",
    "rating_text": "5,0",
    "stars": null,
    "number_of_reviews": null,
    "price_level": "",
    "open_hours": "",
    "extraction_timestamp": "2025-06-07T16:25:28.676Z",
    "source_name": "google",
    "source_query": "Irrigation Equipment",
    "source_country": "IT",
    "country": "Italy",
    "state": "Emilia-Romagna",
    "city": "Provincia di Reggio Emilia"
  },
  {
    "source_id": "ChIJ1c-YKEv3f0cRK_abF_cGaSU",
    "name": "Global Water Solutions Italia srl",
    "category": "Global Water Solutions Italia srl",
    "formatted_address": "4,8(4)",
    "phone_number": "+390522626307",
    "source_url": "https://www.google.com/maps/place/Global+Water+Solutions+Italia+srl/data=!4m7!3m6!1s0x477ff74b2898cfd5:0x256906f7179bf62b!8m2!3d44.6565234!4d10.7697472!16s%2Fg%2F11fzc76q7y!19sChIJ1c-YKEv3f0cRK_abF_cGaSU?authuser=0&hl=tr&rclk=1",
    "website_url": "https://www.globalwatersolutions.com/?lang=it",
    "rating_text": "4,8",
    "stars": null,
    "number_of_reviews": null,
    "price_level": "",
    "open_hours": "",
    "extraction_timestamp": "2025-06-07T16:25:28.677Z",
    "source_name": "google",
    "source_query": "Irrigation Equipment",
    "source_country": "IT",
    "country": "Italy",
    "state": "Emilia-Romagna",
    "city": "Provincia di Reggio Emilia"
  },
  {
    "source_id": "ChIJ69PdR1EvgEcRzaszzDo7sjQ",
    "name": "Nodolini s.n.c.",
    "category": "Nodolini s.n.c.",
    "formatted_address": "5,0(8)",
    "phone_number": "+390522977491",
    "source_url": "https://www.google.com/maps/place/Nodolini+s.n.c./data=!4m7!3m6!1s0x47802f5147ddd3eb:0x34b23b3acc33abcd!8m2!3d44.9541974!4d10.6879499!16s%2Fg%2F11b6j0n4vm!19sChIJ69PdR1EvgEcRzaszzDo7sjQ?authuser=0&hl=tr&rclk=1",
    "website_url": "http://www.nodolini.com/",
    "rating_text": "5,0",
    "stars": null,
    "number_of_reviews": null,
    "price_level": "",
    "open_hours": "",
    "extraction_timestamp": "2025-06-07T16:25:28.678Z",
    "source_name": "google",
    "source_query": "Irrigation Equipment",
    "source_country": "IT",
    "country": "Italy",
    "state": "Emilia-Romagna",
    "city": "Provincia di Reggio Emilia"
  },
  {
    "source_id": "ChIJwbFrw9wdgEcRUkQQWLvaJmc",
    "name": "Depurtecnica Trattamento Acque",
    "category": "Depurtecnica Trattamento Acque",
    "formatted_address": "4,7(19)",
    "phone_number": "+390522215085",
    "source_url": "https://www.google.com/maps/place/Depurtecnica+Trattamento+Acque/data=!4m7!3m6!1s0x47801ddcc36bb1c1:0x6726dabb58104452!8m2!3d44.7154811!4d10.6721644!16s%2Fg%2F11b75gdbf2!19sChIJwbFrw9wdgEcRUkQQWLvaJmc?authuser=0&hl=tr&rclk=1",
    "website_url": "https://depurtecnica.com/",
    "rating_text": "4,7",
    "stars": null,
    "number_of_reviews": null,
    "price_level": "",
    "open_hours": "",
    "extraction_timestamp": "2025-06-07T16:25:28.679Z",
    "source_name": "google",
    "source_query": "Irrigation Equipment",
    "source_country": "IT",
    "country": "Italy",
    "state": "Emilia-Romagna",
    "city": "Provincia di Reggio Emilia"
  },
  {
    "source_id": "ChIJna7HjaQcgEcR2wnTD8_e_HY",
    "name": "Hydrocontrol S.R.L.",
    "category": "Hydrocontrol S.R.L.",
    "formatted_address": "4,4(7)",
    "phone_number": "+390522330315",
    "source_url": "https://www.google.com/maps/place/Hydrocontrol+S.R.L./data=!4m7!3m6!1s0x47801ca48dc7ae9d:0x76fcdecf0fd309db!8m2!3d44.669783!4d10.597142!16s%2Fg%2F12hmcfzzg!19sChIJna7HjaQcgEcR2wnTD8_e_HY?authuser=0&hl=tr&rclk=1",
    "website_url": "https://www.hydrocontrol.it/",
    "rating_text": "4,4",
    "stars": null,
    "number_of_reviews": null,
    "price_level": "",
    "open_hours": "",
    "extraction_timestamp": "2025-06-07T16:25:28.680Z",
    "source_name": "google",
    "source_query": "Irrigation Equipment",
    "source_country": "IT",
    "country": "Italy",
    "state": "Emilia-Romagna",
    "city": "Provincia di Reggio Emilia"
  },
  {
    "source_id": "ChIJX-0HrXYcgEcRPiaDZKdV6iw",
    "name": "Idromeccanica Bertolini S.p.a.",
    "category": "Idromeccanica Bertolini S.p.a.",
    "formatted_address": "3,7(20)",
    "phone_number": "+390522306641",
    "source_url": "https://www.google.com/maps/place/Idromeccanica+Bertolini+S.p.a./data=!4m7!3m6!1s0x47801c76ad07ed5f:0x2cea55a76483263e!8m2!3d44.7131562!4d10.5953009!16s%2Fg%2F11b6j1nfcw!19sChIJX-0HrXYcgEcRPiaDZKdV6iw?authuser=0&hl=tr&rclk=1",
    "website_url": "http://www.bertolinipumps.com/",
    "rating_text": "3,7",
    "stars": null,
    "number_of_reviews": null,
    "price_level": "",
    "open_hours": "",
    "extraction_timestamp": "2025-06-07T16:25:28.681Z",
    "source_name": "google",
    "source_query": "Irrigation Equipment",
    "source_country": "IT",
    "country": "Italy",
    "state": "Emilia-Romagna",
    "city": "Provincia di Reggio Emilia"
  },
  {
    "source_id": "ChIJZa4nbJAegEcREqQVLyDrIik",
    "name": "Bell S.r.l.",
    "category": "Bell S.r.l.",
    "formatted_address": "4,1(8)",
    "phone_number": "+390522505911",
    "source_url": "https://www.google.com/maps/place/Bell+S.r.l./data=!4m7!3m6!1s0x47801e906c27ae65:0x2922eb202f15a412!8m2!3d44.7372115!4d10.6465257!16s%2Fg%2F1vl9qbfm!19sChIJZa4nbJAegEcREqQVLyDrIik?authuser=0&hl=tr&rclk=1",
    "website_url": "https://bell.it/",
    "rating_text": "4,1",
    "stars": null,
    "number_of_reviews": null,
    "price_level": "",
    "open_hours": "",
    "extraction_timestamp": "2025-06-07T16:25:28.682Z",
    "source_name": "google",
    "source_query": "Irrigation Equipment",
    "source_country": "IT",
    "country": "Italy",
    "state": "Emilia-Romagna",
    "city": "Provincia di Reggio Emilia"
  },
  {
    "source_id": "ChIJcQG6ul7df0cR3VxKiu5OPBs",
    "name": "Scova Impianti Srl",
    "category": "Scova Impianti Srl",
    "formatted_address": "4,5(64)",
    "phone_number": "+39059923202",
    "source_url": "https://www.google.com/maps/place/Scova+Impianti+Srl/data=!4m7!3m6!1s0x477fdd5ebaba0171:0x1b3c4eee8a4a5cdd!8m2!3d44.6018135!4d11.032294!16s%2Fg%2F1tfzwbfb!19sChIJcQG6ul7df0cR3VxKiu5OPBs?authuser=0&hl=tr&rclk=1",
    "website_url": "https://www.scovaimpianti.com/",
    "rating_text": "4,5",
    "stars": null,
    "number_of_reviews": null,
    "price_level": "",
    "open_hours": "",
    "extraction_timestamp": "2025-06-07T16:25:28.683Z",
    "source_name": "google",
    "source_query": "Irrigation Equipment",
    "source_country": "IT",
    "country": "Italy",
    "state": "Emilia-Romagna",
    "city": "Provincia di Reggio Emilia"
  },
  {
    "source_id": "ChIJveAeFroEgEcRZfa9xqlB6vM",
    "name": "Morelli Irrigazioni",
    "category": "Morelli Irrigazioni",
    "formatted_address": "1,0(1)",
    "phone_number": "+393480042122",
    "source_url": "https://www.google.com/maps/place/Morelli+Irrigazioni/data=!4m7!3m6!1s0x478004ba161ee0bd:0xf3ea41a9c6bdf665!8m2!3d44.649256!4d10.5636837!16s%2Fg%2F11gy01p0bd!19sChIJveAeFroEgEcRZfa9xqlB6vM?authuser=0&hl=tr&rclk=1",
    "website_url": "http://irrigazionimorelli.it/",
    "rating_text": "1,0",
    "stars": null,
    "number_of_reviews": null,
    "price_level": "",
    "open_hours": "",
    "extraction_timestamp": "2025-06-07T16:25:28.684Z",
    "source_name": "google",
    "source_query": "Irrigation Equipment",
    "source_country": "IT",
    "country": "Italy",
    "state": "Emilia-Romagna",
    "city": "Provincia di Reggio Emilia"
  },
  {
    "source_id": "ChIJa30wiigXgEcRs_I6dZm5x4o",
    "name": "Interpump Group S.p.A.",
    "category": "Interpump Group S.p.A.",
    "formatted_address": "4,0(13)",
    "phone_number": "+390522904311",
    "source_url": "https://www.google.com/maps/place/Interpump+Group+S.p.A./data=!4m7!3m6!1s0x478017288a307d6b:0x8ac7b999753af2b3!8m2!3d44.7510122!4d10.4807515!16s%2Fg%2F1v6l6bq9!19sChIJa30wiigXgEcRs_I6dZm5x4o?authuser=0&hl=tr&rclk=1",
    "website_url": "http://www.interpumpgroup.it/",
    "rating_text": "4,0",
    "stars": null,
    "number_of_reviews": null,
    "price_level": "",
    "open_hours": "",
    "extraction_timestamp": "2025-06-07T16:25:28.685Z",
    "source_name": "google",
    "source_query": "Irrigation Equipment",
    "source_country": "IT",
    "country": "Italy",
    "state": "Emilia-Romagna",
    "city": "Provincia di Reggio Emilia"
  },
  {
    "source_id": "ChIJq6qqqvsOgEcRu1RvVh_HOxo",
    "name": "HYDRO TECHNOLOGY di Giacopini Matteo",
    "category": "HYDRO TECHNOLOGY di Giacopini Matteo",
    "formatted_address": "4,7(13)",
    "phone_number": "+393203091135",
    "source_url": "https://www.google.com/maps/place/HYDRO+TECHNOLOGY+di+Giacopini+Matteo/data=!4m7!3m6!1s0x47800efbaaaaaaab:0x1a3bc71f566f54bb!8m2!3d44.5879042!4d10.4047862!16s%2Fg%2F11fjvwhnlp!19sChIJq6qqqvsOgEcRu1RvVh_HOxo?authuser=0&hl=tr&rclk=1",
    "website_url": "http://ht-hydrotechnology.com/",
    "rating_text": "4,7",
    "stars": null,
    "number_of_reviews": null,
    "price_level": "",
    "open_hours": "",
    "extraction_timestamp": "2025-06-07T16:25:28.685Z",
    "source_name": "google",
    "source_query": "Irrigation Equipment",
    "source_country": "IT",
    "country": "Italy",
    "state": "Emilia-Romagna",
    "city": "Provincia di Reggio Emilia"
  },
  {
    "source_id": "ChIJh5ntU4UegEcRhIP4fbjkHS8",
    "name": "Attrezzature zootecniche - Nuova Cagi",
    "category": "Attrezzature zootecniche - Nuova Cagi",
    "formatted_address": "5,0(4)",
    "phone_number": "+390522517651",
    "source_url": "https://www.google.com/maps/place/Attrezzature+zootecniche+-+Nuova+Cagi/data=!4m7!3m6!1s0x47801e8553ed9987:0x2f1de4b87df88384!8m2!3d44.7357516!4d10.647524!16s%2Fg%2F1tf34tbn!19sChIJh5ntU4UegEcRhIP4fbjkHS8?authuser=0&hl=tr&rclk=1",
    "website_url": "https://nuovacagi.com/",
    "rating_text": "5,0",
    "stars": null,
    "number_of_reviews": null,
    "price_level": "",
    "open_hours": "",
    "extraction_timestamp": "2025-06-07T16:25:28.686Z",
    "source_name": "google",
    "source_query": "Irrigation Equipment",
    "source_country": "IT",
    "country": "Italy",
    "state": "Emilia-Romagna",
    "city": "Provincia di Reggio Emilia"
  },
  {
    "source_id": "ChIJ8S_H450fgEcRen1BwvkupIc",
    "name": "Agro-system Snc di Bassoli - Piscine e Macchine giardino - Reggio Emilia",
    "category": "Agro-system Snc di Bassoli - Piscine e Macchine giardino - Reggio Emilia",
    "formatted_address": "4,6(88)",
    "phone_number": "+390522954100",
    "source_url": "https://www.google.com/maps/place/Agro-system+Snc+di+Bassoli+-+Piscine+e+Macchine+giardino+-+Reggio+Emilia/data=!4m7!3m6!1s0x47801f9de3c72ff1:0x87a42ef9c2417d7a!8m2!3d44.797091!4d10.686568!16s%2Fg%2F1tfb5f45!19sChIJ8S_H450fgEcRen1BwvkupIc?authuser=0&hl=tr&rclk=1",
    "website_url": "https://agrosystem.info/",
    "rating_text": "4,6",
    "stars": null,
    "number_of_reviews": null,
    "price_level": "",
    "open_hours": "",
    "extraction_timestamp": "2025-06-07T16:25:28.687Z",
    "source_name": "google",
    "source_query": "Irrigation Equipment",
    "source_country": "IT",
    "country": "Italy",
    "state": "Emilia-Romagna",
    "city": "Provincia di Reggio Emilia"
  },
  {
    "source_id": "ChIJq5e6TTv0f0cRe0lfkBwyQVE",
    "name": "Aqua Industrial Group",
    "category": "Aqua Industrial Group",
    "formatted_address": "3,5(10)",
    "phone_number": "+390522695805",
    "source_url": "https://www.google.com/maps/place/Aqua+Industrial+Group/data=!4m7!3m6!1s0x477ff43b4dba97ab:0x5141321c905f497b!8m2!3d44.7252141!4d10.7656823!16s%2Fg%2F1hc61vd63!19sChIJq5e6TTv0f0cRe0lfkBwyQVE?authuser=0&hl=tr&rclk=1",
    "website_url": "http://www.aqua.it/",
    "rating_text": "3,5",
    "stars": null,
    "number_of_reviews": null,
    "price_level": "",
    "open_hours": "",
    "extraction_timestamp": "2025-06-07T16:25:28.688Z",
    "source_name": "google",
    "source_query": "Irrigation Equipment",
    "source_country": "IT",
    "country": "Italy",
    "state": "Emilia-Romagna",
    "city": "Provincia di Reggio Emilia"
  },
  {
    "source_id": "ChIJj8nUhj4kgEcRy8HJk69hn04",
    "name": "Euroclamp S.R.L.",
    "category": "Euroclamp S.R.L.",
    "formatted_address": "4,2(39)",
    "phone_number": "+390522832081",
    "source_url": "https://www.google.com/maps/place/Euroclamp+S.R.L./data=!4m7!3m6!1s0x4780243e86d4c98f:0x4e9f61af93c9c1cb!8m2!3d44.8993434!4d10.654448!16s%2Fg%2F1tdrd6nd!19sChIJj8nUhj4kgEcRy8HJk69hn04?authuser=0&hl=tr&rclk=1",
    "website_url": "http://euroclampsrl.com/",
    "rating_text": "4,2",
    "stars": null,
    "number_of_reviews": null,
    "price_level": "",
    "open_hours": "",
    "extraction_timestamp": "2025-06-07T16:25:28.689Z",
    "source_name": "google",
    "source_query": "Irrigation Equipment",
    "source_country": "IT",
    "country": "Italy",
    "state": "Emilia-Romagna",
    "city": "Provincia di Reggio Emilia"
  },
  {
    "source_id": "ChIJIRAYK40bgEcRdspALyddyXE",
    "name": "Unicom S.p.a.",
    "category": "Unicom S.p.a.",
    "formatted_address": "4,4(163)",
    "phone_number": "+390522930168",
    "source_url": "https://www.google.com/maps/place/Unicom+S.p.a./data=!4m7!3m6!1s0x47801b8d2b181021:0x71c95d272f40ca76!8m2!3d44.7129837!4d10.5959836!16s%2Fg%2F11b_2f8c_n!19sChIJIRAYK40bgEcRdspALyddyXE?authuser=0&hl=tr&rclk=1",
    "website_url": "https://www.unicom.it/?utm_campaign=gmb-listing&utm_medium=organic&utm_source=google&utm_term=reggio-emilia",
    "rating_text": "4,4",
    "stars": null,
    "number_of_reviews": null,
    "price_level": "",
    "open_hours": "",
    "extraction_timestamp": "2025-06-07T16:25:28.690Z",
    "source_name": "google",
    "source_query": "Irrigation Equipment",
    "source_country": "IT",
    "country": "Italy",
    "state": "Emilia-Romagna",
    "city": "Provincia di Reggio Emilia"
  },
  {
    "source_id": "ChIJeyF_JI0dgEcRph_mLapLnA0",
    "name": "Bertani S.p.a. - Sede e Magazzino di Reggio Emilia",
    "category": "Bertani S.p.a. - Sede e Magazzino di Reggio Emilia",
    "formatted_address": "4,1(98)",
    "phone_number": "+390522355511",
    "source_url": "https://www.google.com/maps/place/Bertani+S.p.a.+-+Sede+e+Magazzino+di+Reggio+Emilia/data=!4m7!3m6!1s0x47801d8d247f217b:0xd9c4baa2de61fa6!8m2!3d44.6724548!4d10.6435146!16s%2Fg%2F1wf37g1y!19sChIJeyF_JI0dgEcRph_mLapLnA0?authuser=0&hl=tr&rclk=1",
    "website_url": "https://www.bertani.it/it_IT/punti-vendita/sede-reggio-emilia",
    "rating_text": "4,1",
    "stars": null,
    "number_of_reviews": null,
    "price_level": "",
    "open_hours": "",
    "extraction_timestamp": "2025-06-07T16:25:28.691Z",
    "source_name": "google",
    "source_query": "Irrigation Equipment",
    "source_country": "IT",
    "country": "Italy",
    "state": "Emilia-Romagna",
    "city": "Provincia di Reggio Emilia"
  },
  {
    "source_id": "ChIJtVDkNgRFgEcRqc6umwWIJuI",
    "name": "Rm Spa",
    "category": "Rm Spa",
    "formatted_address": "4,6(81)",
    "phone_number": "+390521872321",
    "source_url": "https://www.google.com/maps/place/Rm+Spa/data=!4m7!3m6!1s0x4780450436e450b5:0xe22688059baecea9!8m2!3d44.9105406!4d10.2583785!16s%2Fg%2F12hl93byl!19sChIJtVDkNgRFgEcRqc6umwWIJuI?authuser=0&hl=tr&rclk=1",
    "website_url": "http://www.rmirrigation.com/",
    "rating_text": "4,6",
    "stars": null,
    "number_of_reviews": null,
    "price_level": "",
    "open_hours": "",
    "extraction_timestamp": "2025-06-07T16:25:28.691Z",
    "source_name": "google",
    "source_query": "Irrigation Equipment",
    "source_country": "IT",
    "country": "Italy",
    "state": "Emilia-Romagna",
    "city": "Provincia di Reggio Emilia"
  },
  {
    "source_id": "ChIJR0cLXhQkgEcRi9oI9GALzlg",
    "name": "IRRILAND",
    "category": "IRRILAND",
    "formatted_address": "4,0(4)",
    "phone_number": "+390522831544",
    "source_url": "https://www.google.com/maps/place/IRRILAND/data=!4m7!3m6!1s0x478024145e0b4747:0x58ce0b60f408da8b!8m2!3d44.891987!4d10.650983!16s%2Fg%2F1tczjb0h!19sChIJR0cLXhQkgEcRi9oI9GALzlg?authuser=0&hl=tr&rclk=1",
    "website_url": "http://www.irriland.it/",
    "rating_text": "4,0",
    "stars": null,
    "number_of_reviews": null,
    "price_level": "",
    "open_hours": "",
    "extraction_timestamp": "2025-06-07T16:25:28.692Z",
    "source_name": "google",
    "source_query": "Irrigation Equipment",
    "source_country": "IT",
    "country": "Italy",
    "state": "Emilia-Romagna",
    "city": "Provincia di Reggio Emilia"
  },
  {
    "source_id": "ChIJN7GAlk-Jf0cRUw3Ah4cFO-o",
    "name": "Elettromeccanica Calzolari Srl",
    "category": "Elettromeccanica Calzolari Srl",
    "formatted_address": "4,5(108)",
    "phone_number": "+390522665507",
    "source_url": "https://www.google.com/maps/place/Elettromeccanica+Calzolari+Srl/data=!4m7!3m6!1s0x477f894f9680b137:0xea3b058787c00d53!8m2!3d44.869564!4d10.8407936!16s%2Fg%2F1tdn_9j9!19sChIJN7GAlk-Jf0cRUw3Ah4cFO-o?authuser=0&hl=tr&rclk=1",
    "website_url": "http://www.calzolarire.it/",
    "rating_text": "4,5",
    "stars": null,
    "number_of_reviews": null,
    "price_level": "",
    "open_hours": "",
    "extraction_timestamp": "2025-06-07T16:25:28.693Z",
    "source_name": "google",
    "source_query": "Irrigation Equipment",
    "source_country": "IT",
    "country": "Italy",
    "state": "Emilia-Romagna",
    "city": "Provincia di Reggio Emilia"
  },
  {
    "source_id": "ChIJk1xf3gocgEcR7YDnq1JIXQQ",
    "name": "Idraulica Emiliana S.p.A.",
    "category": "Idraulica Emiliana S.p.A.",
    "formatted_address": "4,4(32)",
    "phone_number": "+390522383297",
    "source_url": "https://www.google.com/maps/place/Idraulica+Emiliana+S.p.A./data=!4m7!3m6!1s0x47801c0ade5f5c93:0x45d4852abe780ed!8m2!3d44.7129186!4d10.6066972!16s%2Fg%2F11bzs43my6!19sChIJk1xf3gocgEcR7YDnq1JIXQQ?authuser=0&hl=tr&rclk=1",
    "website_url": "http://www.idraulicaemiliana.com/",
    "rating_text": "4,4",
    "stars": null,
    "number_of_reviews": null,
    "price_level": "",
    "open_hours": "",
    "extraction_timestamp": "2025-06-07T16:25:28.694Z",
    "source_name": "google",
    "source_query": "Irrigation Equipment",
    "source_country": "IT",
    "country": "Italy",
    "state": "Emilia-Romagna",
    "city": "Provincia di Reggio Emilia"
  },
  {
    "source_id": "ChIJpVXhPQ0cgEcRE8_9M6siopU",
    "name": "Agriservice (Div. di RAMA S.p.A.)",
    "category": "Agriservice (Div. di RAMA S.p.A.)",
    "formatted_address": "4,3(236)",
    "phone_number": "+3905221723760",
    "source_url": "https://www.google.com/maps/place/Agriservice+%28Div.+di+RAMA+S.p.A.%29/data=!4m7!3m6!1s0x47801c0d3de155a5:0x95a222ab33fdcf13!8m2!3d44.7173748!4d10.6444488!16s%2Fg%2F12hpr37fh!19sChIJpVXhPQ0cgEcRE8_9M6siopU?authuser=0&hl=tr&rclk=1",
    "website_url": "http://www.agriservice.rama.it/",
    "rating_text": "4,3",
    "stars": null,
    "number_of_reviews": null,
    "price_level": "",
    "open_hours": "",
    "extraction_timestamp": "2025-06-07T16:25:28.695Z",
    "source_name": "google",
    "source_query": "Irrigation Equipment",
    "source_country": "IT",
    "country": "Italy",
    "state": "Emilia-Romagna",
    "city": "Provincia di Reggio Emilia"
  },
  {
    "source_id": "ChIJJ6V6lMDgf0cR1SpFsfjDuHg",
    "name": "Ocmis Irrigazione Spa",
    "category": "Ocmis Irrigazione Spa",
    "formatted_address": "3,5(31)",
    "phone_number": "+39059702150",
    "source_url": "https://www.google.com/maps/place/Ocmis+Irrigazione+Spa/data=!4m7!3m6!1s0x477fe0c0947aa527:0x78b8c3f8b1452ad5!8m2!3d44.530494!4d10.9794578!16s%2Fg%2F1vd3tn19!19sChIJJ6V6lMDgf0cR1SpFsfjDuHg?authuser=0&hl=tr&rclk=1",
    "website_url": "http://www.ocmis-irrigazione.it/",
    "rating_text": "3,5",
    "stars": null,
    "number_of_reviews": null,
    "price_level": "",
    "open_hours": "",
    "extraction_timestamp": "2025-06-07T16:25:28.696Z",
    "source_name": "google",
    "source_query": "Irrigation Equipment",
    "source_country": "IT",
    "country": "Italy",
    "state": "Emilia-Romagna",
    "city": "Provincia di Reggio Emilia"
  },
  {
    "source_id": "ChIJa8flob_wf0cRa7XVBodnL2I",
    "name": "Arag Srl",
    "category": "Arag Srl",
    "formatted_address": "4,6(141)",
    "phone_number": "+390522622011",
    "source_url": "https://www.google.com/maps/place/Arag+Srl/data=!4m7!3m6!1s0x477ff0bfa1e5c76b:0x622f678706d5b56b!8m2!3d44.6556162!4d10.7922409!16s%2Fg%2F1tdnd2vb!19sChIJa8flob_wf0cRa7XVBodnL2I?authuser=0&hl=tr&rclk=1",
    "website_url": "http://www.aragnet.com/",
    "rating_text": "4,6",
    "stars": null,
    "number_of_reviews": null,
    "price_level": "",
    "open_hours": "",
    "extraction_timestamp": "2025-06-07T16:25:28.697Z",
    "source_name": "google",
    "source_query": "Irrigation Equipment",
    "source_country": "IT",
    "country": "Italy",
    "state": "Emilia-Romagna",
    "city": "Provincia di Reggio Emilia"
  },
  {
    "source_id": "ChIJe_dqcYQegEcROeFQgvR_W_I",
    "name": "Franzini Annibale Spa",
    "category": "Franzini Annibale Spa",
    "formatted_address": "4,1(61)",
    "phone_number": "+390522929411",
    "source_url": "https://www.google.com/maps/place/Franzini+Annibale+Spa/data=!4m7!3m6!1s0x47801e84716af77b:0xf25b7ff48250e139!8m2!3d44.737914!4d10.6540742!16s%2Fg%2F1thclml2!19sChIJe_dqcYQegEcROeFQgvR_W_I?authuser=0&hl=tr&rclk=1",
    "website_url": "https://www.franzini.it/",
    "rating_text": "4,1",
    "stars": null,
    "number_of_reviews": null,
    "price_level": "",
    "open_hours": "",
    "extraction_timestamp": "2025-06-07T16:25:28.697Z",
    "source_name": "google",
    "source_query": "Irrigation Equipment",
    "source_country": "IT",
    "country": "Italy",
    "state": "Emilia-Romagna",
    "city": "Provincia di Reggio Emilia"
  },
  {
    "source_id": "ChIJzcFQMxQkgEcRn-wZrxhX9_E",
    "name": "Omv Officine Meccaniche",
    "category": "Omv Officine Meccaniche",
    "formatted_address": "4,3(26)",
    "phone_number": "+390522831361",
    "source_url": "https://www.google.com/maps/place/Omv+Officine+Meccaniche/data=!4m7!3m6!1s0x478024143350c1cd:0xf1f75718af19ec9f!8m2!3d44.8935027!4d10.6517664!16s%2Fg%2F1td5q3gq!19sChIJzcFQMxQkgEcRn-wZrxhX9_E?authuser=0&hl=tr&rclk=1",
    "website_url": "http://www.omve.it/",
    "rating_text": "4,3",
    "stars": null,
    "number_of_reviews": null,
    "price_level": "",
    "open_hours": "",
    "extraction_timestamp": "2025-06-07T16:25:28.698Z",
    "source_name": "google",
    "source_query": "Irrigation Equipment",
    "source_country": "IT",
    "country": "Italy",
    "state": "Emilia-Romagna",
    "city": "Provincia di Reggio Emilia"
  },
  {
    "source_id": "ChIJgyFIM7P3f0cR-IOpDf5oIOU",
    "name": "Agri1 Reggio Emilia",
    "category": "Agri1 Reggio Emilia",
    "formatted_address": "4,5(144)",
    "phone_number": "+390522351584",
    "source_url": "https://www.google.com/maps/place/Agri1+Reggio+Emilia/data=!4m7!3m6!1s0x477ff7b333482183:0xe52068fe0da983f8!8m2!3d44.6698024!4d10.708226!16s%2Fg%2F1hc139g75!19sChIJgyFIM7P3f0cR-IOpDf5oIOU?authuser=0&hl=tr&rclk=1",
    "website_url": "https://www.agri1.it/",
    "rating_text": "4,5",
    "stars": null,
    "number_of_reviews": null,
    "price_level": "",
    "open_hours": "",
    "extraction_timestamp": "2025-06-07T16:25:28.699Z",
    "source_name": "google",
    "source_query": "Irrigation Equipment",
    "source_country": "IT",
    "country": "Italy",
    "state": "Emilia-Romagna",
    "city": "Provincia di Reggio Emilia"
  },
  {
    "source_id": "ChIJ3SjiCzMagEcRDX4gPOM2sM4",
    "name": "Emiltec Srl - Tecnologie per la pulizia industriale",
    "category": "Emiltec Srl - Tecnologie per la pulizia industriale",
    "formatted_address": "4,3(3)",
    "phone_number": "+390522941825",
    "source_url": "https://www.google.com/maps/place/Emiltec+Srl+-+Tecnologie+per+la+pulizia+industriale/data=!4m7!3m6!1s0x47801a330be228dd:0xceb036e33c207e0d!8m2!3d44.7427684!4d10.6495126!16s%2Fg%2F11g5_4qxs1!19sChIJ3SjiCzMagEcRDX4gPOM2sM4?authuser=0&hl=tr&rclk=1",
    "website_url": "https://www.emiltec.com/",
    "rating_text": "4,3",
    "stars": null,
    "number_of_reviews": null,
    "price_level": "",
    "open_hours": "",
    "extraction_timestamp": "2025-06-07T16:25:28.700Z",
    "source_name": "google",
    "source_query": "Irrigation Equipment",
    "source_country": "IT",
    "country": "Italy",
    "state": "Emilia-Romagna",
    "city": "Provincia di Reggio Emilia"
  },
  {
    "source_id": "ChIJQ0CSwgocgEcRVX3A3Ox6yyA",
    "name": "Gom-Plast",
    "category": "Gom-Plast",
    "formatted_address": "4,1(138)",
    "phone_number": "+390522382333",
    "source_url": "https://www.google.com/maps/place/Gom-Plast/data=!4m7!3m6!1s0x47801c0ac2924043:0x20cb7aecdcc07d55!8m2!3d44.7138804!4d10.6066999!16s%2Fg%2F1tcyd9rq!19sChIJQ0CSwgocgEcRVX3A3Ox6yyA?authuser=0&hl=tr&rclk=1",
    "website_url": "http://www.gomplast.it/",
    "rating_text": "4,1",
    "stars": null,
    "number_of_reviews": null,
    "price_level": "",
    "open_hours": "",
    "extraction_timestamp": "2025-06-07T16:25:28.701Z",
    "source_name": "google",
    "source_query": "Irrigation Equipment",
    "source_country": "IT",
    "country": "Italy",
    "state": "Emilia-Romagna",
    "city": "Provincia di Reggio Emilia"
  },
  {
    "source_id": "ChIJq2tl2JMegEcRtJo1-Rc7V30",
    "name": "GB ServiceLab",
    "category": "GB ServiceLab",
    "formatted_address": "5,0(3)",
    "phone_number": "+390522232767",
    "source_url": "https://www.google.com/maps/place/GB+ServiceLab/data=!4m7!3m6!1s0x47801e93d8656bab:0x7d573b17f9359ab4!8m2!3d44.7407044!4d10.6461569!16s%2Fg%2F11f087_1bb!19sChIJq2tl2JMegEcRtJo1-Rc7V30?authuser=0&hl=tr&rclk=1",
    "website_url": "http://www.gbservicelab.com/",
    "rating_text": "5,0",
    "stars": null,
    "number_of_reviews": null,
    "price_level": "",
    "open_hours": "",
    "extraction_timestamp": "2025-06-07T16:25:28.702Z",
    "source_name": "google",
    "source_query": "Irrigation Equipment",
    "source_country": "IT",
    "country": "Italy",
    "state": "Emilia-Romagna",
    "city": "Provincia di Reggio Emilia"
  },
  {
    "source_id": "ChIJod0jgK0egEcRmJfHEnsv9gE",
    "name": "Arboform. Arboriculture, training and gardening",
    "category": "Arboform. Arboriculture, training and gardening",
    "formatted_address": "Arboform. Arboriculture, training and gardening",
    "phone_number": "+393343207589",
    "source_url": "https://www.google.com/maps/place/Arboform.+Arboriculture,+training+and+gardening/data=!4m7!3m6!1s0x47801ead8023dda1:0x1f62f7b12c79798!8m2!3d44.7389379!4d10.6167074!16s%2Fg%2F11b7hjx83x!19sChIJod0jgK0egEcRmJfHEnsv9gE?authuser=0&hl=tr&rclk=1",
    "website_url": "",
    "rating_text": "4,5",
    "stars": null,
    "number_of_reviews": null,
    "price_level": "",
    "open_hours": "",
    "extraction_timestamp": "2025-06-07T16:25:28.703Z",
    "source_name": "google",
    "source_query": "Irrigation Equipment",
    "source_country": "IT",
    "country": "Italy",
    "state": "Emilia-Romagna",
    "city": "Provincia di Reggio Emilia"
  },
  {
    "source_id": "ChIJQWHVfm4cgEcRfBrfE3BfA8s",
    "name": "Oleodinamica Reva",
    "category": "Oleodinamica Reva",
    "formatted_address": "5,0(2)",
    "phone_number": "+390522381830",
    "source_url": "https://www.google.com/maps/place/Oleodinamica+Reva/data=!4m7!3m6!1s0x47801c6e7ed56141:0xcb035f7013df1a7c!8m2!3d44.7063354!4d10.6160711!16s%2Fg%2F1td4cdbg!19sChIJQWHVfm4cgEcRfBrfE3BfA8s?authuser=0&hl=tr&rclk=1",
    "website_url": "http://www.oleodinamicareva.com/",
    "rating_text": "5,0",
    "stars": null,
    "number_of_reviews": null,
    "price_level": "",
    "open_hours": "",
    "extraction_timestamp": "2025-06-07T16:25:28.703Z",
    "source_name": "google",
    "source_query": "Irrigation Equipment",
    "source_country": "IT",
    "country": "Italy",
    "state": "Emilia-Romagna",
    "city": "Provincia di Reggio Emilia"
  }
]
