[
  {
    "source_id": "ChIJV8Tw2BWoLBMRUiDGfGmgW6Q",
    "name": "Celli SpA",
    "category": "Celli SpA",
    "formatted_address": "4,4(53)",
    "phone_number": "+390543794711",
    "source_url": "https://www.google.com/maps/place/Celli+SpA/data=!4m7!3m6!1s0x132ca815d8f0c457:0xa45ba0697cc62052!8m2!3d44.2283973!4d12.0864124!16s%2Fg%2F12hm98f70!19sChIJV8Tw2BWoLBMRUiDGfGmgW6Q?authuser=0&hl=tr&rclk=1",
    "website_url": "http://www.celli.it/",
    "rating_text": "4,4",
    "stars": null,
    "number_of_reviews": null,
    "price_level": "",
    "open_hours": "",
    "extraction_timestamp": "2025-06-07T17:09:38.822Z",
    "source_name": "google",
    "source_query": "Irrigation Equipment",
    "source_country": "IT",
    "country": "Italy",
    "state": "Emilia-Romagna",
    "city": "Provincia di Forlì-Cesena"
  },
  {
    "source_id": "ChIJ68i18nq6LBMRHr0Y1_62DLE",
    "name": "Lineaverde s.a.s. di Fantini Marina",
    "category": "Lineaverde s.a.s. di Fantini Marina",
    "formatted_address": "4,8(24)",
    "phone_number": "+390547322071",
    "source_url": "https://www.google.com/maps/place/Lineaverde+s.a.s.+di+Fantini+Marina/data=!4m7!3m6!1s0x132cba7af2b5c8eb:0xb10cb6fed718bd1e!8m2!3d44.176567!4d12.3105783!16s%2Fg%2F11d_25mn6t!19sChIJ68i18nq6LBMRHr0Y1_62DLE?authuser=0&hl=tr&rclk=1",
    "website_url": "http://www.lineaverdecesena.it/",
    "rating_text": "4,8",
    "stars": null,
    "number_of_reviews": null,
    "price_level": "",
    "open_hours": "",
    "extraction_timestamp": "2025-06-07T17:09:38.823Z",
    "source_name": "google",
    "source_query": "Irrigation Equipment",
    "source_country": "IT",
    "country": "Italy",
    "state": "Emilia-Romagna",
    "city": "Provincia di Forlì-Cesena"
  },
  {
    "source_id": "ChIJ1dctBE66LBMRYD-M3IRBi9M",
    "name": "Venturi SAS di Venturi Piero & C.",
    "category": "Venturi SAS di Venturi Piero & C.",
    "formatted_address": "4,3(64)",
    "phone_number": "+390547311136",
    "source_url": "https://www.google.com/maps/place/Venturi+SAS+di+Venturi+Piero+%26+C./data=!4m7!3m6!1s0x132cba4e042dd7d5:0xd38b4184dc8c3f60!8m2!3d44.1516799!4d12.3126239!16s%2Fg%2F11csb23jzd!19sChIJ1dctBE66LBMRYD-M3IRBi9M?authuser=0&hl=tr&rclk=1",
    "website_url": "https://www.venturi.fc.it/",
    "rating_text": "4,3",
    "stars": null,
    "number_of_reviews": null,
    "price_level": "",
    "open_hours": "",
    "extraction_timestamp": "2025-06-07T17:09:38.825Z",
    "source_name": "google",
    "source_query": "Irrigation Equipment",
    "source_country": "IT",
    "country": "Italy",
    "state": "Emilia-Romagna",
    "city": "Provincia di Forlì-Cesena"
  },
  {
    "source_id": "ChIJ1xYfYTK7LBMRH8fF3soqxIc",
    "name": "Caselli Mirco",
    "category": "Caselli Mirco",
    "formatted_address": "4,7(75)",
    "phone_number": "+390547645010",
    "source_url": "https://www.google.com/maps/place/Caselli+Mirco/data=!4m7!3m6!1s0x132cbb32611f16d7:0x87c42acadec5c71f!8m2!3d44.1180337!4d12.306261!16s%2Fg%2F1hc61vjd1!19sChIJ1xYfYTK7LBMRH8fF3soqxIc?authuser=0&hl=tr&rclk=1",
    "website_url": "",
    "rating_text": "4,7",
    "stars": null,
    "number_of_reviews": null,
    "price_level": "",
    "open_hours": "",
    "extraction_timestamp": "2025-06-07T17:09:38.826Z",
    "source_name": "google",
    "source_query": "Irrigation Equipment",
    "source_country": "IT",
    "country": "Italy",
    "state": "Emilia-Romagna",
    "city": "Provincia di Forlì-Cesena"
  },
  {
    "source_id": "ChIJy4AVn9C-LBMRn6nsnuZl82A",
    "name": "Ramilli Irrigazioni S.R.L.",
    "category": "Ramilli Irrigazioni S.R.L.",
    "formatted_address": "4,3(52)",
    "phone_number": "+390541945335",
    "source_url": "https://www.google.com/maps/place/Ramilli+Irrigazioni+S.R.L./data=!4m7!3m6!1s0x132cbed09f1580cb:0x60f365e69eeca99f!8m2!3d44.0923156!4d12.3843691!16s%2Fg%2F1ts2ls1r!19sChIJy4AVn9C-LBMRn6nsnuZl82A?authuser=0&hl=tr&rclk=1",
    "website_url": "https://www.ramilli.it/",
    "rating_text": "4,3",
    "stars": null,
    "number_of_reviews": null,
    "price_level": "",
    "open_hours": "",
    "extraction_timestamp": "2025-06-07T17:09:38.829Z",
    "source_name": "google",
    "source_query": "Irrigation Equipment",
    "source_country": "IT",
    "country": "Italy",
    "state": "Emilia-Romagna",
    "city": "Provincia di Forlì-Cesena"
  },
  {
    "source_id": "ChIJxwyfbMW-LBMR82ivWDKLyak",
    "name": "Campedelli srl",
    "category": "Campedelli srl",
    "formatted_address": "4,3(20)",
    "phone_number": "+390541945180",
    "source_url": "https://www.google.com/maps/place/Campedelli+srl/data=!4m7!3m6!1s0x132cbec56c9f0cc7:0xa9c98b3258af68f3!8m2!3d44.0913771!4d12.3790216!16s%2Fg%2F1td55wfn!19sChIJxwyfbMW-LBMR82ivWDKLyak?authuser=0&hl=tr&rclk=1",
    "website_url": "https://www.facebook.com/pg/campedellisrl.savignanosulrubicone/community/",
    "rating_text": "4,3",
    "stars": null,
    "number_of_reviews": null,
    "price_level": "",
    "open_hours": "",
    "extraction_timestamp": "2025-06-07T17:09:38.831Z",
    "source_name": "google",
    "source_query": "Irrigation Equipment",
    "source_country": "IT",
    "country": "Italy",
    "state": "Emilia-Romagna",
    "city": "Provincia di Forlì-Cesena"
  },
  {
    "source_id": "ChIJX2vRCQmmLBMROcU27b5c8cg",
    "name": "Plastica Cesena",
    "category": "Plastica Cesena",
    "formatted_address": "4,6(14)",
    "phone_number": "+390543745063",
    "source_url": "https://www.google.com/maps/place/Plastica+Cesena/data=!4m7!3m6!1s0x132ca60909d16b5f:0xc8f15cbeed36c539!8m2!3d44.1883508!4d12.1605152!16s%2Fg%2F1ts2ls14!19sChIJX2vRCQmmLBMROcU27b5c8cg?authuser=0&hl=tr&rclk=1",
    "website_url": "http://www.plasticacesena.com/",
    "rating_text": "4,6",
    "stars": null,
    "number_of_reviews": null,
    "price_level": "",
    "open_hours": "",
    "extraction_timestamp": "2025-06-07T17:09:38.832Z",
    "source_name": "google",
    "source_query": "Irrigation Equipment",
    "source_country": "IT",
    "country": "Italy",
    "state": "Emilia-Romagna",
    "city": "Provincia di Forlì-Cesena"
  },
  {
    "source_id": "ChIJ85cgpku6LBMRfX081ZX-wQQ",
    "name": "Idroget Atomizzatori Di Bianchi Carlo E C. (S.N.C.)",
    "category": "Idroget Atomizzatori Di Bianchi Carlo E C. (S.N.C.)",
    "formatted_address": "4,7(10)",
    "phone_number": "+390547300163",
    "source_url": "https://www.google.com/maps/place/Idroget+Atomizzatori+Di+Bianchi+Carlo+E+C.+%28S.N.C.%29/data=!4m7!3m6!1s0x132cba4ba62097f3:0x4c1fe95d53c7d7d!8m2!3d44.1418046!4d12.3078685!16s%2Fg%2F11b6j8p8p3!19sChIJ85cgpku6LBMRfX081ZX-wQQ?authuser=0&hl=tr&rclk=1",
    "website_url": "http://www.idroget.it/",
    "rating_text": "4,7",
    "stars": null,
    "number_of_reviews": null,
    "price_level": "",
    "open_hours": "",
    "extraction_timestamp": "2025-06-07T17:09:38.833Z",
    "source_name": "google",
    "source_query": "Irrigation Equipment",
    "source_country": "IT",
    "country": "Italy",
    "state": "Emilia-Romagna",
    "city": "Provincia di Forlì-Cesena"
  },
  {
    "source_id": "ChIJO9LZplClLBMRoc5mYg6AFeY",
    "name": "Irrigazione Balestra Di Battistini Filippo & Francesca SNC",
    "category": "Irrigazione Balestra Di Battistini Filippo & Francesca SNC",
    "formatted_address": "4,6(14)",
    "phone_number": "+390547384176",
    "source_url": "https://www.google.com/maps/place/Irrigazione+Balestra+Di+Battistini+Filippo+%26+Francesca+SNC/data=!4m7!3m6!1s0x132ca550a6d9d23b:0xe615800e6266cea1!8m2!3d44.1861044!4d12.2437073!16s%2Fg%2F1tf90qkj!19sChIJO9LZplClLBMRoc5mYg6AFeY?authuser=0&hl=tr&rclk=1",
    "website_url": "http://www.irrigazionebalestra.it/public/contatti.php?pagina=contatti",
    "rating_text": "4,6",
    "stars": null,
    "number_of_reviews": null,
    "price_level": "",
    "open_hours": "",
    "extraction_timestamp": "2025-06-07T17:09:38.834Z",
    "source_name": "google",
    "source_query": "Irrigation Equipment",
    "source_country": "IT",
    "country": "Italy",
    "state": "Emilia-Romagna",
    "city": "Provincia di Forlì-Cesena"
  },
  {
    "source_id": "ChIJAbwfMgi8LBMRioiar71f0bM",
    "name": "Calandrini Irrigazioni",
    "category": "Calandrini Irrigazioni",
    "formatted_address": "4,4(18)",
    "phone_number": "+39054756150",
    "source_url": "https://www.google.com/maps/place/Calandrini+Irrigazioni/data=!4m7!3m6!1s0x132cbc08321fbc01:0xb3d15fbdaf9a888a!8m2!3d44.1072556!4d12.3324437!16s%2Fg%2F1td0k7ly!19sChIJAbwfMgi8LBMRioiar71f0bM?authuser=0&hl=tr&rclk=1",
    "website_url": "https://www.irrigazionicalandrini.it/",
    "rating_text": "4,4",
    "stars": null,
    "number_of_reviews": null,
    "price_level": "",
    "open_hours": "",
    "extraction_timestamp": "2025-06-07T17:09:38.835Z",
    "source_name": "google",
    "source_query": "Irrigation Equipment",
    "source_country": "IT",
    "country": "Italy",
    "state": "Emilia-Romagna",
    "city": "Provincia di Forlì-Cesena"
  },
  {
    "source_id": "ChIJgffGccWkLBMRWvzGQx0UvtI",
    "name": "Benaglia S.A.S. Di Benaglia Franco E C.",
    "category": "Benaglia S.A.S. Di Benaglia Franco E C.",
    "formatted_address": "4,5(54)",
    "phone_number": "+390547611390",
    "source_url": "https://www.google.com/maps/place/Benaglia+S.A.S.+Di+Benaglia+Franco+E+C./data=!4m7!3m6!1s0x132ca4c571c6f781:0xd2be141d43c6fc5a!8m2!3d44.1430377!4d12.2423849!16s%2Fg%2F1tfnk1lx!19sChIJgffGccWkLBMRWvzGQx0UvtI?authuser=0&hl=tr&rclk=1",
    "website_url": "",
    "rating_text": "4,5",
    "stars": null,
    "number_of_reviews": null,
    "price_level": "",
    "open_hours": "",
    "extraction_timestamp": "2025-06-07T17:09:38.836Z",
    "source_name": "google",
    "source_query": "Irrigation Equipment",
    "source_country": "IT",
    "country": "Italy",
    "state": "Emilia-Romagna",
    "city": "Provincia di Forlì-Cesena"
  },
  {
    "source_id": "ChIJ-4eaQiilLBMRT0CIwECi8q8",
    "name": "Agrimec snc di Brundu Matteo - Husqvarna",
    "category": "Agrimec snc di Brundu Matteo - Husqvarna",
    "formatted_address": "4,9(27)",
    "phone_number": "+390547483386",
    "source_url": "https://www.google.com/maps/place/Agrimec+snc+di+Brundu+Matteo+-+Husqvarna/data=!4m7!3m6!1s0x132ca528429a87fb:0xaff2a240c088404f!8m2!3d44.1839033!4d12.2093232!16s%2Fg%2F11hzfvb8vf!19sChIJ-4eaQiilLBMRT0CIwECi8q8?authuser=0&hl=tr&rclk=1",
    "website_url": "",
    "rating_text": "4,9",
    "stars": null,
    "number_of_reviews": null,
    "price_level": "",
    "open_hours": "",
    "extraction_timestamp": "2025-06-07T17:09:38.837Z",
    "source_name": "google",
    "source_query": "Irrigation Equipment",
    "source_country": "IT",
    "country": "Italy",
    "state": "Emilia-Romagna",
    "city": "Provincia di Forlì-Cesena"
  },
  {
    "source_id": "ChIJbe6-WOFXKxMRK2ggb9TRbow",
    "name": "Idro Zeta - Magazzino - Forlì",
    "category": "Idro Zeta - Magazzino - Forlì",
    "formatted_address": "4,2(42)",
    "phone_number": "+390543802711",
    "source_url": "https://www.google.com/maps/place/Idro+Zeta+-+Magazzino+-+Forl%C3%AC/data=!4m7!3m6!1s0x132b57e158beee6d:0x8c6ed1d46f20682b!8m2!3d44.2230296!4d12.0695581!16s%2Fg%2F1hhwshbhd!19sChIJbe6-WOFXKxMRK2ggb9TRbow?authuser=0&hl=tr&rclk=1",
    "website_url": "http://www.idrozetashop.it/",
    "rating_text": "4,2",
    "stars": null,
    "number_of_reviews": null,
    "price_level": "",
    "open_hours": "",
    "extraction_timestamp": "2025-06-07T17:09:38.841Z",
    "source_name": "google",
    "source_query": "Irrigation Equipment",
    "source_country": "IT",
    "country": "Italy",
    "state": "Emilia-Romagna",
    "city": "Provincia di Forlì-Cesena"
  },
  {
    "source_id": "ChIJ_Tk89KqpLBMRxB9Jr5zvWeQ",
    "name": "Romagna Impianti",
    "category": "Romagna Impianti",
    "formatted_address": "Endüstriyel Ekipman Tedarikçisi ·  · Via Selva, 25Kapalı ⋅ Açılış zamanı: Pzt 08:00 · +39 0543 795959",
    "phone_number": "+390543795959",
    "source_url": "https://www.google.com/maps/place/Romagna+Impianti/data=!4m7!3m6!1s0x132ca9aaf43c39fd:0xe459ef9caf491fc4!8m2!3d44.220532!4d12.113849!16s%2Fg%2F11j8rjzfks!19sChIJ_Tk89KqpLBMRxB9Jr5zvWeQ?authuser=0&hl=tr&rclk=1",
    "website_url": "http://www.romagnaimpianti.it/",
    "rating_text": "",
    "stars": null,
    "number_of_reviews": null,
    "price_level": "",
    "open_hours": "",
    "extraction_timestamp": "2025-06-07T17:09:38.842Z",
    "source_name": "google",
    "source_query": "Irrigation Equipment",
    "source_country": "IT",
    "country": "Italy",
    "state": "Emilia-Romagna",
    "city": "Provincia di Forlì-Cesena"
  },
  {
    "source_id": "ChIJKb3qwAq9LBMRUcJUgWGEt0U",
    "name": "Casali Irrigazione",
    "category": "Casali Irrigazione",
    "formatted_address": "3,0(1)",
    "phone_number": "+393346424587",
    "source_url": "https://www.google.com/maps/place/Casali+Irrigazione/data=!4m7!3m6!1s0x132cbd0ac0eabd29:0x45b784618154c251!8m2!3d44.08289!4d12.27084!16s%2Fg%2F1tdr5fdj!19sChIJKb3qwAq9LBMRUcJUgWGEt0U?authuser=0&hl=tr&rclk=1",
    "website_url": "",
    "rating_text": "3,0",
    "stars": null,
    "number_of_reviews": null,
    "price_level": "",
    "open_hours": "",
    "extraction_timestamp": "2025-06-07T17:09:38.843Z",
    "source_name": "google",
    "source_query": "Irrigation Equipment",
    "source_country": "IT",
    "country": "Italy",
    "state": "Emilia-Romagna",
    "city": "Provincia di Forlì-Cesena"
  },
  {
    "source_id": "ChIJH85Zjl63LBMRg74E5WHlct4",
    "name": "Sistemi Geotermici & Co. srl",
    "category": "Sistemi Geotermici & Co. srl",
    "formatted_address": "5,0(11)",
    "phone_number": "+390547671751",
    "source_url": "https://www.google.com/maps/place/Sistemi+Geotermici+%26+Co.+srl/data=!4m7!3m6!1s0x132cb75e8e59ce1f:0xde72e561e504be83!8m2!3d44.1820517!4d12.3660223!16s%2Fg%2F1tdqwnv9!19sChIJH85Zjl63LBMRg74E5WHlct4?authuser=0&hl=tr&rclk=1",
    "website_url": "http://www.sistemigeotermici.it/",
    "rating_text": "5,0",
    "stars": null,
    "number_of_reviews": null,
    "price_level": "",
    "open_hours": "",
    "extraction_timestamp": "2025-06-07T17:09:38.844Z",
    "source_name": "google",
    "source_query": "Irrigation Equipment",
    "source_country": "IT",
    "country": "Italy",
    "state": "Emilia-Romagna",
    "city": "Provincia di Forlì-Cesena"
  },
  {
    "source_id": "ChIJFW3XPJejLBMRDpQWGwmYqU4",
    "name": "Raggini Irrigazioni e Robot Tosaerba",
    "category": "Raggini Irrigazioni e Robot Tosaerba",
    "formatted_address": "5,0(1)",
    "phone_number": "+393926808947",
    "source_url": "https://www.google.com/maps/place/Raggini+Irrigazioni+e+Robot+Tosaerba/data=!4m7!3m6!1s0x132ca3973cd76d15:0x4ea998091b16940e!8m2!3d44.36369!4d11.8460774!16s%2Fg%2F11dz0bbs9t!19sChIJFW3XPJejLBMRDpQWGwmYqU4?authuser=0&hl=tr&rclk=1",
    "website_url": "",
    "rating_text": "5,0",
    "stars": null,
    "number_of_reviews": null,
    "price_level": "",
    "open_hours": "",
    "extraction_timestamp": "2025-06-07T17:09:38.845Z",
    "source_name": "google",
    "source_query": "Irrigation Equipment",
    "source_country": "IT",
    "country": "Italy",
    "state": "Emilia-Romagna",
    "city": "Provincia di Forlì-Cesena"
  }
]
