[
  {
    "source_id": "ChIJ9X_DI6LDLBMR84MeChQNUCU",
    "name": "Irriverde - Il Paesaggio S.r.l.",
    "category": "Irriverde - Il Paesaggio S.r.l.",
    "formatted_address": "4,8(15)",
    "phone_number": "+393939275801",
    "source_url": "https://www.google.com/maps/place/Irriverde+-+Il+Paesaggio+S.r.l./data=!4m7!3m6!1s0x132cc3a223c37ff5:0x25500d140a1e83f3!8m2!3d43.982224!4d12.5281091!16s%2Fg%2F1ptz65rjr!19sChIJ9X_DI6LDLBMR84MeChQNUCU?authuser=0&hl=tr&rclk=1",
    "website_url": "http://www.irriverde.it/",
    "rating_text": "4,8",
    "stars": null,
    "number_of_reviews": null,
    "price_level": "",
    "open_hours": "",
    "extraction_timestamp": "2025-06-07T17:01:36.269Z",
    "source_name": "google",
    "source_query": "Irrigation Equipment",
    "source_country": "IT",
    "country": "Italy",
    "state": "Emilia-Romagna",
    "city": "Provincia di Rimini"
  },
  {
    "source_id": "ChIJy4AVn9C-LBMRn6nsnuZl82A",
    "name": "Ramilli Irrigazioni S.R.L.",
    "category": "Ramilli Irrigazioni S.R.L.",
    "formatted_address": "4,3(52)",
    "phone_number": "+390541945335",
    "source_url": "https://www.google.com/maps/place/Ramilli+Irrigazioni+S.R.L./data=!4m7!3m6!1s0x132cbed09f1580cb:0x60f365e69eeca99f!8m2!3d44.0923156!4d12.3843691!16s%2Fg%2F1ts2ls1r!19sChIJy4AVn9C-LBMRn6nsnuZl82A?authuser=0&hl=tr&rclk=1",
    "website_url": "https://www.ramilli.it/",
    "rating_text": "4,3",
    "stars": null,
    "number_of_reviews": null,
    "price_level": "",
    "open_hours": "",
    "extraction_timestamp": "2025-06-07T17:01:36.270Z",
    "source_name": "google",
    "source_query": "Irrigation Equipment",
    "source_country": "IT",
    "country": "Italy",
    "state": "Emilia-Romagna",
    "city": "Provincia di Rimini"
  },
  {
    "source_id": "ChIJxwyfbMW-LBMR82ivWDKLyak",
    "name": "Campedelli srl",
    "category": "Campedelli srl",
    "formatted_address": "4,3(20)",
    "phone_number": "+390541945180",
    "source_url": "https://www.google.com/maps/place/Campedelli+srl/data=!4m7!3m6!1s0x132cbec56c9f0cc7:0xa9c98b3258af68f3!8m2!3d44.0913771!4d12.3790216!16s%2Fg%2F1td55wfn!19sChIJxwyfbMW-LBMR82ivWDKLyak?authuser=0&hl=tr&rclk=1",
    "website_url": "https://www.facebook.com/pg/campedellisrl.savignanosulrubicone/community/",
    "rating_text": "4,3",
    "stars": null,
    "number_of_reviews": null,
    "price_level": "",
    "open_hours": "",
    "extraction_timestamp": "2025-06-07T17:01:36.271Z",
    "source_name": "google",
    "source_query": "Irrigation Equipment",
    "source_country": "IT",
    "country": "Italy",
    "state": "Emilia-Romagna",
    "city": "Provincia di Rimini"
  },
  {
    "source_id": "ChIJAYXyH7PDLBMR8HxGCqIVtvQ",
    "name": "Elettromeccanica Muccioli",
    "category": "Elettromeccanica Muccioli",
    "formatted_address": "4,6(66)",
    "phone_number": "+390541770283",
    "source_url": "https://www.google.com/maps/place/Elettromeccanica+Muccioli/data=!4m7!3m6!1s0x132cc3b31ff28501:0xf4b615a20a467cf0!8m2!3d44.0454954!4d12.5612467!16s%2Fg%2F11bvv_3dvg!19sChIJAYXyH7PDLBMR8HxGCqIVtvQ?authuser=0&hl=tr&rclk=1",
    "website_url": "https://www.muccioli.it/",
    "rating_text": "4,6",
    "stars": null,
    "number_of_reviews": null,
    "price_level": "",
    "open_hours": "",
    "extraction_timestamp": "2025-06-07T17:01:36.273Z",
    "source_name": "google",
    "source_query": "Irrigation Equipment",
    "source_country": "IT",
    "country": "Italy",
    "state": "Emilia-Romagna",
    "city": "Provincia di Rimini"
  },
  {
    "source_id": "ChIJXymBuR3ALBMRASFJw1zn8-o",
    "name": "Techwater S.r.l. - Impianti trattamento acque",
    "category": "Techwater S.r.l. - Impianti trattamento acque",
    "formatted_address": "5,0(4)",
    "phone_number": "+390541758444",
    "source_url": "https://www.google.com/maps/place/Techwater+S.r.l.+-+Impianti+trattamento+acque/data=!4m7!3m6!1s0x132cc01db981295f:0xeaf3e75cc3492101!8m2!3d44.02023!4d12.453504!16s%2Fg%2F1tg3d6rp!19sChIJXymBuR3ALBMRASFJw1zn8-o?authuser=0&hl=tr&rclk=1",
    "website_url": "http://www.techwater.it/",
    "rating_text": "5,0",
    "stars": null,
    "number_of_reviews": null,
    "price_level": "",
    "open_hours": "",
    "extraction_timestamp": "2025-06-07T17:01:36.274Z",
    "source_name": "google",
    "source_query": "Irrigation Equipment",
    "source_country": "IT",
    "country": "Italy",
    "state": "Emilia-Romagna",
    "city": "Provincia di Rimini"
  },
  {
    "source_id": "ChIJg97fK17BLBMRF2MZLGHlykE",
    "name": "Grundfos Water Treatment Italy – Filiale di Rimini",
    "category": "Grundfos Water Treatment Italy – Filiale di Rimini",
    "formatted_address": "1,9(11)",
    "phone_number": "",
    "source_url": "https://www.google.com/maps/place/Grundfos+Water+Treatment+Italy+%E2%80%93+Filiale+di+Rimini/data=!4m7!3m6!1s0x132cc15e2bdfde83:0x41cae5612c196317!8m2!3d44.0655296!4d12.5297718!16s%2Fg%2F12hk8ktj6!19sChIJg97fK17BLBMRF2MZLGHlykE?authuser=0&hl=tr&rclk=1",
    "website_url": "https://www.grundfos.com/it/about-us/what-we-do/water-treatment",
    "rating_text": "1,9",
    "stars": null,
    "number_of_reviews": null,
    "price_level": "",
    "open_hours": "",
    "extraction_timestamp": "2025-06-07T17:01:36.275Z",
    "source_name": "google",
    "source_query": "Irrigation Equipment",
    "source_country": "IT",
    "country": "Italy",
    "state": "Emilia-Romagna",
    "city": "Provincia di Rimini"
  },
  {
    "source_id": "ChIJ2TPCuBDDLBMRtVBPENHmV1k",
    "name": "Petroltecnica S.p.A.",
    "category": "Petroltecnica S.p.A.",
    "formatted_address": "4,6(10)",
    "phone_number": "+390541755810",
    "source_url": "https://www.google.com/maps/place/Petroltecnica+S.p.A./data=!4m7!3m6!1s0x132cc310b8c233d9:0x5957e6d1104f50b5!8m2!3d43.987594!4d12.517465!16s%2Fg%2F1vttzw5p!19sChIJ2TPCuBDDLBMRtVBPENHmV1k?authuser=0&hl=tr&rclk=1",
    "website_url": "http://www.petroltecnica.it/",
    "rating_text": "4,6",
    "stars": null,
    "number_of_reviews": null,
    "price_level": "",
    "open_hours": "",
    "extraction_timestamp": "2025-06-07T17:01:36.276Z",
    "source_name": "google",
    "source_query": "Irrigation Equipment",
    "source_country": "IT",
    "country": "Italy",
    "state": "Emilia-Romagna",
    "city": "Provincia di Rimini"
  },
  {
    "source_id": "ChIJ-4ZMln7DLBMRQB82ZjBU0gQ",
    "name": "Tecnomat",
    "category": "Tecnomat",
    "formatted_address": "4,6(1.345)",
    "phone_number": "+390283905463",
    "source_url": "https://www.google.com/maps/place/Tecnomat/data=!4m7!3m6!1s0x132cc37e964c86fb:0x4d2543066361f40!8m2!3d44.037535!4d12.5906277!16s%2Fg%2F11s5mnbpp0!19sChIJ-4ZMln7DLBMRQB82ZjBU0gQ?authuser=0&hl=tr&rclk=1",
    "website_url": "https://www.tecnomat.it/it/n/rimini/?utm_campaign=RIMINI_negozio_GMB&utm_content=sito_web&utm_medium=google_my_business&utm_source=google&utm_term=sito_web_RIMINI_GMB",
    "rating_text": "4,6",
    "stars": null,
    "number_of_reviews": null,
    "price_level": "",
    "open_hours": "",
    "extraction_timestamp": "2025-06-07T17:01:36.278Z",
    "source_name": "google",
    "source_query": "Irrigation Equipment",
    "source_country": "IT",
    "country": "Italy",
    "state": "Emilia-Romagna",
    "city": "Provincia di Rimini"
  },
  {
    "source_id": "ChIJM-j6YLXDLBMR753Gtnk2KZQ",
    "name": "F.lli Franchini Srl",
    "category": "F.lli Franchini Srl",
    "formatted_address": "4,9(7)",
    "phone_number": "+390541796311",
    "source_url": "https://www.google.com/maps/place/F.lli+Franchini+Srl/data=!4m7!3m6!1s0x132cc3b560fae833:0x94293679b6c69def!8m2!3d44.0469789!4d12.5523828!16s%2Fg%2F1wjwxrvf!19sChIJM-j6YLXDLBMR753Gtnk2KZQ?authuser=0&hl=tr&rclk=1",
    "website_url": "http://www.fllifranchini.com/",
    "rating_text": "4,9",
    "stars": null,
    "number_of_reviews": null,
    "price_level": "",
    "open_hours": "",
    "extraction_timestamp": "2025-06-07T17:01:36.280Z",
    "source_name": "google",
    "source_query": "Irrigation Equipment",
    "source_country": "IT",
    "country": "Italy",
    "state": "Emilia-Romagna",
    "city": "Provincia di Rimini"
  },
  {
    "source_id": "ChIJKXlL1y_1LBMRWKZy2Kocweo",
    "name": "Idrofoglia s.r.l.",
    "category": "Idrofoglia s.r.l.",
    "formatted_address": "4,7(81)",
    "phone_number": "+390722700311",
    "source_url": "https://www.google.com/maps/place/Idrofoglia+s.r.l./data=!4m7!3m6!1s0x132cf52fd74b7929:0xeac11caad872a658!8m2!3d43.735361!4d12.4430347!16s%2Fg%2F1w0dk464!19sChIJKXlL1y_1LBMRWKZy2Kocweo?authuser=0&hl=tr&rclk=1",
    "website_url": "http://www.idrofoglia.it/",
    "rating_text": "4,7",
    "stars": null,
    "number_of_reviews": null,
    "price_level": "",
    "open_hours": "",
    "extraction_timestamp": "2025-06-07T17:01:36.281Z",
    "source_name": "google",
    "source_query": "Irrigation Equipment",
    "source_country": "IT",
    "country": "Italy",
    "state": "Emilia-Romagna",
    "city": "Provincia di Rimini"
  },
  {
    "source_id": "ChIJKxDO8jfnLBMRsjpilgG3i3c",
    "name": "Elettromeccanica Muccioli Marco srl",
    "category": "Elettromeccanica Muccioli Marco srl",
    "formatted_address": "4,3(46)",
    "phone_number": "+390541614053",
    "source_url": "https://www.google.com/maps/place/Elettromeccanica+Muccioli+Marco+srl/data=!4m7!3m6!1s0x132ce737f2ce102b:0x778bb70196623ab2!8m2!3d43.9719197!4d12.6996493!16s%2Fg%2F12xqcl7d3!19sChIJKxDO8jfnLBMRsjpilgG3i3c?authuser=0&hl=tr&rclk=1",
    "website_url": "https://www.muccioli.it/?utm_source=google&utm_medium=mybusiness&utm_campaign=Google+MyBusiness&utm_content=gmb_site_link",
    "rating_text": "4,3",
    "stars": null,
    "number_of_reviews": null,
    "price_level": "",
    "open_hours": "",
    "extraction_timestamp": "2025-06-07T17:01:36.282Z",
    "source_name": "google",
    "source_query": "Irrigation Equipment",
    "source_country": "IT",
    "country": "Italy",
    "state": "Emilia-Romagna",
    "city": "Provincia di Rimini"
  }
]
