[
  {
    "source_id": "ChIJPx3QtLhRKxMRZfDhesKWivM",
    "name": "Idrologica Srl",
    "category": "Idrologica Srl",
    "formatted_address": "4,3(67)",
    "phone_number": "+39054630489",
    "source_url": "https://www.google.com/maps/place/Idrologica+Srl/data=!4m7!3m6!1s0x132b51b8b4d01d3f:0xf38a96c27ae1f065!8m2!3d44.27834!4d11.914588!16s%2Fg%2F1th9jy0w!19sChIJPx3QtLhRKxMRZfDhesKWivM?authuser=0&hl=tr&rclk=1",
    "website_url": "http://www.consorzioagrarioravenna.it/idrologica",
    "rating_text": "4,3",
    "stars": null,
    "number_of_reviews": null,
    "price_level": "",
    "open_hours": "",
    "extraction_timestamp": "2025-06-07T16:32:36.740Z",
    "source_name": "google",
    "source_query": "Irrigation Equipment",
    "source_country": "IT",
    "country": "Italy",
    "state": "Emilia-Romagna",
    "city": "Provincia di Ravenna"
  },
  {
    "source_id": "ChIJK1ZcisRRKxMRDRMZE8O_llo",
    "name": "Aquatech srl",
    "category": "Aquatech srl",
    "formatted_address": "Sulama Ekipmanları Tedarikçisi · Via Soldata, 1Kapalı ⋅ Açılış zamanı: Pzt 08:00 · +39 0546 30489",
    "phone_number": "+39054630489",
    "source_url": "https://www.google.com/maps/place/Aquatech+srl/data=!4m7!3m6!1s0x132b51c48a5c562b:0x5a96bfc31319130d!8m2!3d44.2783055!4d11.9146886!16s%2Fg%2F11h3g3tcsl!19sChIJK1ZcisRRKxMRDRMZE8O_llo?authuser=0&hl=tr&rclk=1",
    "website_url": "",
    "rating_text": "",
    "stars": null,
    "number_of_reviews": null,
    "price_level": "",
    "open_hours": "",
    "extraction_timestamp": "2025-06-07T16:32:36.741Z",
    "source_name": "google",
    "source_query": "Irrigation Equipment",
    "source_country": "IT",
    "country": "Italy",
    "state": "Emilia-Romagna",
    "city": "Provincia di Ravenna"
  },
  {
    "source_id": "ChIJedns4Ib-fUcRksY5a4tieuk",
    "name": "Menotti Poverini",
    "category": "Menotti Poverini",
    "formatted_address": "4,5(206)",
    "phone_number": "+390544465616",
    "source_url": "https://www.google.com/maps/place/Menotti+Poverini/data=!4m7!3m6!1s0x477dfe86e0ecd979:0xe97a628b6b39c692!8m2!3d44.4226749!4d12.1522757!16s%2Fg%2F11bbww_npg!19sChIJedns4Ib-fUcRksY5a4tieuk?authuser=0&hl=tr&rclk=1",
    "website_url": "http://www.poverini.it/",
    "rating_text": "4,5",
    "stars": null,
    "number_of_reviews": null,
    "price_level": "",
    "open_hours": "",
    "extraction_timestamp": "2025-06-07T16:32:36.743Z",
    "source_name": "google",
    "source_query": "Irrigation Equipment",
    "source_country": "IT",
    "country": "Italy",
    "state": "Emilia-Romagna",
    "city": "Provincia di Ravenna"
  },
  {
    "source_id": "ChIJncqVdVf5fUcRq5eH9vOfCbA",
    "name": "Sea Srl Underwater Trenching Works",
    "category": "Sea Srl Underwater Trenching Works",
    "formatted_address": "5,0(1)",
    "phone_number": "+39054430283",
    "source_url": "https://www.google.com/maps/place/Sea+Srl+Underwater+Trenching+Works/data=!4m7!3m6!1s0x477df9577595ca9d:0xb0099ff3f68797ab!8m2!3d44.4175654!4d12.2031272!16s%2Fg%2F1tf5_3rn!19sChIJncqVdVf5fUcRq5eH9vOfCbA?authuser=0&hl=tr&rclk=1",
    "website_url": "http://www.seatrenching.it/",
    "rating_text": "5,0",
    "stars": null,
    "number_of_reviews": null,
    "price_level": "",
    "open_hours": "",
    "extraction_timestamp": "2025-06-07T16:32:36.758Z",
    "source_name": "google",
    "source_query": "Irrigation Equipment",
    "source_country": "IT",
    "country": "Italy",
    "state": "Emilia-Romagna",
    "city": "Provincia di Ravenna"
  },
  {
    "source_id": "ChIJQ8fJol1SKxMRShirn3slxH4",
    "name": "Tecnir",
    "category": "Tecnir",
    "formatted_address": "4,4(17)",
    "phone_number": "+390546641026",
    "source_url": "https://www.google.com/maps/place/Tecnir/data=!4m7!3m6!1s0x132b525da2c9c743:0x7ec4257b9fab184a!8m2!3d44.363732!4d11.935557!16s%2Fg%2F1vfps_3m!19sChIJQ8fJol1SKxMRShirn3slxH4?authuser=0&hl=tr&rclk=1",
    "website_url": "https://www.tecnirirrigazione.it/",
    "rating_text": "4,4",
    "stars": null,
    "number_of_reviews": null,
    "price_level": "",
    "open_hours": "",
    "extraction_timestamp": "2025-06-07T16:32:36.760Z",
    "source_name": "google",
    "source_query": "Irrigation Equipment",
    "source_country": "IT",
    "country": "Italy",
    "state": "Emilia-Romagna",
    "city": "Provincia di Ravenna"
  }
]
