[
  {
    "source_id": "ChIJcQG6ul7df0cR3VxKiu5OPBs",
    "name": "Scova Impianti Srl",
    "category": "Scova Impianti Srl",
    "formatted_address": "4,5(64)",
    "phone_number": "+39059923202",
    "source_url": "https://www.google.com/maps/place/Scova+Impianti+Srl/data=!4m7!3m6!1s0x477fdd5ebaba0171:0x1b3c4eee8a4a5cdd!8m2!3d44.6018135!4d11.032294!16s%2Fg%2F1tfzwbfb!19sChIJcQG6ul7df0cR3VxKiu5OPBs?authuser=0&hl=tr&rclk=1",
    "website_url": "https://www.scovaimpianti.com/",
    "rating_text": "4,5",
    "stars": null,
    "number_of_reviews": null,
    "price_level": "",
    "open_hours": "",
    "extraction_timestamp": "2025-06-07T17:01:54.839Z",
    "source_name": "google",
    "source_query": "Irrigation Equipment",
    "source_country": "IT",
    "country": "Italy",
    "state": "Emilia-Romagna",
    "city": "Provincia di Modena"
  },
  {
    "source_id": "ChIJHQGz6dXof0cRPD2igQWHtxo",
    "name": "Hidrostar",
    "category": "Hidrostar",
    "formatted_address": "4,8(33)",
    "phone_number": "+39059251056",
    "source_url": "https://www.google.com/maps/place/Hidrostar/data=!4m7!3m6!1s0x477fe8d5e9b3011d:0x1ab7870581a23d3c!8m2!3d44.6584919!4d10.9641811!16s%2Fg%2F1tf9rp0c!19sChIJHQGz6dXof0cRPD2igQWHtxo?authuser=0&hl=tr&rclk=1",
    "website_url": "http://www.hidrostar.it/",
    "rating_text": "4,8",
    "stars": null,
    "number_of_reviews": null,
    "price_level": "",
    "open_hours": "",
    "extraction_timestamp": "2025-06-07T17:01:54.839Z",
    "source_name": "google",
    "source_query": "Irrigation Equipment",
    "source_country": "IT",
    "country": "Italy",
    "state": "Emilia-Romagna",
    "city": "Provincia di Modena"
  },
  {
    "source_id": "ChIJJ6V6lMDgf0cR1SpFsfjDuHg",
    "name": "Ocmis Irrigazione Spa",
    "category": "Ocmis Irrigazione Spa",
    "formatted_address": "3,5(31)",
    "phone_number": "+39059702150",
    "source_url": "https://www.google.com/maps/place/Ocmis+Irrigazione+Spa/data=!4m7!3m6!1s0x477fe0c0947aa527:0x78b8c3f8b1452ad5!8m2!3d44.530494!4d10.9794578!16s%2Fg%2F1vd3tn19!19sChIJJ6V6lMDgf0cR1SpFsfjDuHg?authuser=0&hl=tr&rclk=1",
    "website_url": "http://www.ocmis-irrigazione.it/",
    "rating_text": "3,5",
    "stars": null,
    "number_of_reviews": null,
    "price_level": "",
    "open_hours": "",
    "extraction_timestamp": "2025-06-07T17:01:54.840Z",
    "source_name": "google",
    "source_query": "Irrigation Equipment",
    "source_country": "IT",
    "country": "Italy",
    "state": "Emilia-Romagna",
    "city": "Provincia di Modena"
  },
  {
    "source_id": "ChIJO9OcYtzvf0cRuaBD4UFA4Uc",
    "name": "Tecnomat",
    "category": "Tecnomat",
    "formatted_address": "4,5(10.652)",
    "phone_number": "+390283905463",
    "source_url": "https://www.google.com/maps/place/Tecnomat/data=!4m7!3m6!1s0x477fefdc629cd33b:0x47e14041e143a0b9!8m2!3d44.6532844!4d10.8720529!16s%2Fg%2F11gb3mdxcf!19sChIJO9OcYtzvf0cRuaBD4UFA4Uc?authuser=0&hl=tr&rclk=1",
    "website_url": "https://www.tecnomat.it/it/n/modena/?utm_campaign=MODENA_negozio_GMB&utm_content=sito_web&utm_medium=google_my_business&utm_source=google&utm_term=sito_web_MODENA_GMB",
    "rating_text": "4,5",
    "stars": null,
    "number_of_reviews": null,
    "price_level": "",
    "open_hours": "",
    "extraction_timestamp": "2025-06-07T17:01:54.841Z",
    "source_name": "google",
    "source_query": "Irrigation Equipment",
    "source_country": "IT",
    "country": "Italy",
    "state": "Emilia-Romagna",
    "city": "Provincia di Modena"
  },
  {
    "source_id": "ChIJA48bp-zuf0cR5X_1epiGBsI",
    "name": "Usco Spa",
    "category": "Usco Spa",
    "formatted_address": "4,1(292)",
    "phone_number": "+390599780111",
    "source_url": "https://www.google.com/maps/place/Usco+Spa/data=!4m7!3m6!1s0x477feeeca71b8f03:0xc20686987af57fe5!8m2!3d44.6796173!4d10.9388601!16s%2Fg%2F1tfpnk4c!19sChIJA48bp-zuf0cR5X_1epiGBsI?authuser=0&hl=tr&rclk=1",
    "website_url": "https://www.usco.it/",
    "rating_text": "4,1",
    "stars": null,
    "number_of_reviews": null,
    "price_level": "",
    "open_hours": "",
    "extraction_timestamp": "2025-06-07T17:01:54.842Z",
    "source_name": "google",
    "source_query": "Irrigation Equipment",
    "source_country": "IT",
    "country": "Italy",
    "state": "Emilia-Romagna",
    "city": "Provincia di Modena"
  },
  {
    "source_id": "ChIJuX2zHZ3vf0cRWkD4iNSXlBg",
    "name": "HYDRO-TECH SRL",
    "category": "HYDRO-TECH SRL",
    "formatted_address": "5,0(50)",
    "phone_number": "+393207613884",
    "source_url": "https://www.google.com/maps/place/HYDRO-TECH+SRL/data=!4m7!3m6!1s0x477fef9d1db37db9:0x189497d488f8405a!8m2!3d44.6227014!4d10.9788378!16s%2Fg%2F11pzyqhdzr!19sChIJuX2zHZ3vf0cRWkD4iNSXlBg?authuser=0&hl=tr&rclk=1",
    "website_url": "",
    "rating_text": "5,0",
    "stars": null,
    "number_of_reviews": null,
    "price_level": "",
    "open_hours": "",
    "extraction_timestamp": "2025-06-07T17:01:54.843Z",
    "source_name": "google",
    "source_query": "Irrigation Equipment",
    "source_country": "IT",
    "country": "Italy",
    "state": "Emilia-Romagna",
    "city": "Provincia di Modena"
  },
  {
    "source_id": "ChIJ36EFbM_vf0cRQVPDXPOyqi8",
    "name": "Caprari",
    "category": "Caprari",
    "formatted_address": "4,2(22)",
    "phone_number": "",
    "source_url": "https://www.google.com/maps/place/Caprari/data=!4m7!3m6!1s0x477fefcf6c05a1df:0x2faab2f35cc35341!8m2!3d44.6582946!4d10.8809223!16s%2Fg%2F11f4wjg43c!19sChIJ36EFbM_vf0cRQVPDXPOyqi8?authuser=0&hl=tr&rclk=1",
    "website_url": "http://www.caprari.it/",
    "rating_text": "4,2",
    "stars": null,
    "number_of_reviews": null,
    "price_level": "",
    "open_hours": "",
    "extraction_timestamp": "2025-06-07T17:01:54.844Z",
    "source_name": "google",
    "source_query": "Irrigation Equipment",
    "source_country": "IT",
    "country": "Italy",
    "state": "Emilia-Romagna",
    "city": "Provincia di Modena"
  },
  {
    "source_id": "ChIJyc7K5_Hvf0cRPs35y99PoGw",
    "name": "Commersald Spa",
    "category": "Commersald Spa",
    "formatted_address": "4,8(12)",
    "phone_number": "+39059348411",
    "source_url": "https://www.google.com/maps/place/Commersald+Spa/data=!4m7!3m6!1s0x477feff1e7cacec9:0x6ca04fdfcbf9cd3e!8m2!3d44.6393735!4d10.8744639!16s%2Fg%2F1vn_xtjp!19sChIJyc7K5_Hvf0cRPs35y99PoGw?authuser=0&hl=tr&rclk=1",
    "website_url": "https://www.commersald.com/",
    "rating_text": "4,8",
    "stars": null,
    "number_of_reviews": null,
    "price_level": "",
    "open_hours": "",
    "extraction_timestamp": "2025-06-07T17:01:54.846Z",
    "source_name": "google",
    "source_query": "Irrigation Equipment",
    "source_country": "IT",
    "country": "Italy",
    "state": "Emilia-Romagna",
    "city": "Provincia di Modena"
  },
  {
    "source_id": "ChIJhXQdA5Hxf0cRVu3Bp5B52D8",
    "name": "Modena Impianti Srl",
    "category": "Modena Impianti Srl",
    "formatted_address": "4,8(119)",
    "phone_number": "+39059525563",
    "source_url": "https://www.google.com/maps/place/Modena+Impianti+Srl/data=!4m7!3m6!1s0x477ff191031d7485:0x3fd87990a7c1ed56!8m2!3d44.6956675!4d10.8473379!16s%2Fg%2F11clhq8wcy!19sChIJhXQdA5Hxf0cRVu3Bp5B52D8?authuser=0&hl=tr&rclk=1",
    "website_url": "https://www.modenaimpianti.it/",
    "rating_text": "4,8",
    "stars": null,
    "number_of_reviews": null,
    "price_level": "",
    "open_hours": "",
    "extraction_timestamp": "2025-06-07T17:01:54.848Z",
    "source_name": "google",
    "source_query": "Irrigation Equipment",
    "source_country": "IT",
    "country": "Italy",
    "state": "Emilia-Romagna",
    "city": "Provincia di Modena"
  },
  {
    "source_id": "ChIJ1y4OVaXof0cRjh5OXu9PYTo",
    "name": "Idraulica Emiliana S.p.A.",
    "category": "Idraulica Emiliana S.p.A.",
    "formatted_address": "4,4(10)",
    "phone_number": "+39059283221",
    "source_url": "https://www.google.com/maps/place/Idraulica+Emiliana+S.p.A./data=!4m7!3m6!1s0x477fe8a5550e2ed7:0x3a614fef5e4e1e8e!8m2!3d44.6311603!4d10.9615121!16s%2Fg%2F11b6jgwn2p!19sChIJ1y4OVaXof0cRjh5OXu9PYTo?authuser=0&hl=tr&rclk=1",
    "website_url": "http://www.idraulicaemiliana.com/",
    "rating_text": "4,4",
    "stars": null,
    "number_of_reviews": null,
    "price_level": "",
    "open_hours": "",
    "extraction_timestamp": "2025-06-07T17:01:54.850Z",
    "source_name": "google",
    "source_query": "Irrigation Equipment",
    "source_country": "IT",
    "country": "Italy",
    "state": "Emilia-Romagna",
    "city": "Provincia di Modena"
  },
  {
    "source_id": "ChIJhT-kpAXff0cRKJQqKYwIulA",
    "name": "Irrigo",
    "category": "Irrigo",
    "formatted_address": "4,7(36)",
    "phone_number": "+393473096499",
    "source_url": "https://www.google.com/maps/place/Irrigo/data=!4m7!3m6!1s0x477fdf05a4a43f85:0x50ba088c292a9428!8m2!3d44.5018172!4d11.005272!16s%2Fg%2F11hdjcp5pk!19sChIJhT-kpAXff0cRKJQqKYwIulA?authuser=0&hl=tr&rclk=1",
    "website_url": "https://www.irrigovignola.it/",
    "rating_text": "4,7",
    "stars": null,
    "number_of_reviews": null,
    "price_level": "",
    "open_hours": "",
    "extraction_timestamp": "2025-06-07T17:01:54.851Z",
    "source_name": "google",
    "source_query": "Irrigation Equipment",
    "source_country": "IT",
    "country": "Italy",
    "state": "Emilia-Romagna",
    "city": "Provincia di Modena"
  },
  {
    "source_id": "ChIJb-HKI5jof0cRDyyKqVUI0VA",
    "name": "UNICOM Modena (Banco vendita)",
    "category": "UNICOM Modena (Banco vendita)",
    "formatted_address": "4,3(140)",
    "phone_number": "+39059284871",
    "source_url": "https://www.google.com/maps/place/UNICOM+Modena+%28Banco+vendita%29/data=!4m7!3m6!1s0x477fe89823cae16f:0x50d10855a98a2c0f!8m2!3d44.6293781!4d10.9733717!16s%2Fg%2F1tdj_fsy!19sChIJb-HKI5jof0cRDyyKqVUI0VA?authuser=0&hl=tr&rclk=1",
    "website_url": "https://www.unicom.it/?utm_campaign=gmb-listing&utm_medium=organic&utm_source=google&utm_term=modena",
    "rating_text": "4,3",
    "stars": null,
    "number_of_reviews": null,
    "price_level": "",
    "open_hours": "",
    "extraction_timestamp": "2025-06-07T17:01:54.853Z",
    "source_name": "google",
    "source_query": "Irrigation Equipment",
    "source_country": "IT",
    "country": "Italy",
    "state": "Emilia-Romagna",
    "city": "Provincia di Modena"
  },
  {
    "source_id": "ChIJLQPAS-buf0cRhIvM90FRcuU",
    "name": "Steall Acque",
    "category": "Steall Acque",
    "formatted_address": "4,4(13)",
    "phone_number": "+39059310427",
    "source_url": "https://www.google.com/maps/place/Steall+Acque/data=!4m7!3m6!1s0x477feee64bc0032d:0xe5725141f7cc8b84!8m2!3d44.6697579!4d10.9366106!16s%2Fg%2F1w04hyz6!19sChIJLQPAS-buf0cRhIvM90FRcuU?authuser=0&hl=tr&rclk=1",
    "website_url": "https://www.steallacque.it/",
    "rating_text": "4,4",
    "stars": null,
    "number_of_reviews": null,
    "price_level": "",
    "open_hours": "",
    "extraction_timestamp": "2025-06-07T17:01:54.855Z",
    "source_name": "google",
    "source_query": "Irrigation Equipment",
    "source_country": "IT",
    "country": "Italy",
    "state": "Emilia-Romagna",
    "city": "Provincia di Modena"
  },
  {
    "source_id": "ChIJn6L29Zjof0cRzkCm8WYZAS0",
    "name": "CAPRARA s.r.l.",
    "category": "CAPRARA s.r.l.",
    "formatted_address": "5,0(1)",
    "phone_number": "+39059284810",
    "source_url": "https://www.google.com/maps/place/CAPRARA+s.r.l./data=!4m7!3m6!1s0x477fe898f5f6a29f:0x2d011966f1a640ce!8m2!3d44.6281881!4d10.9732808!16s%2Fg%2F1hc636b9q!19sChIJn6L29Zjof0cRzkCm8WYZAS0?authuser=0&hl=tr&rclk=1",
    "website_url": "http://www.caprara.it/",
    "rating_text": "5,0",
    "stars": null,
    "number_of_reviews": null,
    "price_level": "",
    "open_hours": "",
    "extraction_timestamp": "2025-06-07T17:01:54.856Z",
    "source_name": "google",
    "source_query": "Irrigation Equipment",
    "source_country": "IT",
    "country": "Italy",
    "state": "Emilia-Romagna",
    "city": "Provincia di Modena"
  },
  {
    "source_id": "ChIJGVaSEU_mf0cRrgA6nN7cH8M",
    "name": "Maestri srl",
    "category": "Maestri srl",
    "formatted_address": "4,5(42)",
    "phone_number": "+393401111738",
    "source_url": "https://www.google.com/maps/place/Maestri+srl/data=!4m7!3m6!1s0x477fe64f11925619:0xc31fdcde9c3a00ae!8m2!3d44.5987781!4d10.9708138!16s%2Fg%2F11cn5m2cz2!19sChIJGVaSEU_mf0cRrgA6nN7cH8M?authuser=0&hl=tr&rclk=1",
    "website_url": "http://www.maestrisrl.it/",
    "rating_text": "4,5",
    "stars": null,
    "number_of_reviews": null,
    "price_level": "",
    "open_hours": "",
    "extraction_timestamp": "2025-06-07T17:01:54.858Z",
    "source_name": "google",
    "source_query": "Irrigation Equipment",
    "source_country": "IT",
    "country": "Italy",
    "state": "Emilia-Romagna",
    "city": "Provincia di Modena"
  },
  {
    "source_id": "ChIJo35coqrhf0cRTLWyfHFEKxU",
    "name": "Irtec (S.R.L.)",
    "category": "Irtec (S.R.L.)",
    "formatted_address": "4,5(2)",
    "phone_number": "+39059702150",
    "source_url": "https://www.google.com/maps/place/Irtec+%28S.R.L.%29/data=!4m7!3m6!1s0x477fe1aaa25c7ea3:0x152b44717cb2b54c!8m2!3d44.5304847!4d10.9796055!16s%2Fg%2F1tgn8gft!19sChIJo35coqrhf0cRTLWyfHFEKxU?authuser=0&hl=tr&rclk=1",
    "website_url": "",
    "rating_text": "4,5",
    "stars": null,
    "number_of_reviews": null,
    "price_level": "",
    "open_hours": "",
    "extraction_timestamp": "2025-06-07T17:01:54.860Z",
    "source_name": "google",
    "source_query": "Irrigation Equipment",
    "source_country": "IT",
    "country": "Italy",
    "state": "Emilia-Romagna",
    "city": "Provincia di Modena"
  },
  {
    "source_id": "ChIJLZo0Lbfof0cRw147ZKWAof0",
    "name": "Idraulica Emiliana S.p.A.",
    "category": "Idraulica Emiliana S.p.A.",
    "formatted_address": "4,2(25)",
    "phone_number": "+39059281590",
    "source_url": "https://www.google.com/maps/place/Idraulica+Emiliana+S.p.A./data=!4m7!3m6!1s0x477fe8b72d349a2d:0xfda180a5643b5ec3!8m2!3d44.6361288!4d10.9602628!16s%2Fg%2F11c575qsr1!19sChIJLZo0Lbfof0cRw147ZKWAof0?authuser=0&hl=tr&rclk=1",
    "website_url": "http://www.idraulicaemiliana.com/",
    "rating_text": "4,2",
    "stars": null,
    "number_of_reviews": null,
    "price_level": "",
    "open_hours": "",
    "extraction_timestamp": "2025-06-07T17:01:54.861Z",
    "source_name": "google",
    "source_query": "Irrigation Equipment",
    "source_country": "IT",
    "country": "Italy",
    "state": "Emilia-Romagna",
    "city": "Provincia di Modena"
  },
  {
    "source_id": "ChIJa7wKt7fvf0cRZArry_dpb1Y",
    "name": "Tieffe Impianti Lo Spazzacamino",
    "category": "Tieffe Impianti Lo Spazzacamino",
    "formatted_address": "4,2(107)",
    "phone_number": "+390599782404",
    "source_url": "https://www.google.com/maps/place/Tieffe+Impianti+Lo+Spazzacamino/data=!4m7!3m6!1s0x477fefb7b70abc6b:0x566f69f7cbeb0a64!8m2!3d44.6532766!4d10.8744119!16s%2Fg%2F11bzs5wp9p!19sChIJa7wKt7fvf0cRZArry_dpb1Y?authuser=0&hl=tr&rclk=1",
    "website_url": "http://www.tieffeimpianti.com/",
    "rating_text": "4,2",
    "stars": null,
    "number_of_reviews": null,
    "price_level": "",
    "open_hours": "",
    "extraction_timestamp": "2025-06-07T17:01:54.863Z",
    "source_name": "google",
    "source_query": "Irrigation Equipment",
    "source_country": "IT",
    "country": "Italy",
    "state": "Emilia-Romagna",
    "city": "Provincia di Modena"
  },
  {
    "source_id": "ChIJg-OOmnrvf0cR9_nMO65afdo",
    "name": "Bertani S.p.a. - Magazzino di Modena",
    "category": "Bertani S.p.a. - Magazzino di Modena",
    "formatted_address": "4,2(18)",
    "phone_number": "+39059332561",
    "source_url": "https://www.google.com/maps/place/Bertani+S.p.a.+-+Magazzino+di+Modena/data=!4m7!3m6!1s0x477fef7a9a8ee383:0xda7d5aae3bccf9f7!8m2!3d44.650081!4d10.8922866!16s%2Fg%2F11h3rx7zy2!19sChIJg-OOmnrvf0cR9_nMO65afdo?authuser=0&hl=tr&rclk=1",
    "website_url": "https://www.bertani.it/it_IT/punti-vendita/magazzino-modena",
    "rating_text": "4,2",
    "stars": null,
    "number_of_reviews": null,
    "price_level": "",
    "open_hours": "",
    "extraction_timestamp": "2025-06-07T17:01:54.864Z",
    "source_name": "google",
    "source_query": "Irrigation Equipment",
    "source_country": "IT",
    "country": "Italy",
    "state": "Emilia-Romagna",
    "city": "Provincia di Modena"
  },
  {
    "source_id": "ChIJi_RpPBfmf0cRvUkcd1LG8CU",
    "name": "Emiltecnica S.r.l",
    "category": "Emiltecnica S.r.l",
    "formatted_address": "4,4(35)",
    "phone_number": "+39059282640",
    "source_url": "https://www.google.com/maps/place/Emiltecnica+S.r.l/data=!4m7!3m6!1s0x477fe6173c69f48b:0x25f0c652771c49bd!8m2!3d44.6107292!4d10.9571313!16s%2Fg%2F1tfc5g6g!19sChIJi_RpPBfmf0cRvUkcd1LG8CU?authuser=0&hl=tr&rclk=1",
    "website_url": "http://www.emiltecnica.com/",
    "rating_text": "4,4",
    "stars": null,
    "number_of_reviews": null,
    "price_level": "",
    "open_hours": "",
    "extraction_timestamp": "2025-06-07T17:01:54.866Z",
    "source_name": "google",
    "source_query": "Irrigation Equipment",
    "source_country": "IT",
    "country": "Italy",
    "state": "Emilia-Romagna",
    "city": "Provincia di Modena"
  },
  {
    "source_id": "ChIJ07xpx4jvf0cRI1GTwZjpT8g",
    "name": "Artigian Casa h24 di Misota Ivan - Fabbro Elettricista Idraulico",
    "category": "Artigian Casa h24 di Misota Ivan - Fabbro Elettricista Idraulico",
    "formatted_address": "Artigian Casa h24 di Misota Ivan - Fabbro Elettricista Idraulico",
    "phone_number": "+39320872048524",
    "source_url": "https://www.google.com/maps/place/Artigian+Casa+h24+di+Misota+Ivan+-+Fabbro+Elettricista+Idraulico/data=!4m7!3m6!1s0x477fef88c769bcd3:0xc84fe998c1935123!8m2!3d44.5684956!4d11.5107274!16s%2Fg%2F11kh4_p49l!19sChIJ07xpx4jvf0cRI1GTwZjpT8g?authuser=0&hl=tr&rclk=1",
    "website_url": "https://artigian.casa/",
    "rating_text": "4,4",
    "stars": null,
    "number_of_reviews": null,
    "price_level": "",
    "open_hours": "",
    "extraction_timestamp": "2025-06-07T17:01:54.867Z",
    "source_name": "google",
    "source_query": "Irrigation Equipment",
    "source_country": "IT",
    "country": "Italy",
    "state": "Emilia-Romagna",
    "city": "Provincia di Modena"
  },
  {
    "source_id": "ChIJI4KG-Rvvf0cRB2QrfWb5Ij4",
    "name": "Tecno Agricola Modena",
    "category": "Tecno Agricola Modena",
    "formatted_address": "4,4(643)",
    "phone_number": "+39059454683",
    "source_url": "https://www.google.com/maps/place/Tecno+Agricola+Modena/data=!4m7!3m6!1s0x477fef1bf9868223:0x3e22f9667d2b6407!8m2!3d44.6648031!4d10.9302657!16s%2Fg%2F1tfm09hj!19sChIJI4KG-Rvvf0cRB2QrfWb5Ij4?authuser=0&hl=tr&rclk=1",
    "website_url": "https://www.tecnoagricolamodena.it/",
    "rating_text": "4,4",
    "stars": null,
    "number_of_reviews": null,
    "price_level": "",
    "open_hours": "",
    "extraction_timestamp": "2025-06-07T17:01:54.869Z",
    "source_name": "google",
    "source_query": "Irrigation Equipment",
    "source_country": "IT",
    "country": "Italy",
    "state": "Emilia-Romagna",
    "city": "Provincia di Modena"
  },
  {
    "source_id": "ChIJqyvf7yHwf0cRJ7-ChxvWFz0",
    "name": "Decathlon Modena",
    "category": "Decathlon Modena",
    "formatted_address": "4,3(9.363)",
    "phone_number": "+39059847445",
    "source_url": "https://www.google.com/maps/place/Decathlon+Modena/data=!4m7!3m6!1s0x477ff021efdf2bab:0x3d17d61b8782bf27!8m2!3d44.6518778!4d10.8565212!16s%2Fg%2F124ykrgjt!19sChIJqyvf7yHwf0cRJ7-ChxvWFz0?authuser=0&hl=tr&rclk=1",
    "website_url": "https://www.decathlon.it/store-view/negozio-sport-modena-0070062000620",
    "rating_text": "4,3",
    "stars": null,
    "number_of_reviews": null,
    "price_level": "",
    "open_hours": "",
    "extraction_timestamp": "2025-06-07T17:01:54.872Z",
    "source_name": "google",
    "source_query": "Irrigation Equipment",
    "source_country": "IT",
    "country": "Italy",
    "state": "Emilia-Romagna",
    "city": "Provincia di Modena"
  },
  {
    "source_id": "ChIJqww04MP8f0cRBPrbKR4_9cw",
    "name": "Tecnoagricola Fiorano",
    "category": "Tecnoagricola Fiorano",
    "formatted_address": "4,5(285)",
    "phone_number": "+390536805806",
    "source_url": "https://www.google.com/maps/place/Tecnoagricola+Fiorano/data=!4m7!3m6!1s0x477ffcc3e0340cab:0xccf53f1e29dbfa04!8m2!3d44.5390441!4d10.8009076!16s%2Fg%2F11d_7st142!19sChIJqww04MP8f0cRBPrbKR4_9cw?authuser=0&hl=tr&rclk=1",
    "website_url": "",
    "rating_text": "4,5",
    "stars": null,
    "number_of_reviews": null,
    "price_level": "",
    "open_hours": "",
    "extraction_timestamp": "2025-06-07T17:01:54.873Z",
    "source_name": "google",
    "source_query": "Irrigation Equipment",
    "source_country": "IT",
    "country": "Italy",
    "state": "Emilia-Romagna",
    "city": "Provincia di Modena"
  },
  {
    "source_id": "ChIJa8flob_wf0cRa7XVBodnL2I",
    "name": "Arag Srl",
    "category": "Arag Srl",
    "formatted_address": "4,6(141)",
    "phone_number": "+390522622011",
    "source_url": "https://www.google.com/maps/place/Arag+Srl/data=!4m7!3m6!1s0x477ff0bfa1e5c76b:0x622f678706d5b56b!8m2!3d44.6556162!4d10.7922409!16s%2Fg%2F1tdnd2vb!19sChIJa8flob_wf0cRa7XVBodnL2I?authuser=0&hl=tr&rclk=1",
    "website_url": "http://www.aragnet.com/",
    "rating_text": "4,6",
    "stars": null,
    "number_of_reviews": null,
    "price_level": "",
    "open_hours": "",
    "extraction_timestamp": "2025-06-07T17:01:54.875Z",
    "source_name": "google",
    "source_query": "Irrigation Equipment",
    "source_country": "IT",
    "country": "Italy",
    "state": "Emilia-Romagna",
    "city": "Provincia di Modena"
  },
  {
    "source_id": "ChIJ7-KmnFPvf0cRmlf4NacR-Ms",
    "name": "New Horizons Sports",
    "category": "New Horizons Sports",
    "formatted_address": "4,3(350)",
    "phone_number": "+39059230083",
    "source_url": "https://www.google.com/maps/place/New+Horizons+Sports/data=!4m7!3m6!1s0x477fef539ca6e2ef:0xcbf811a735f8579a!8m2!3d44.62924!4d10.945005!16s%2Fg%2F1hc8w2jlw!19sChIJ7-KmnFPvf0cRmlf4NacR-Ms?authuser=0&hl=tr&rclk=1",
    "website_url": "http://www.nuoviorizzontisport.com/",
    "rating_text": "4,3",
    "stars": null,
    "number_of_reviews": null,
    "price_level": "",
    "open_hours": "",
    "extraction_timestamp": "2025-06-07T17:01:54.876Z",
    "source_name": "google",
    "source_query": "Irrigation Equipment",
    "source_country": "IT",
    "country": "Italy",
    "state": "Emilia-Romagna",
    "city": "Provincia di Modena"
  },
  {
    "source_id": "ChIJveAeFroEgEcRZfa9xqlB6vM",
    "name": "Morelli Irrigazioni",
    "category": "Morelli Irrigazioni",
    "formatted_address": "1,0(1)",
    "phone_number": "+393480042122",
    "source_url": "https://www.google.com/maps/place/Morelli+Irrigazioni/data=!4m7!3m6!1s0x478004ba161ee0bd:0xf3ea41a9c6bdf665!8m2!3d44.649256!4d10.5636837!16s%2Fg%2F11gy01p0bd!19sChIJveAeFroEgEcRZfa9xqlB6vM?authuser=0&hl=tr&rclk=1",
    "website_url": "http://irrigazionimorelli.it/",
    "rating_text": "1,0",
    "stars": null,
    "number_of_reviews": null,
    "price_level": "",
    "open_hours": "",
    "extraction_timestamp": "2025-06-07T17:01:54.877Z",
    "source_name": "google",
    "source_query": "Irrigation Equipment",
    "source_country": "IT",
    "country": "Italy",
    "state": "Emilia-Romagna",
    "city": "Provincia di Modena"
  },
  {
    "source_id": "ChIJB4aoVtbof0cRT9BjONdig64",
    "name": "Setti Hardware SRL",
    "category": "Setti Hardware SRL",
    "formatted_address": "4,7(158)",
    "phone_number": "+39059251706",
    "source_url": "https://www.google.com/maps/place/Setti+Hardware+SRL/data=!4m7!3m6!1s0x477fe8d656a88607:0xae8362d73863d04f!8m2!3d44.6577295!4d10.9636676!16s%2Fg%2F1tfr_y49!19sChIJB4aoVtbof0cRT9BjONdig64?authuser=0&hl=tr&rclk=1",
    "website_url": "http://www.settiferramenta.it/",
    "rating_text": "4,7",
    "stars": null,
    "number_of_reviews": null,
    "price_level": "",
    "open_hours": "",
    "extraction_timestamp": "2025-06-07T17:01:54.879Z",
    "source_name": "google",
    "source_query": "Irrigation Equipment",
    "source_country": "IT",
    "country": "Italy",
    "state": "Emilia-Romagna",
    "city": "Provincia di Modena"
  }
]
