[
  {
    "source_id": "ChIJ2weuqXv6fUcRar-5PRxnHJM",
    "name": "ANYWAY Sport Shop",
    "category": "ANYWAY Sport Shop",
    "formatted_address": "4,5(133)",
    "phone_number": "+390544437512",
    "source_url": "https://www.google.com/maps/place/ANYWAY+Sport+Shop/data=!4m7!3m6!1s0x477dfa7ba9ae07db:0x931c671c3db9bf6a!8m2!3d44.4412037!4d12.2903115!16s%2Fg%2F1tf80fm3!19sChIJ2weuqXv6fUcRar-5PRxnHJM?authuser=0&hl=tr&rclk=1",
    "website_url": "",
    "rating_text": "4,5",
    "stars": null,
    "number_of_reviews": null,
    "price_level": "",
    "open_hours": "",
    "extraction_timestamp": "2025-06-07T17:06:24.907Z",
    "source_name": "google",
    "source_query": "Irrigation Equipment",
    "source_country": "IT",
    "country": "Italy",
    "state": "Emilia-Romagna",
    "city": "Punta Marina"
  },
  {
    "source_id": "ChIJLRafgXD6fUcRAaTEghX4cbg",
    "name": "Ferramenta Hobby Center di Ronco Stefano",
    "category": "Ferramenta Hobby Center di Ronco Stefano",
    "formatted_address": "4,4(146)",
    "phone_number": "+390544422340",
    "source_url": "https://www.google.com/maps/place/Ferramenta+Hobby+Center+di+Ronco+Stefano/data=!4m7!3m6!1s0x477dfa70819f162d:0xb871f81582c4a401!8m2!3d44.4383969!4d12.2890884!16s%2Fg%2F1tx45wh5!19sChIJLRafgXD6fUcRAaTEghX4cbg?authuser=0&hl=tr&rclk=1",
    "website_url": "",
    "rating_text": "4,4",
    "stars": null,
    "number_of_reviews": null,
    "price_level": "",
    "open_hours": "",
    "extraction_timestamp": "2025-06-07T17:06:24.915Z",
    "source_name": "google",
    "source_query": "Irrigation Equipment",
    "source_country": "IT",
    "country": "Italy",
    "state": "Emilia-Romagna",
    "city": "Punta Marina"
  },
  {
    "source_id": "ChIJKWQRr3f6fUcRfTFQ-l1MwwM",
    "name": "Impianto idrovoro Rasponi",
    "category": "Impianto idrovoro Rasponi",
    "formatted_address": "Kurumsal Ofis · Via del Remo, 97+39 0544 437476",
    "phone_number": "+390544437476",
    "source_url": "https://www.google.com/maps/place/Impianto+idrovoro+Rasponi/data=!4m7!3m6!1s0x477dfa77af116429:0x3c34c5dfa50317d!8m2!3d44.4362465!4d12.2943038!16s%2Fg%2F11dzy7gmq5!19sChIJKWQRr3f6fUcRfTFQ-l1MwwM?authuser=0&hl=tr&rclk=1",
    "website_url": "",
    "rating_text": "",
    "stars": null,
    "number_of_reviews": null,
    "price_level": "",
    "open_hours": "",
    "extraction_timestamp": "2025-06-07T17:06:24.915Z",
    "source_name": "google",
    "source_query": "Irrigation Equipment",
    "source_country": "IT",
    "country": "Italy",
    "state": "Emilia-Romagna",
    "city": "Punta Marina"
  },
  {
    "source_id": "ChIJy8VXi437fUcRUT3_AE-GUic",
    "name": "Tubi termoidraulica",
    "category": "Tubi termoidraulica",
    "formatted_address": "Tesisatçı · Via della Vela, 89Kapalı ⋅ Açılış zamanı: Pzt 07:30 · +39 347 364 2143",
    "phone_number": "+393473642143",
    "source_url": "https://www.google.com/maps/place/Tubi+termoidraulica/data=!4m7!3m6!1s0x477dfb8d8b57c5cb:0x2752864f00ff3d51!8m2!3d44.4443209!4d12.2911129!16s%2Fg%2F11s057wmv4!19sChIJy8VXi437fUcRUT3_AE-GUic?authuser=0&hl=tr&rclk=1",
    "website_url": "",
    "rating_text": "",
    "stars": null,
    "number_of_reviews": null,
    "price_level": "",
    "open_hours": "",
    "extraction_timestamp": "2025-06-07T17:06:24.916Z",
    "source_name": "google",
    "source_query": "Irrigation Equipment",
    "source_country": "IT",
    "country": "Italy",
    "state": "Emilia-Romagna",
    "city": "Punta Marina"
  },
  {
    "source_id": "ChIJy4AVn9C-LBMRn6nsnuZl82A",
    "name": "Ramilli Irrigazioni S.R.L.",
    "category": "Ramilli Irrigazioni S.R.L.",
    "formatted_address": "4,3(52)",
    "phone_number": "+390541945335",
    "source_url": "https://www.google.com/maps/place/Ramilli+Irrigazioni+S.R.L./data=!4m7!3m6!1s0x132cbed09f1580cb:0x60f365e69eeca99f!8m2!3d44.0923156!4d12.3843691!16s%2Fg%2F1ts2ls1r!19sChIJy4AVn9C-LBMRn6nsnuZl82A?authuser=0&hl=tr&rclk=1",
    "website_url": "",
    "rating_text": "4,3",
    "stars": null,
    "number_of_reviews": null,
    "price_level": "",
    "open_hours": "",
    "extraction_timestamp": "2025-06-07T17:06:24.916Z",
    "source_name": "google",
    "source_query": "Irrigation Equipment",
    "source_country": "IT",
    "country": "Italy",
    "state": "Emilia-Romagna",
    "city": "Punta Marina"
  },
  {
    "source_id": "ChIJjzXRLnr6fUcRm4Dzi853rnw",
    "name": "Robi Art di Benedetti Roberta",
    "category": "Robi Art di Benedetti Roberta",
    "formatted_address": "4,6(134)",
    "phone_number": "+390544437830",
    "source_url": "https://www.google.com/maps/place/Robi+Art+di+Benedetti+Roberta/data=!4m7!3m6!1s0x477dfa7a2ed1358f:0x7cae77ce8bf3809b!8m2!3d44.4402445!4d12.2921302!16s%2Fg%2F1thnmmcb!19sChIJjzXRLnr6fUcRm4Dzi853rnw?authuser=0&hl=tr&rclk=1",
    "website_url": "",
    "rating_text": "4,6",
    "stars": null,
    "number_of_reviews": null,
    "price_level": "",
    "open_hours": "",
    "extraction_timestamp": "2025-06-07T17:06:24.916Z",
    "source_name": "google",
    "source_query": "Irrigation Equipment",
    "source_country": "IT",
    "country": "Italy",
    "state": "Emilia-Romagna",
    "city": "Punta Marina"
  },
  {
    "source_id": "ChIJ7UcCL3r6fUcRbH0qaG1GkUU",
    "name": "Bazar 100 in 1",
    "category": "Bazar 100 in 1",
    "formatted_address": "4,1(11)",
    "phone_number": "+393294152261",
    "source_url": "https://www.google.com/maps/place/Bazar+100+in+1/data=!4m7!3m6!1s0x477dfa7a2f0247ed:0x4591466d682a7d6c!8m2!3d44.4401417!4d12.2920565!16s%2Fg%2F11bzs3mt4d!19sChIJ7UcCL3r6fUcRbH0qaG1GkUU?authuser=0&hl=tr&rclk=1",
    "website_url": "",
    "rating_text": "4,1",
    "stars": null,
    "number_of_reviews": null,
    "price_level": "",
    "open_hours": "",
    "extraction_timestamp": "2025-06-07T17:06:24.917Z",
    "source_name": "google",
    "source_query": "Irrigation Equipment",
    "source_country": "IT",
    "country": "Italy",
    "state": "Emilia-Romagna",
    "city": "Punta Marina"
  },
  {
    "source_id": "ChIJa8kZK3r6fUcRcVlbRXRq_7g",
    "name": "La Ciotola Piena - Negozio per animali",
    "category": "La Ciotola Piena - Negozio per animali",
    "formatted_address": "4,8(79)",
    "phone_number": "+393332931209",
    "source_url": "https://www.google.com/maps/place/La+Ciotola+Piena+-+Negozio+per+animali/data=!4m7!3m6!1s0x477dfa7a2b19c96b:0xb8ff6a74455b5971!8m2!3d44.4404962!4d12.2919632!16s%2Fg%2F11byp6hxcf!19sChIJa8kZK3r6fUcRcVlbRXRq_7g?authuser=0&hl=tr&rclk=1",
    "website_url": "",
    "rating_text": "4,8",
    "stars": null,
    "number_of_reviews": null,
    "price_level": "",
    "open_hours": "",
    "extraction_timestamp": "2025-06-07T17:06:24.917Z",
    "source_name": "google",
    "source_query": "Irrigation Equipment",
    "source_country": "IT",
    "country": "Italy",
    "state": "Emilia-Romagna",
    "city": "Punta Marina"
  }
]
