[
  {
    "source_id": "ChIJtVDkNgRFgEcRqc6umwWIJuI",
    "name": "Rm Spa",
    "category": "Rm Spa",
    "formatted_address": "4,6(81)",
    "phone_number": "+390521872321",
    "source_url": "https://www.google.com/maps/place/Rm+Spa/data=!4m7!3m6!1s0x4780450436e450b5:0xe22688059baecea9!8m2!3d44.9105406!4d10.2583785!16s%2Fg%2F12hl93byl!19sChIJtVDkNgRFgEcRqc6umwWIJuI?authuser=0&hl=tr&rclk=1",
    "website_url": "http://www.rmirrigation.com/",
    "rating_text": "4,6",
    "stars": null,
    "number_of_reviews": null,
    "price_level": "",
    "open_hours": "",
    "extraction_timestamp": "2025-06-07T16:59:30.476Z",
    "source_name": "google",
    "source_query": "Irrigation Equipment",
    "source_country": "IT",
    "country": "Italy",
    "state": "Emilia-Romagna",
    "city": "Ramiola"
  },
  {
    "source_id": "ChIJwTAhqBRlgEcRtOTEPJkNvzQ",
    "name": "Tecnogor Srl",
    "category": "Tecnogor Srl",
    "formatted_address": "Şişe Suyu Tedarikçisi ·  · Via Solferino, 72E+39 0525 432088",
    "phone_number": "+390525432088",
    "source_url": "https://www.google.com/maps/place/Tecnogor+Srl/data=!4m7!3m6!1s0x47806514a82130c1:0x34bf0d993cc4e4b4!8m2!3d44.7001103!4d10.0911114!16s%2Fg%2F12hzfdwz0!19sChIJwTAhqBRlgEcRtOTEPJkNvzQ?authuser=0&hl=tr&rclk=1",
    "website_url": "http://tecnogor.it/",
    "rating_text": "",
    "stars": null,
    "number_of_reviews": null,
    "price_level": "",
    "open_hours": "",
    "extraction_timestamp": "2025-06-07T16:59:30.476Z",
    "source_name": "google",
    "source_query": "Irrigation Equipment",
    "source_country": "IT",
    "country": "Italy",
    "state": "Emilia-Romagna",
    "city": "Ramiola"
  },
  {
    "source_id": "ChIJn__z8ch6gEcRWi-VpqGF_e4",
    "name": "FERCOLOR SNC",
    "category": "FERCOLOR SNC",
    "formatted_address": "4,6(157)",
    "phone_number": "+3905252433",
    "source_url": "https://www.google.com/maps/place/FERCOLOR+SNC/data=!4m7!3m6!1s0x47807ac8f1f3ff9f:0xeefd85a1a6952f5a!8m2!3d44.7027165!4d10.09454!16s%2Fg%2F12hk8l2mb!19sChIJn__z8ch6gEcRWi-VpqGF_e4?authuser=0&hl=tr&rclk=1",
    "website_url": "http://www.lavoropassione.it/",
    "rating_text": "4,6",
    "stars": null,
    "number_of_reviews": null,
    "price_level": "",
    "open_hours": "",
    "extraction_timestamp": "2025-06-07T16:59:30.476Z",
    "source_name": "google",
    "source_query": "Irrigation Equipment",
    "source_country": "IT",
    "country": "Italy",
    "state": "Emilia-Romagna",
    "city": "Ramiola"
  },
  {
    "source_id": "ChIJR0cLXhQkgEcRi9oI9GALzlg",
    "name": "IRRILAND",
    "category": "IRRILAND",
    "formatted_address": "4,0(4)",
    "phone_number": "+390522831544",
    "source_url": "https://www.google.com/maps/place/IRRILAND/data=!4m7!3m6!1s0x478024145e0b4747:0x58ce0b60f408da8b!8m2!3d44.891987!4d10.650983!16s%2Fg%2F1tczjb0h!19sChIJR0cLXhQkgEcRi9oI9GALzlg?authuser=0&hl=tr&rclk=1",
    "website_url": "http://www.irriland.it/",
    "rating_text": "4,0",
    "stars": null,
    "number_of_reviews": null,
    "price_level": "",
    "open_hours": "",
    "extraction_timestamp": "2025-06-07T16:59:30.477Z",
    "source_name": "google",
    "source_query": "Irrigation Equipment",
    "source_country": "IT",
    "country": "Italy",
    "state": "Emilia-Romagna",
    "city": "Ramiola"
  },
  {
    "source_id": "ChIJGd6t6ixlgEcRwGEGtxkSz_g",
    "name": "G&V Fluid",
    "category": "G&V Fluid",
    "formatted_address": "4,8(5)",
    "phone_number": "+390525400079",
    "source_url": "https://www.google.com/maps/place/G%26V+Fluid/data=!4m7!3m6!1s0x4780652ceaadde19:0xf8cf1219b70661c0!8m2!3d44.7035961!4d10.0949092!16s%2Fg%2F11h1mdmf5z!19sChIJGd6t6ixlgEcRwGEGtxkSz_g?authuser=0&hl=tr&rclk=1",
    "website_url": "http://gvfluid.it/",
    "rating_text": "4,8",
    "stars": null,
    "number_of_reviews": null,
    "price_level": "",
    "open_hours": "",
    "extraction_timestamp": "2025-06-07T16:59:30.477Z",
    "source_name": "google",
    "source_query": "Irrigation Equipment",
    "source_country": "IT",
    "country": "Italy",
    "state": "Emilia-Romagna",
    "city": "Ramiola"
  },
  {
    "source_id": "ChIJoWn3Mt1ugEcRuJFECy0B-Rs",
    "name": "Maini Giardinaggio",
    "category": "Maini Giardinaggio",
    "formatted_address": "",
    "phone_number": "+393466905853",
    "source_url": "https://www.google.com/maps/place/Maini+Giardinaggio/data=!4m7!3m6!1s0x47806edd32f769a1:0x1bf9012d0b4491b8!8m2!3d41.29085!4d12.71216!16s%2Fg%2F1tg6tkcp!19sChIJoWn3Mt1ugEcRuJFECy0B-Rs?authuser=0&hl=tr&rclk=1",
    "website_url": "",
    "rating_text": "",
    "stars": null,
    "number_of_reviews": null,
    "price_level": "",
    "open_hours": "",
    "extraction_timestamp": "2025-06-07T16:59:30.477Z",
    "source_name": "google",
    "source_query": "Irrigation Equipment",
    "source_country": "IT",
    "country": "Italy",
    "state": "Emilia-Romagna",
    "city": "Ramiola"
  }
]
