[
  {
    "source_id": "ChIJ69PdR1EvgEcRzaszzDo7sjQ",
    "name": "Nodolini s.n.c.",
    "category": "Nodolini s.n.c.",
    "formatted_address": "5,0(8)",
    "phone_number": "+390522977491",
    "source_url": "https://www.google.com/maps/place/Nodolini+s.n.c./data=!4m7!3m6!1s0x47802f5147ddd3eb:0x34b23b3acc33abcd!8m2!3d44.9541974!4d10.6879499!16s%2Fg%2F11b6j0n4vm!19sChIJ69PdR1EvgEcRzaszzDo7sjQ?authuser=0&hl=tr&rclk=1",
    "website_url": "http://www.nodolini.com/",
    "rating_text": "5,0",
    "stars": null,
    "number_of_reviews": null,
    "price_level": "",
    "open_hours": "",
    "extraction_timestamp": "2025-06-07T16:25:07.480Z",
    "source_name": "google",
    "source_query": "Irrigation Equipment",
    "source_country": "IT",
    "country": "Italy",
    "state": "Emilia-Romagna",
    "city": "Reggiolo"
  },
  {
    "source_id": "ChIJQeeG9-mIf0cRvZkoah-FEz4",
    "name": "Dallai Ernesto Srl",
    "category": "Dallai Ernesto Srl",
    "formatted_address": "5,0(7)",
    "phone_number": "+390522210811",
    "source_url": "https://www.google.com/maps/place/Dallai+Ernesto+Srl/data=!4m7!3m6!1s0x477f88e9f786e741:0x3e13851f6a2899bd!8m2!3d44.9095011!4d10.8412503!16s%2Fg%2F1vc6c74x!19sChIJQeeG9-mIf0cRvZkoah-FEz4?authuser=0&hl=tr&rclk=1",
    "website_url": "http://www.dallai.it/",
    "rating_text": "5,0",
    "stars": null,
    "number_of_reviews": null,
    "price_level": "",
    "open_hours": "",
    "extraction_timestamp": "2025-06-07T16:25:07.480Z",
    "source_name": "google",
    "source_query": "Irrigation Equipment",
    "source_country": "IT",
    "country": "Italy",
    "state": "Emilia-Romagna",
    "city": "Reggiolo"
  },
  {
    "source_id": "ChIJN7GAlk-Jf0cRUw3Ah4cFO-o",
    "name": "Elettromeccanica Calzolari Srl",
    "category": "Elettromeccanica Calzolari Srl",
    "formatted_address": "4,5(108)",
    "phone_number": "+390522665507",
    "source_url": "https://www.google.com/maps/place/Elettromeccanica+Calzolari+Srl/data=!4m7!3m6!1s0x477f894f9680b137:0xea3b058787c00d53!8m2!3d44.869564!4d10.8407936!16s%2Fg%2F1tdn_9j9!19sChIJN7GAlk-Jf0cRUw3Ah4cFO-o?authuser=0&hl=tr&rclk=1",
    "website_url": "http://www.calzolarire.it/",
    "rating_text": "4,5",
    "stars": null,
    "number_of_reviews": null,
    "price_level": "",
    "open_hours": "",
    "extraction_timestamp": "2025-06-07T16:25:07.480Z",
    "source_name": "google",
    "source_query": "Irrigation Equipment",
    "source_country": "IT",
    "country": "Italy",
    "state": "Emilia-Romagna",
    "city": "Reggiolo"
  },
  {
    "source_id": "ChIJuUu6EEOIf0cRFnxkjksMi7E",
    "name": "Ferramenta Bianchi a Reggiolo",
    "category": "Ferramenta Bianchi a Reggiolo",
    "formatted_address": "4,5(16)",
    "phone_number": "+390522973193",
    "source_url": "https://www.google.com/maps/place/Ferramenta+Bianchi+a+Reggiolo/data=!4m7!3m6!1s0x477f884310ba4bb9:0xb18b0c4b8e647c16!8m2!3d44.9151878!4d10.808156!16s%2Fg%2F11cn3lt86y!19sChIJuUu6EEOIf0cRFnxkjksMi7E?authuser=0&hl=tr&rclk=1",
    "website_url": "",
    "rating_text": "4,5",
    "stars": null,
    "number_of_reviews": null,
    "price_level": "",
    "open_hours": "",
    "extraction_timestamp": "2025-06-07T16:25:07.481Z",
    "source_name": "google",
    "source_query": "Irrigation Equipment",
    "source_country": "IT",
    "country": "Italy",
    "state": "Emilia-Romagna",
    "city": "Reggiolo"
  },
  {
    "source_id": "ChIJfW1YlGGIf0cRw2kivAfjQcY",
    "name": "New System 2001 Group Consorzio Elettromeccanico",
    "category": "New System 2001 Group Consorzio Elettromeccanico",
    "formatted_address": "4,5(19)",
    "phone_number": "+390522974775",
    "source_url": "https://www.google.com/maps/place/New+System+2001+Group+Consorzio+Elettromeccanico/data=!4m7!3m6!1s0x477f886194586d7d:0xc641e307bc2269c3!8m2!3d44.9199041!4d10.822448!16s%2Fg%2F1tr16dvh!19sChIJfW1YlGGIf0cRw2kivAfjQcY?authuser=0&hl=tr&rclk=1",
    "website_url": "http://www.newsystem2001.it/",
    "rating_text": "4,5",
    "stars": null,
    "number_of_reviews": null,
    "price_level": "",
    "open_hours": "",
    "extraction_timestamp": "2025-06-07T16:25:07.481Z",
    "source_name": "google",
    "source_query": "Irrigation Equipment",
    "source_country": "IT",
    "country": "Italy",
    "state": "Emilia-Romagna",
    "city": "Reggiolo"
  },
  {
    "source_id": "ChIJR0cLXhQkgEcRi9oI9GALzlg",
    "name": "IRRILAND",
    "category": "IRRILAND",
    "formatted_address": "4,0(4)",
    "phone_number": "+390522831544",
    "source_url": "https://www.google.com/maps/place/IRRILAND/data=!4m7!3m6!1s0x478024145e0b4747:0x58ce0b60f408da8b!8m2!3d44.891987!4d10.650983!16s%2Fg%2F1tczjb0h!19sChIJR0cLXhQkgEcRi9oI9GALzlg?authuser=0&hl=tr&rclk=1",
    "website_url": "http://www.irriland.it/",
    "rating_text": "4,0",
    "stars": null,
    "number_of_reviews": null,
    "price_level": "",
    "open_hours": "",
    "extraction_timestamp": "2025-06-07T16:25:07.482Z",
    "source_name": "google",
    "source_query": "Irrigation Equipment",
    "source_country": "IT",
    "country": "Italy",
    "state": "Emilia-Romagna",
    "city": "Reggiolo"
  },
  {
    "source_id": "ChIJ9_Wyv0KIf0cRKHOEm06nPRQ",
    "name": "Rdr F.lli Pelizzoni",
    "category": "Rdr F.lli Pelizzoni",
    "formatted_address": "4,3(3)",
    "phone_number": "+390522971002",
    "source_url": "https://www.google.com/maps/place/Rdr+F.lli+Pelizzoni/data=!4m7!3m6!1s0x477f8842bfb2f5f7:0x143da74e9b847328!8m2!3d44.9170036!4d10.8095506!16s%2Fg%2F11bz_16wtx!19sChIJ9_Wyv0KIf0cRKHOEm06nPRQ?authuser=0&hl=tr&rclk=1",
    "website_url": "",
    "rating_text": "4,3",
    "stars": null,
    "number_of_reviews": null,
    "price_level": "",
    "open_hours": "",
    "extraction_timestamp": "2025-06-07T16:25:07.483Z",
    "source_name": "google",
    "source_query": "Irrigation Equipment",
    "source_country": "IT",
    "country": "Italy",
    "state": "Emilia-Romagna",
    "city": "Reggiolo"
  },
  {
    "source_id": "ChIJcQG6ul7df0cR3VxKiu5OPBs",
    "name": "Scova Impianti Srl",
    "category": "Scova Impianti Srl",
    "formatted_address": "4,5(64)",
    "phone_number": "+39059923202",
    "source_url": "https://www.google.com/maps/place/Scova+Impianti+Srl/data=!4m7!3m6!1s0x477fdd5ebaba0171:0x1b3c4eee8a4a5cdd!8m2!3d44.6018135!4d11.032294!16s%2Fg%2F1tfzwbfb!19sChIJcQG6ul7df0cR3VxKiu5OPBs?authuser=0&hl=tr&rclk=1",
    "website_url": "https://www.scovaimpianti.com/",
    "rating_text": "4,5",
    "stars": null,
    "number_of_reviews": null,
    "price_level": "",
    "open_hours": "",
    "extraction_timestamp": "2025-06-07T16:25:07.484Z",
    "source_name": "google",
    "source_query": "Irrigation Equipment",
    "source_country": "IT",
    "country": "Italy",
    "state": "Emilia-Romagna",
    "city": "Reggiolo"
  },
  {
    "source_id": "ChIJkToJEkKIf0cRJkqJqrh4oS0",
    "name": "Ancellotti F.lli S.a.s. Di Ancellotti Gaetano E Roberto",
    "category": "Ancellotti F.lli S.a.s. Di Ancellotti Gaetano E Roberto",
    "formatted_address": "4,8(52)",
    "phone_number": "+390522972118",
    "source_url": "https://www.google.com/maps/place/Ancellotti+F.lli+S.a.s.+Di+Ancellotti+Gaetano+E+Roberto/data=!4m7!3m6!1s0x477f884212093a91:0x2da178b8aa894a26!8m2!3d44.9176844!4d10.8063847!16s%2Fg%2F1v3hyv3d!19sChIJkToJEkKIf0cRJkqJqrh4oS0?authuser=0&hl=tr&rclk=1",
    "website_url": "",
    "rating_text": "4,8",
    "stars": null,
    "number_of_reviews": null,
    "price_level": "",
    "open_hours": "",
    "extraction_timestamp": "2025-06-07T16:25:07.485Z",
    "source_name": "google",
    "source_query": "Irrigation Equipment",
    "source_country": "IT",
    "country": "Italy",
    "state": "Emilia-Romagna",
    "city": "Reggiolo"
  },
  {
    "source_id": "ChIJ8S_H450fgEcRen1BwvkupIc",
    "name": "Agro-system Snc di Bassoli - Piscine e Macchine giardino - Reggio Emilia",
    "category": "Agro-system Snc di Bassoli - Piscine e Macchine giardino - Reggio Emilia",
    "formatted_address": "4,6(88)",
    "phone_number": "+390522954100",
    "source_url": "https://www.google.com/maps/place/Agro-system+Snc+di+Bassoli+-+Piscine+e+Macchine+giardino+-+Reggio+Emilia/data=!4m7!3m6!1s0x47801f9de3c72ff1:0x87a42ef9c2417d7a!8m2!3d44.797091!4d10.686568!16s%2Fg%2F1tfb5f45!19sChIJ8S_H450fgEcRen1BwvkupIc?authuser=0&hl=tr&rclk=1",
    "website_url": "https://agrosystem.info/",
    "rating_text": "4,6",
    "stars": null,
    "number_of_reviews": null,
    "price_level": "",
    "open_hours": "",
    "extraction_timestamp": "2025-06-07T16:25:07.516Z",
    "source_name": "google",
    "source_query": "Irrigation Equipment",
    "source_country": "IT",
    "country": "Italy",
    "state": "Emilia-Romagna",
    "city": "Reggiolo"
  },
  {
    "source_id": "ChIJtVDkNgRFgEcRqc6umwWIJuI",
    "name": "Rm Spa",
    "category": "Rm Spa",
    "formatted_address": "4,6(81)",
    "phone_number": "+390521872321",
    "source_url": "https://www.google.com/maps/place/Rm+Spa/data=!4m7!3m6!1s0x4780450436e450b5:0xe22688059baecea9!8m2!3d44.9105406!4d10.2583785!16s%2Fg%2F12hl93byl!19sChIJtVDkNgRFgEcRqc6umwWIJuI?authuser=0&hl=tr&rclk=1",
    "website_url": "http://www.rmirrigation.com/",
    "rating_text": "4,6",
    "stars": null,
    "number_of_reviews": null,
    "price_level": "",
    "open_hours": "",
    "extraction_timestamp": "2025-06-07T16:25:07.517Z",
    "source_name": "google",
    "source_query": "Irrigation Equipment",
    "source_country": "IT",
    "country": "Italy",
    "state": "Emilia-Romagna",
    "city": "Reggiolo"
  },
  {
    "source_id": "ChIJxzUTppyJf0cRu49FEkdXMA0",
    "name": "IDRO SYSTEM",
    "category": "IDRO SYSTEM",
    "formatted_address": "5,0(1)",
    "phone_number": "+390522665546",
    "source_url": "https://www.google.com/maps/place/IDRO+SYSTEM/data=!4m7!3m6!1s0x477f899ca61335c7:0xd30574712458fbb!8m2!3d44.8725935!4d10.8001949!16s%2Fg%2F1pty0g2q6!19sChIJxzUTppyJf0cRu49FEkdXMA0?authuser=0&hl=tr&rclk=1",
    "website_url": "http://idro-system.com/",
    "rating_text": "5,0",
    "stars": null,
    "number_of_reviews": null,
    "price_level": "",
    "open_hours": "",
    "extraction_timestamp": "2025-06-07T16:25:07.518Z",
    "source_name": "google",
    "source_query": "Irrigation Equipment",
    "source_country": "IT",
    "country": "Italy",
    "state": "Emilia-Romagna",
    "city": "Reggiolo"
  },
  {
    "source_id": "ChIJQx2DxA8pgEcRbJuoCmtTmbU",
    "name": "Landini Pompe S.r.l.",
    "category": "Landini Pompe S.r.l.",
    "formatted_address": "4,5(4)",
    "phone_number": "+390376588222",
    "source_url": "https://www.google.com/maps/place/Landini+Pompe+S.r.l./data=!4m7!3m6!1s0x4780290fc4831d43:0xb599536b0aa89b6c!8m2!3d44.9561883!4d10.8099117!16s%2Fg%2F1v8h_8lx!19sChIJQx2DxA8pgEcRbJuoCmtTmbU?authuser=0&hl=tr&rclk=1",
    "website_url": "http://www.landinipompe.it/",
    "rating_text": "4,5",
    "stars": null,
    "number_of_reviews": null,
    "price_level": "",
    "open_hours": "",
    "extraction_timestamp": "2025-06-07T16:25:07.519Z",
    "source_name": "google",
    "source_query": "Irrigation Equipment",
    "source_country": "IT",
    "country": "Italy",
    "state": "Emilia-Romagna",
    "city": "Reggiolo"
  },
  {
    "source_id": "ChIJJ6V6lMDgf0cR1SpFsfjDuHg",
    "name": "Ocmis Irrigazione Spa",
    "category": "Ocmis Irrigazione Spa",
    "formatted_address": "3,5(31)",
    "phone_number": "+39059702150",
    "source_url": "https://www.google.com/maps/place/Ocmis+Irrigazione+Spa/data=!4m7!3m6!1s0x477fe0c0947aa527:0x78b8c3f8b1452ad5!8m2!3d44.530494!4d10.9794578!16s%2Fg%2F1vd3tn19!19sChIJJ6V6lMDgf0cR1SpFsfjDuHg?authuser=0&hl=tr&rclk=1",
    "website_url": "http://www.ocmis-irrigazione.it/",
    "rating_text": "3,5",
    "stars": null,
    "number_of_reviews": null,
    "price_level": "",
    "open_hours": "",
    "extraction_timestamp": "2025-06-07T16:25:07.520Z",
    "source_name": "google",
    "source_query": "Irrigation Equipment",
    "source_country": "IT",
    "country": "Italy",
    "state": "Emilia-Romagna",
    "city": "Reggiolo"
  },
  {
    "source_id": "ChIJqdtsqMTaf0cRFSqvzNBB5Tw",
    "name": "Ricchetti Irrigazione Snc Di Alberghini Paolo E C.",
    "category": "Ricchetti Irrigazione Snc Di Alberghini Paolo E C.",
    "formatted_address": "4,9(31)",
    "phone_number": "+39051950115",
    "source_url": "https://www.google.com/maps/place/Ricchetti+Irrigazione+Snc+Di+Alberghini+Paolo+E+C./data=!4m7!3m6!1s0x477fdac4a86cdba9:0x3ce541d0ccaf2a15!8m2!3d44.5883369!4d11.1803569!16s%2Fg%2F1vfn5hgh!19sChIJqdtsqMTaf0cRFSqvzNBB5Tw?authuser=0&hl=tr&rclk=1",
    "website_url": "http://www.ricchetti-irrigatori.it/",
    "rating_text": "4,9",
    "stars": null,
    "number_of_reviews": null,
    "price_level": "",
    "open_hours": "",
    "extraction_timestamp": "2025-06-07T16:25:07.521Z",
    "source_name": "google",
    "source_query": "Irrigation Equipment",
    "source_country": "IT",
    "country": "Italy",
    "state": "Emilia-Romagna",
    "city": "Reggiolo"
  },
  {
    "source_id": "ChIJc7ABOq-Jf0cR3Nf8yEwi8XE",
    "name": "ENER CALOR di Terzi Lorenzo",
    "category": "ENER CALOR di Terzi Lorenzo",
    "formatted_address": "3,0(2)",
    "phone_number": "+393337575099",
    "source_url": "https://www.google.com/maps/place/ENER+CALOR+di+Terzi+Lorenzo/data=!4m7!3m6!1s0x477f89af3a01b073:0x71f1224cc8fcd7dc!8m2!3d44.9172027!4d10.8209556!16s%2Fg%2F11p474j9kz!19sChIJc7ABOq-Jf0cR3Nf8yEwi8XE?authuser=0&hl=tr&rclk=1",
    "website_url": "",
    "rating_text": "3,0",
    "stars": null,
    "number_of_reviews": null,
    "price_level": "",
    "open_hours": "",
    "extraction_timestamp": "2025-06-07T16:25:07.522Z",
    "source_name": "google",
    "source_query": "Irrigation Equipment",
    "source_country": "IT",
    "country": "Italy",
    "state": "Emilia-Romagna",
    "city": "Reggiolo"
  },
  {
    "source_id": "ChIJtdJC5j6Zf0cRmmVcuMyNEW0",
    "name": "Tadei | Impianti irrigazione | Robot tagliaerba | Barbecue | Outdoor",
    "category": "Tadei | Impianti irrigazione | Robot tagliaerba | Barbecue | Outdoor",
    "formatted_address": "4,6(69)",
    "phone_number": "+390386733460",
    "source_url": "https://www.google.com/maps/place/Tadei+%7C+Impianti+irrigazione+%7C+Robot+tagliaerba+%7C+Barbecue+%7C+Outdoor/data=!4m7!3m6!1s0x477f993ee642d2b5:0x6d118dccb85c659a!8m2!3d44.9680645!4d11.1076526!16s%2Fg%2F113dpgnd_!19sChIJtdJC5j6Zf0cRmmVcuMyNEW0?authuser=0&hl=tr&rclk=1",
    "website_url": "https://www.irrigazionetadei.it/",
    "rating_text": "4,6",
    "stars": null,
    "number_of_reviews": null,
    "price_level": "",
    "open_hours": "",
    "extraction_timestamp": "2025-06-07T16:25:07.523Z",
    "source_name": "google",
    "source_query": "Irrigation Equipment",
    "source_country": "IT",
    "country": "Italy",
    "state": "Emilia-Romagna",
    "city": "Reggiolo"
  },
  {
    "source_id": "ChIJZyGB6TaYf0cR4d9PeL7ATP4",
    "name": "Pet Discount Reggiolo",
    "category": "Pet Discount Reggiolo",
    "formatted_address": "4,3(18)",
    "phone_number": "+390522974779",
    "source_url": "https://www.google.com/maps/place/Pet+Discount+Reggiolo/data=!4m7!3m6!1s0x477f9836e9812167:0xfe4cc0be784fdfe1!8m2!3d44.9147827!4d10.8190392!16s%2Fg%2F1pp2tjz78!19sChIJZyGB6TaYf0cR4d9PeL7ATP4?authuser=0&hl=tr&rclk=1",
    "website_url": "",
    "rating_text": "4,3",
    "stars": null,
    "number_of_reviews": null,
    "price_level": "",
    "open_hours": "",
    "extraction_timestamp": "2025-06-07T16:25:07.524Z",
    "source_name": "google",
    "source_query": "Irrigation Equipment",
    "source_country": "IT",
    "country": "Italy",
    "state": "Emilia-Romagna",
    "city": "Reggiolo"
  },
  {
    "source_id": "ChIJX9PeHmGIf0cRMFeNSidNAgo",
    "name": "Termoidraulica Chiappini Di Chiappini Nicola Giovanni",
    "category": "Termoidraulica Chiappini Di Chiappini Nicola Giovanni",
    "formatted_address": "Tesisatçı · Viale F. Chopin, 9Kapalı ⋅ Açılış zamanı: Pzt 08:30 · +39 0522 972621",
    "phone_number": "+390522972621",
    "source_url": "https://www.google.com/maps/place/Termoidraulica+Chiappini+Di+Chiappini+Nicola+Giovanni/data=!4m7!3m6!1s0x477f88611eded35f:0xa024d274a8d5730!8m2!3d44.9203725!4d10.8197659!16s%2Fg%2F12hn7z4fl!19sChIJX9PeHmGIf0cRMFeNSidNAgo?authuser=0&hl=tr&rclk=1",
    "website_url": "",
    "rating_text": "",
    "stars": null,
    "number_of_reviews": null,
    "price_level": "",
    "open_hours": "",
    "extraction_timestamp": "2025-06-07T16:25:07.525Z",
    "source_name": "google",
    "source_query": "Irrigation Equipment",
    "source_country": "IT",
    "country": "Italy",
    "state": "Emilia-Romagna",
    "city": "Reggiolo"
  },
  {
    "source_id": "ChIJveAeFroEgEcRZfa9xqlB6vM",
    "name": "Morelli Irrigazioni",
    "category": "Morelli Irrigazioni",
    "formatted_address": "1,0(1)",
    "phone_number": "+393480042122",
    "source_url": "https://www.google.com/maps/place/Morelli+Irrigazioni/data=!4m7!3m6!1s0x478004ba161ee0bd:0xf3ea41a9c6bdf665!8m2!3d44.649256!4d10.5636837!16s%2Fg%2F11gy01p0bd!19sChIJveAeFroEgEcRZfa9xqlB6vM?authuser=0&hl=tr&rclk=1",
    "website_url": "http://irrigazionimorelli.it/",
    "rating_text": "1,0",
    "stars": null,
    "number_of_reviews": null,
    "price_level": "",
    "open_hours": "",
    "extraction_timestamp": "2025-06-07T16:25:07.526Z",
    "source_name": "google",
    "source_query": "Irrigation Equipment",
    "source_country": "IT",
    "country": "Italy",
    "state": "Emilia-Romagna",
    "city": "Reggiolo"
  }
]
