[
  {
    "source_id": "ChIJE_3jOnMtfkcRkxtTFj3Ym9E",
    "name": "Irrigation Scarabelli Srl",
    "category": "Irrigation Scarabelli Srl",
    "formatted_address": "4,5(23)",
    "phone_number": "+39051763363",
    "source_url": "https://www.google.com/maps/place/Irrigation+Scarabelli+Srl/data=!4m7!3m6!1s0x477e2d733ae3fd13:0xd19bd83d16531b93!8m2!3d44.5426053!4d11.4189136!16s%2Fg%2F11gzdz6vf!19sChIJE_3jOnMtfkcRkxtTFj3Ym9E?authuser=0&hl=tr&rclk=1",
    "website_url": "",
    "rating_text": "4,5",
    "stars": null,
    "number_of_reviews": null,
    "price_level": "",
    "open_hours": "",
    "extraction_timestamp": "2025-06-07T16:10:46.741Z",
    "source_name": "google",
    "source_query": "Irrigation Equipment",
    "source_country": "IT",
    "country": "Italy",
    "state": "Emilia-Romagna",
    "city": "Riale"
  },
  {
    "source_id": "ChIJi1DNjbfSKhMRIaoC0G1QOmo",
    "name": "Vannini Aqua & Pool",
    "category": "Vannini Aqua & Pool",
    "formatted_address": "4,7(340)",
    "phone_number": "+390516760813",
    "source_url": "https://www.google.com/maps/place/Vannini+Aqua+%26+Pool/data=!4m7!3m6!1s0x132ad2b78dcd508b:0x6a3a506dd002aa21!8m2!3d44.4876304!4d11.2404479!16s%2Fg%2F1v47p026!19sChIJi1DNjbfSKhMRIaoC0G1QOmo?authuser=0&hl=tr&rclk=1",
    "website_url": "http://www.vanniniaquaepool.it/",
    "rating_text": "4,7",
    "stars": null,
    "number_of_reviews": null,
    "price_level": "",
    "open_hours": "",
    "extraction_timestamp": "2025-06-07T16:10:46.744Z",
    "source_name": "google",
    "source_query": "Irrigation Equipment",
    "source_country": "IT",
    "country": "Italy",
    "state": "Emilia-Romagna",
    "city": "Riale"
  },
  {
    "source_id": "ChIJ_SYf2IMsfkcRVw9xVhrnjyI",
    "name": "Irrigazione Bragaglia",
    "category": "Irrigazione Bragaglia",
    "formatted_address": "4,7(30)",
    "phone_number": "+39051534865",
    "source_url": "https://www.google.com/maps/place/Irrigazione+Bragaglia/data=!4m7!3m6!1s0x477e2c83d81f26fd:0x228fe71a56710f57!8m2!3d44.5053735!4d11.412403!16s%2Fg%2F1vp6z0gf!19sChIJ_SYf2IMsfkcRVw9xVhrnjyI?authuser=0&hl=tr&rclk=1",
    "website_url": "http://www.irrigazionebragaglia.it/",
    "rating_text": "4,7",
    "stars": null,
    "number_of_reviews": null,
    "price_level": "",
    "open_hours": "",
    "extraction_timestamp": "2025-06-07T16:10:46.746Z",
    "source_name": "google",
    "source_query": "Irrigation Equipment",
    "source_country": "IT",
    "country": "Italy",
    "state": "Emilia-Romagna",
    "city": "Riale"
  },
  {
    "source_id": "ChIJh3Nd8G0sfkcR_m7VewEmxXM",
    "name": "Irrigarden",
    "category": "Irrigarden",
    "formatted_address": "4,7(158)",
    "phone_number": "+39051782013",
    "source_url": "https://www.google.com/maps/place/Irrigarden/data=!4m7!3m6!1s0x477e2c6df05d7387:0x73c526017bd56efe!8m2!3d44.5096266!4d11.4390897!16s%2Fg%2F1vgw_l7w!19sChIJh3Nd8G0sfkcR_m7VewEmxXM?authuser=0&hl=tr&rclk=1",
    "website_url": "https://www.irrigarden-bo.it/",
    "rating_text": "4,7",
    "stars": null,
    "number_of_reviews": null,
    "price_level": "",
    "open_hours": "",
    "extraction_timestamp": "2025-06-07T16:10:46.749Z",
    "source_name": "google",
    "source_query": "Irrigation Equipment",
    "source_country": "IT",
    "country": "Italy",
    "state": "Emilia-Romagna",
    "city": "Riale"
  },
  {
    "source_id": "ChIJyXgg68QrfkcRAaJCOMJ3PxY",
    "name": "hidrisistem",
    "category": "hidrisistem",
    "formatted_address": "5,0(1)",
    "phone_number": "+39366448310824",
    "source_url": "https://www.google.com/maps/place/hidrisistem/data=!4m7!3m6!1s0x477e2bc4eb2078c9:0x163f77c23842a201!8m2!3d44.496029!4d11.402638!16s%2Fg%2F11w_zjhjy3!19sChIJyXgg68QrfkcRAaJCOMJ3PxY?authuser=0&hl=tr&rclk=1",
    "website_url": "",
    "rating_text": "5,0",
    "stars": null,
    "number_of_reviews": null,
    "price_level": "",
    "open_hours": "",
    "extraction_timestamp": "2025-06-07T16:10:46.751Z",
    "source_name": "google",
    "source_query": "Irrigation Equipment",
    "source_country": "IT",
    "country": "Italy",
    "state": "Emilia-Romagna",
    "city": "Riale"
  },
  {
    "source_id": "ChIJBUDrkfPWf0cRVxKHTDNN2FI",
    "name": "Decathlon Zola Predosa",
    "category": "Decathlon Zola Predosa",
    "formatted_address": "4,0(4.123)",
    "phone_number": "+390510361826",
    "source_url": "https://www.google.com/maps/place/Decathlon+Zola+Predosa/data=!4m7!3m6!1s0x477fd6f391eb4005:0x52d84d334c871257!8m2!3d44.4874655!4d11.2419427!16s%2Fg%2F11f_rckshh!19sChIJBUDrkfPWf0cRVxKHTDNN2FI?authuser=0&hl=tr&rclk=1",
    "website_url": "https://www.decathlon.it/store-view/negozio-sport-zola-predosa-bologna-0070202702027",
    "rating_text": "4,0",
    "stars": null,
    "number_of_reviews": null,
    "price_level": "",
    "open_hours": "",
    "extraction_timestamp": "2025-06-07T16:10:46.755Z",
    "source_name": "google",
    "source_query": "Irrigation Equipment",
    "source_country": "IT",
    "country": "Italy",
    "state": "Emilia-Romagna",
    "city": "Riale"
  },
  {
    "source_id": "ChIJHWPL8tPXf0cRh4K7InMdxgk",
    "name": "Nettuno Termoidraulica s.r.l.",
    "category": "Nettuno Termoidraulica s.r.l.",
    "formatted_address": "5,0(6)",
    "phone_number": "+390510035056",
    "source_url": "https://www.google.com/maps/place/Nettuno+Termoidraulica+s.r.l./data=!4m7!3m6!1s0x477fd7d3f2cb631d:0x9c61d7322bb8287!8m2!3d44.4861593!4d11.2437258!16s%2Fg%2F11hdy38vyp!19sChIJHWPL8tPXf0cRh4K7InMdxgk?authuser=0&hl=tr&rclk=1",
    "website_url": "https://www.nettunotermoidraulica.it/",
    "rating_text": "5,0",
    "stars": null,
    "number_of_reviews": null,
    "price_level": "",
    "open_hours": "",
    "extraction_timestamp": "2025-06-07T16:10:46.775Z",
    "source_name": "google",
    "source_query": "Irrigation Equipment",
    "source_country": "IT",
    "country": "Italy",
    "state": "Emilia-Romagna",
    "city": "Riale"
  },
  {
    "source_id": "ChIJoUdjxvcrfkcRNBRxZxbabWs",
    "name": "Roli D. macchine ed attrezzature per giardinaggio",
    "category": "Roli D. macchine ed attrezzature per giardinaggio",
    "formatted_address": "4,6(27)",
    "phone_number": "+390514842351",
    "source_url": "https://www.google.com/maps/place/Roli+D.+macchine+ed+attrezzature+per+giardinaggio/data=!4m7!3m6!1s0x477e2bf7c66347a1:0x6b6dda1667711434!8m2!3d44.5028239!4d11.4035209!16s%2Fg%2F11tj6kzpf8!19sChIJoUdjxvcrfkcRNBRxZxbabWs?authuser=0&hl=tr&rclk=1",
    "website_url": "http://www.rolid.it/",
    "rating_text": "4,6",
    "stars": null,
    "number_of_reviews": null,
    "price_level": "",
    "open_hours": "",
    "extraction_timestamp": "2025-06-07T16:10:46.776Z",
    "source_name": "google",
    "source_query": "Irrigation Equipment",
    "source_country": "IT",
    "country": "Italy",
    "state": "Emilia-Romagna",
    "city": "Riale"
  },
  {
    "source_id": "ChIJtVDkNgRFgEcRqc6umwWIJuI",
    "name": "Rm Spa",
    "category": "Rm Spa",
    "formatted_address": "4,6(81)",
    "phone_number": "+390521872321",
    "source_url": "https://www.google.com/maps/place/Rm+Spa/data=!4m7!3m6!1s0x4780450436e450b5:0xe22688059baecea9!8m2!3d44.9105406!4d10.2583785!16s%2Fg%2F12hl93byl!19sChIJtVDkNgRFgEcRqc6umwWIJuI?authuser=0&hl=tr&rclk=1",
    "website_url": "http://www.rmirrigation.com/",
    "rating_text": "4,6",
    "stars": null,
    "number_of_reviews": null,
    "price_level": "",
    "open_hours": "",
    "extraction_timestamp": "2025-06-07T16:10:46.778Z",
    "source_name": "google",
    "source_query": "Irrigation Equipment",
    "source_country": "IT",
    "country": "Italy",
    "state": "Emilia-Romagna",
    "city": "Riale"
  },
  {
    "source_id": "ChIJp2R3w7_Qf0cRHlt9J4ovm_o",
    "name": "Irritec S.p.A. - Stabilimento F",
    "category": "Irritec S.p.A. - Stabilimento F",
    "formatted_address": "5,0(2)",
    "phone_number": "+390516508020",
    "source_url": "https://www.google.com/maps/place/Irritec+S.p.A.+-+Stabilimento+F/data=!4m7!3m6!1s0x477fd0bfc37764a7:0xfa9b2f8a277d5b1e!8m2!3d44.6210254!4d11.3703614!16s%2Fg%2F1xpwhmq4!19sChIJp2R3w7_Qf0cRHlt9J4ovm_o?authuser=0&hl=tr&rclk=1",
    "website_url": "http://www.irritec.com/",
    "rating_text": "5,0",
    "stars": null,
    "number_of_reviews": null,
    "price_level": "",
    "open_hours": "",
    "extraction_timestamp": "2025-06-07T16:10:46.779Z",
    "source_name": "google",
    "source_query": "Irrigation Equipment",
    "source_country": "IT",
    "country": "Italy",
    "state": "Emilia-Romagna",
    "city": "Riale"
  },
  {
    "source_id": "ChIJaWsnbPPWf0cR1NgeME785xo",
    "name": "Happycasa",
    "category": "Happycasa",
    "formatted_address": "4,0(1.971)",
    "phone_number": "+390510540840",
    "source_url": "https://www.google.com/maps/place/Happycasa/data=!4m7!3m6!1s0x477fd6f36c276b69:0x1ae7fc4e301ed8d4!8m2!3d44.487509!4d11.2440455!16s%2Fg%2F11cnc6nqrj!19sChIJaWsnbPPWf0cR1NgeME785xo?authuser=0&hl=tr&rclk=1",
    "website_url": "http://www.happycasastore.it/",
    "rating_text": "4,0",
    "stars": null,
    "number_of_reviews": null,
    "price_level": "",
    "open_hours": "",
    "extraction_timestamp": "2025-06-07T16:10:46.781Z",
    "source_name": "google",
    "source_query": "Irrigation Equipment",
    "source_country": "IT",
    "country": "Italy",
    "state": "Emilia-Romagna",
    "city": "Riale"
  },
  {
    "source_id": "ChIJ-28d9_3Wf0cRSRlvjRnmojA",
    "name": "Zola Zoo",
    "category": "Zola Zoo",
    "formatted_address": "4,8(62)",
    "phone_number": "+390514111094",
    "source_url": "https://www.google.com/maps/place/Zola+Zoo/data=!4m7!3m6!1s0x477fd6fdf71d6ffb:0x30a2e6198d6f1949!8m2!3d44.4834931!4d11.2461395!16s%2Fg%2F11h1b9d3j!19sChIJ-28d9_3Wf0cRSRlvjRnmojA?authuser=0&hl=tr&rclk=1",
    "website_url": "",
    "rating_text": "4,8",
    "stars": null,
    "number_of_reviews": null,
    "price_level": "",
    "open_hours": "",
    "extraction_timestamp": "2025-06-07T16:10:46.782Z",
    "source_name": "google",
    "source_query": "Irrigation Equipment",
    "source_country": "IT",
    "country": "Italy",
    "state": "Emilia-Romagna",
    "city": "Riale"
  },
  {
    "source_id": "ChIJCf5GXp9ywgwRjOaHi3EuOyk",
    "name": "T.R.I. italia srl irrigazione",
    "category": "T.R.I. italia srl irrigazione",
    "formatted_address": "",
    "phone_number": "+393492227322",
    "source_url": "https://www.google.com/maps/place/T.R.I.+italia+srl+irrigazione/data=!4m7!3m6!1s0xcc2729f5e46fe09:0x293b2e718b87e68c!8m2!3d41.29085!4d12.71216!16s%2Fg%2F11wqp9bx1c!19sChIJCf5GXp9ywgwRjOaHi3EuOyk?authuser=0&hl=tr&rclk=1",
    "website_url": "",
    "rating_text": "",
    "stars": null,
    "number_of_reviews": null,
    "price_level": "",
    "open_hours": "",
    "extraction_timestamp": "2025-06-07T16:10:46.783Z",
    "source_name": "google",
    "source_query": "Irrigation Equipment",
    "source_country": "IT",
    "country": "Italy",
    "state": "Emilia-Romagna",
    "city": "Riale"
  },
  {
    "source_id": "ChIJ_bIz3prWf0cRZ6m_cmG-4G8",
    "name": "Italgear Srl",
    "category": "Italgear Srl",
    "formatted_address": "5,0(10)",
    "phone_number": "+39051590490",
    "source_url": "https://www.google.com/maps/place/Italgear+Srl/data=!4m7!3m6!1s0x477fd69ade33b2fd:0x6fe0be6172bfa967!8m2!3d44.4907483!4d11.2620917!16s%2Fg%2F1tlgwt92!19sChIJ_bIz3prWf0cRZ6m_cmG-4G8?authuser=0&hl=tr&rclk=1",
    "website_url": "http://www.italgear.com/",
    "rating_text": "5,0",
    "stars": null,
    "number_of_reviews": null,
    "price_level": "",
    "open_hours": "",
    "extraction_timestamp": "2025-06-07T16:10:46.785Z",
    "source_name": "google",
    "source_query": "Irrigation Equipment",
    "source_country": "IT",
    "country": "Italy",
    "state": "Emilia-Romagna",
    "city": "Riale"
  },
  {
    "source_id": "ChIJ9UosqzHbASoR02d0Tw_sUAk",
    "name": "TRI italia srl",
    "category": "TRI italia srl",
    "formatted_address": "",
    "phone_number": "+393492227322",
    "source_url": "https://www.google.com/maps/place/TRI+italia+srl/data=!4m7!3m6!1s0x2a01db31ab2c4af5:0x950ec0f4f7467d3!8m2!3d41.29085!4d12.71216!16s%2Fg%2F11wqp8w6f4!19sChIJ9UosqzHbASoR02d0Tw_sUAk?authuser=0&hl=tr&rclk=1",
    "website_url": "",
    "rating_text": "",
    "stars": null,
    "number_of_reviews": null,
    "price_level": "",
    "open_hours": "",
    "extraction_timestamp": "2025-06-07T16:10:46.786Z",
    "source_name": "google",
    "source_query": "Irrigation Equipment",
    "source_country": "IT",
    "country": "Italy",
    "state": "Emilia-Romagna",
    "city": "Riale"
  }
]
