[
  {
    "source_id": "ChIJpXxPHfPnLBMR9xnPIDACohU",
    "name": "venditaferramenta.net",
    "category": "venditaferramenta.net",
    "formatted_address": "4,4(19)",
    "phone_number": "+390541601427",
    "source_url": "https://www.google.com/maps/place/venditaferramenta.net/data=!4m7!3m6!1s0x132ce7f31d4f7ca5:0x15a2023020cf19f7!8m2!3d43.990662!4d12.6425667!16s%2Fg%2F11b8c2rttm!19sChIJpXxPHfPnLBMR9xnPIDACohU?authuser=0&hl=tr&rclk=1",
    "website_url": "",
    "rating_text": "4,4",
    "stars": null,
    "number_of_reviews": null,
    "price_level": "",
    "open_hours": "",
    "extraction_timestamp": "2025-06-07T15:47:03.624Z",
    "source_name": "google",
    "source_query": "Irrigation Equipment",
    "source_country": "IT",
    "country": "Italy",
    "state": "Emilia-Romagna",
    "city": "Riccione"
  },
  {
    "source_id": "ChIJyaty-_LnLBMRUT2zAxinovQ",
    "name": "Cambielli S.p.A.",
    "category": "Cambielli S.p.A.",
    "formatted_address": "4,1(20)",
    "phone_number": "+390541691274",
    "source_url": "https://www.google.com/maps/place/Cambielli+S.p.A./data=!4m7!3m6!1s0x132ce7f2fb72abc9:0xf4a2a71803b33d51!8m2!3d43.9902687!4d12.6424834!16s%2Fg%2F1tk09w00!19sChIJyaty-_LnLBMRUT2zAxinovQ?authuser=0&hl=tr&rclk=1",
    "website_url": "",
    "rating_text": "4,1",
    "stars": null,
    "number_of_reviews": null,
    "price_level": "",
    "open_hours": "",
    "extraction_timestamp": "2025-06-07T15:47:03.626Z",
    "source_name": "google",
    "source_query": "Irrigation Equipment",
    "source_country": "IT",
    "country": "Italy",
    "state": "Emilia-Romagna",
    "city": "Riccione"
  },
  {
    "source_id": "ChIJG2i-pTXdLBMRO-9eww2Tauw",
    "name": "Brico IO",
    "category": "Brico IO",
    "formatted_address": "3,8(1.230)",
    "phone_number": "",
    "source_url": "https://www.google.com/maps/place/Brico+IO/data=!4m7!3m6!1s0x132cdd35a5be681b:0xec6a930dc35eef3b!8m2!3d44.0194538!4d12.6247371!16s%2Fg%2F11cjhlpfbf!19sChIJG2i-pTXdLBMRO-9eww2Tauw?authuser=0&hl=tr&rclk=1",
    "website_url": "",
    "rating_text": "3,8",
    "stars": null,
    "number_of_reviews": null,
    "price_level": "",
    "open_hours": "",
    "extraction_timestamp": "2025-06-07T15:47:03.628Z",
    "source_name": "google",
    "source_query": "Irrigation Equipment",
    "source_country": "IT",
    "country": "Italy",
    "state": "Emilia-Romagna",
    "city": "Riccione"
  },
  {
    "source_id": "ChIJ9X_DI6LDLBMR84MeChQNUCU",
    "name": "Irriverde - Il Paesaggio S.r.l.",
    "category": "Irriverde - Il Paesaggio S.r.l.",
    "formatted_address": "4,8(15)",
    "phone_number": "+393939275801",
    "source_url": "https://www.google.com/maps/place/Irriverde+-+Il+Paesaggio+S.r.l./data=!4m7!3m6!1s0x132cc3a223c37ff5:0x25500d140a1e83f3!8m2!3d43.982224!4d12.5281091!16s%2Fg%2F1ptz65rjr!19sChIJ9X_DI6LDLBMR84MeChQNUCU?authuser=0&hl=tr&rclk=1",
    "website_url": "",
    "rating_text": "4,8",
    "stars": null,
    "number_of_reviews": null,
    "price_level": "",
    "open_hours": "",
    "extraction_timestamp": "2025-06-07T15:47:03.630Z",
    "source_name": "google",
    "source_query": "Irrigation Equipment",
    "source_country": "IT",
    "country": "Italy",
    "state": "Emilia-Romagna",
    "city": "Riccione"
  },
  {
    "source_id": "ChIJ6zhm--vnLBMRVyVSPhmrlqs",
    "name": "Termoidraulica Riccionese S.R.L.",
    "category": "Termoidraulica Riccionese S.R.L.",
    "formatted_address": "4,8(26)",
    "phone_number": "+390541694000",
    "source_url": "https://www.google.com/maps/place/Termoidraulica+Riccionese+S.R.L./data=!4m7!3m6!1s0x132ce7ebfb6638eb:0xab96ab193e522557!8m2!3d43.9829845!4d12.638124!16s%2Fg%2F1tjbbr2m!19sChIJ6zhm--vnLBMRVyVSPhmrlqs?authuser=0&hl=tr&rclk=1",
    "website_url": "",
    "rating_text": "4,8",
    "stars": null,
    "number_of_reviews": null,
    "price_level": "",
    "open_hours": "",
    "extraction_timestamp": "2025-06-07T15:47:03.631Z",
    "source_name": "google",
    "source_query": "Irrigation Equipment",
    "source_country": "IT",
    "country": "Italy",
    "state": "Emilia-Romagna",
    "city": "Riccione"
  },
  {
    "source_id": "ChIJ00yw3HjnLBMRYSf8glz07O8",
    "name": "Ferramenta Maioli",
    "category": "Ferramenta Maioli",
    "formatted_address": "4,6(164)",
    "phone_number": "+390541602285",
    "source_url": "https://www.google.com/maps/place/Ferramenta+Maioli/data=!4m7!3m6!1s0x132ce778dcb04cd3:0xefecf45c82fc2761!8m2!3d43.9889841!4d12.6697201!16s%2Fg%2F1vzsj2_b!19sChIJ00yw3HjnLBMRYSf8glz07O8?authuser=0&hl=tr&rclk=1",
    "website_url": "",
    "rating_text": "4,6",
    "stars": null,
    "number_of_reviews": null,
    "price_level": "",
    "open_hours": "",
    "extraction_timestamp": "2025-06-07T15:47:03.632Z",
    "source_name": "google",
    "source_query": "Irrigation Equipment",
    "source_country": "IT",
    "country": "Italy",
    "state": "Emilia-Romagna",
    "city": "Riccione"
  },
  {
    "source_id": "ChIJr_Sa_1noLBMR1Md4Sf54Aaw",
    "name": "Climax - Romagna Piscine S.r.l.",
    "category": "Climax - Romagna Piscine S.r.l.",
    "formatted_address": "5,0(7)",
    "phone_number": "+390541389830",
    "source_url": "https://www.google.com/maps/place/Climax+-+Romagna+Piscine+S.r.l./data=!4m7!3m6!1s0x132ce859ff9af4af:0xac0178fe4978c7d4!8m2!3d43.9824034!4d12.6376409!16s%2Fg%2F11fl814dr3!19sChIJr_Sa_1noLBMR1Md4Sf54Aaw?authuser=0&hl=tr&rclk=1",
    "website_url": "",
    "rating_text": "5,0",
    "stars": null,
    "number_of_reviews": null,
    "price_level": "",
    "open_hours": "",
    "extraction_timestamp": "2025-06-07T15:47:03.634Z",
    "source_name": "google",
    "source_query": "Irrigation Equipment",
    "source_country": "IT",
    "country": "Italy",
    "state": "Emilia-Romagna",
    "city": "Riccione"
  },
  {
    "source_id": "ChIJp1SC7IDdLBMRjP_vFdFp1uQ",
    "name": "Riccione Terme",
    "category": "Riccione Terme",
    "formatted_address": "4,1(1.321)",
    "phone_number": "+390541602201",
    "source_url": "https://www.google.com/maps/place/Riccione+Terme/data=!4m7!3m6!1s0x132cdd80ec8254a7:0xe4d669d115efff8c!8m2!3d43.9955281!4d12.6713011!16s%2Fg%2F1tnxyx31!19sChIJp1SC7IDdLBMRjP_vFdFp1uQ?authuser=0&hl=tr&rclk=1",
    "website_url": "",
    "rating_text": "4,1",
    "stars": null,
    "number_of_reviews": null,
    "price_level": "",
    "open_hours": "",
    "extraction_timestamp": "2025-06-07T15:47:03.637Z",
    "source_name": "google",
    "source_query": "Irrigation Equipment",
    "source_country": "IT",
    "country": "Italy",
    "state": "Emilia-Romagna",
    "city": "Riccione"
  },
  {
    "source_id": "ChIJN-n65Y3nLBMRcq6G_fgZCxc",
    "name": "FDIDRAULICA di Ferrara Dante",
    "category": "FDIDRAULICA di Ferrara Dante",
    "formatted_address": "5,0(39)",
    "phone_number": "+393207445678",
    "source_url": "https://www.google.com/maps/place/FDIDRAULICA+di+Ferrara+Dante/data=!4m7!3m6!1s0x132ce78de5fae937:0x170b19f8fd86ae72!8m2!3d43.9895007!4d12.66015!16s%2Fg%2F11y4qy0m46!19sChIJN-n65Y3nLBMRcq6G_fgZCxc?authuser=0&hl=tr&rclk=1",
    "website_url": "",
    "rating_text": "5,0",
    "stars": null,
    "number_of_reviews": null,
    "price_level": "",
    "open_hours": "",
    "extraction_timestamp": "2025-06-07T15:47:03.638Z",
    "source_name": "google",
    "source_query": "Irrigation Equipment",
    "source_country": "IT",
    "country": "Italy",
    "state": "Emilia-Romagna",
    "city": "Riccione"
  },
  {
    "source_id": "ChIJEdxbQfLnLBMRqu0Efn6NO_w",
    "name": "Idrotermica La Perla Verde Srl",
    "category": "Idrotermica La Perla Verde Srl",
    "formatted_address": "5,0(6)",
    "phone_number": "+390541602369",
    "source_url": "https://www.google.com/maps/place/Idrotermica+La+Perla+Verde+Srl/data=!4m7!3m6!1s0x132ce7f2415bdc11:0xfc3b8d7e7e04edaa!8m2!3d43.9898524!4d12.6408126!16s%2Fg%2F1ttxf0yh!19sChIJEdxbQfLnLBMRqu0Efn6NO_w?authuser=0&hl=tr&rclk=1",
    "website_url": "",
    "rating_text": "5,0",
    "stars": null,
    "number_of_reviews": null,
    "price_level": "",
    "open_hours": "",
    "extraction_timestamp": "2025-06-07T15:47:03.639Z",
    "source_name": "google",
    "source_query": "Irrigation Equipment",
    "source_country": "IT",
    "country": "Italy",
    "state": "Emilia-Romagna",
    "city": "Riccione"
  },
  {
    "source_id": "ChIJiVAozYDnLBMRDwwEpluj06s",
    "name": "Termoidraulica Bezzi Di Benelli Filippo",
    "category": "Termoidraulica Bezzi Di Benelli Filippo",
    "formatted_address": "4,6(14)",
    "phone_number": "+390541605199",
    "source_url": "https://www.google.com/maps/place/Termoidraulica+Bezzi+Di+Benelli+Filippo/data=!4m7!3m6!1s0x132ce780cd285089:0xabd3a35ba6040c0f!8m2!3d43.9938913!4d12.6619465!16s%2Fg%2F1t_6js9c!19sChIJiVAozYDnLBMRDwwEpluj06s?authuser=0&hl=tr&rclk=1",
    "website_url": "",
    "rating_text": "4,6",
    "stars": null,
    "number_of_reviews": null,
    "price_level": "",
    "open_hours": "",
    "extraction_timestamp": "2025-06-07T15:47:03.640Z",
    "source_name": "google",
    "source_query": "Irrigation Equipment",
    "source_country": "IT",
    "country": "Italy",
    "state": "Emilia-Romagna",
    "city": "Riccione"
  },
  {
    "source_id": "ChIJp1G6-vTnLBMROxVwSGTQ4wY",
    "name": "Dav srl",
    "category": "Dav srl",
    "formatted_address": "4,3(291)",
    "phone_number": "+39800827777",
    "source_url": "https://www.google.com/maps/place/Dav+srl/data=!4m7!3m6!1s0x132ce7f4faba51a7:0x6e3d0644870153b!8m2!3d43.9924782!4d12.6358853!16s%2Fg%2F11r9w973sg!19sChIJp1G6-vTnLBMROxVwSGTQ4wY?authuser=0&hl=tr&rclk=1",
    "website_url": "",
    "rating_text": "4,3",
    "stars": null,
    "number_of_reviews": null,
    "price_level": "",
    "open_hours": "",
    "extraction_timestamp": "2025-06-07T15:47:03.642Z",
    "source_name": "google",
    "source_query": "Irrigation Equipment",
    "source_country": "IT",
    "country": "Italy",
    "state": "Emilia-Romagna",
    "city": "Riccione"
  },
  {
    "source_id": "ChIJHX1kaYrnLBMRXiHN2ttxH-E",
    "name": "Brico-Key",
    "category": "Brico-Key",
    "formatted_address": "4,2(189)",
    "phone_number": "+390541600158",
    "source_url": "https://www.google.com/maps/place/Brico-Key/data=!4m7!3m6!1s0x132ce78a69647d1d:0xe11f71dbdacd215e!8m2!3d43.9967444!4d12.6486915!16s%2Fg%2F113gnn6hf!19sChIJHX1kaYrnLBMRXiHN2ttxH-E?authuser=0&hl=tr&rclk=1",
    "website_url": "",
    "rating_text": "4,2",
    "stars": null,
    "number_of_reviews": null,
    "price_level": "",
    "open_hours": "",
    "extraction_timestamp": "2025-06-07T15:47:03.643Z",
    "source_name": "google",
    "source_query": "Irrigation Equipment",
    "source_country": "IT",
    "country": "Italy",
    "state": "Emilia-Romagna",
    "city": "Riccione"
  },
  {
    "source_id": "ChIJJ5QnW4jnLBMRuaUpcukj-_E",
    "name": "Erboristeria Enoteca Sorgente",
    "category": "Erboristeria Enoteca Sorgente",
    "formatted_address": "4,8(135)",
    "phone_number": "+390541606970",
    "source_url": "https://www.google.com/maps/place/Erboristeria+Enoteca+Sorgente/data=!4m7!3m6!1s0x132ce7885b279427:0xf1fb23e97229a5b9!8m2!3d43.9944817!4d12.654165!16s%2Fg%2F1ptwyz0xs!19sChIJJ5QnW4jnLBMRuaUpcukj-_E?authuser=0&hl=tr&rclk=1",
    "website_url": "",
    "rating_text": "4,8",
    "stars": null,
    "number_of_reviews": null,
    "price_level": "",
    "open_hours": "",
    "extraction_timestamp": "2025-06-07T15:47:03.644Z",
    "source_name": "google",
    "source_query": "Irrigation Equipment",
    "source_country": "IT",
    "country": "Italy",
    "state": "Emilia-Romagna",
    "city": "Riccione"
  },
  {
    "source_id": "ChIJ8VJJ51ndLBMRr4MDdKvOw4Q",
    "name": "Centro Clima SRL",
    "category": "Centro Clima SRL",
    "formatted_address": "3,1(21)",
    "phone_number": "+390541649100",
    "source_url": "https://www.google.com/maps/place/Centro+Clima+SRL/data=!4m7!3m6!1s0x132cdd59e74952f1:0x84c3ceab740383af!8m2!3d44.0046275!4d12.6209418!16s%2Fg%2F1tgkdjcp!19sChIJ8VJJ51ndLBMRr4MDdKvOw4Q?authuser=0&hl=tr&rclk=1",
    "website_url": "",
    "rating_text": "3,1",
    "stars": null,
    "number_of_reviews": null,
    "price_level": "",
    "open_hours": "",
    "extraction_timestamp": "2025-06-07T15:47:03.645Z",
    "source_name": "google",
    "source_query": "Irrigation Equipment",
    "source_country": "IT",
    "country": "Italy",
    "state": "Emilia-Romagna",
    "city": "Riccione"
  },
  {
    "source_id": "ChIJU4zMSIbnLBMRpLiwDbzdss0",
    "name": "Ferramenta Fantini",
    "category": "Ferramenta Fantini",
    "formatted_address": "4,8(32)",
    "phone_number": "+390541605088",
    "source_url": "https://www.google.com/maps/place/Ferramenta+Fantini/data=!4m7!3m6!1s0x132ce78648cc8c53:0xcdb2ddbc0db0b8a4!8m2!3d43.9931258!4d12.6577685!16s%2Fg%2F1tk2058b!19sChIJU4zMSIbnLBMRpLiwDbzdss0?authuser=0&hl=tr&rclk=1",
    "website_url": "",
    "rating_text": "4,8",
    "stars": null,
    "number_of_reviews": null,
    "price_level": "",
    "open_hours": "",
    "extraction_timestamp": "2025-06-07T15:47:03.646Z",
    "source_name": "google",
    "source_query": "Irrigation Equipment",
    "source_country": "IT",
    "country": "Italy",
    "state": "Emilia-Romagna",
    "city": "Riccione"
  },
  {
    "source_id": "ChIJo9cCwLznLBMRe4f1sp5co_Y",
    "name": "Kenovo Centro Assistenza IPHONE Cellulari Tablet Pc Portatili e Computer Fissi Iliad RICCIONE",
    "category": "Kenovo Centro Assistenza IPHONE Cellulari Tablet Pc Portatili e Computer Fissi Iliad RICCIONE",
    "formatted_address": "4,9(1.876)",
    "phone_number": "+390541316971",
    "source_url": "https://www.google.com/maps/place/Kenovo+Centro+Assistenza+IPHONE+Cellulari+Tablet+Pc+Portatili+e+Computer+Fissi+Iliad+RICCIONE/data=!4m7!3m6!1s0x132ce7bcc002d7a3:0xf6a35c9eb2f5877b!8m2!3d43.9922397!4d12.6639225!16s%2Fg%2F11h1260_fn!19sChIJo9cCwLznLBMRe4f1sp5co_Y?authuser=0&hl=tr&rclk=1",
    "website_url": "",
    "rating_text": "4,9",
    "stars": null,
    "number_of_reviews": null,
    "price_level": "",
    "open_hours": "",
    "extraction_timestamp": "2025-06-07T15:47:03.648Z",
    "source_name": "google",
    "source_query": "Irrigation Equipment",
    "source_country": "IT",
    "country": "Italy",
    "state": "Emilia-Romagna",
    "city": "Riccione"
  },
  {
    "source_id": "ChIJB6DAK2ndLBMRi_-Ar2pU6GM",
    "name": "Homeopathy Parafarmacia Dante",
    "category": "Homeopathy Parafarmacia Dante",
    "formatted_address": "4,7(51)",
    "phone_number": "+390541644649",
    "source_url": "https://www.google.com/maps/place/Homeopathy+Parafarmacia+Dante/data=!4m7!3m6!1s0x132cdd692bc0a007:0x63e8546aaf80ff8b!8m2!3d44.0090799!4d12.6496674!16s%2Fg%2F1tcvfb14!19sChIJB6DAK2ndLBMRi_-Ar2pU6GM?authuser=0&hl=tr&rclk=1",
    "website_url": "",
    "rating_text": "4,7",
    "stars": null,
    "number_of_reviews": null,
    "price_level": "",
    "open_hours": "",
    "extraction_timestamp": "2025-06-07T15:47:03.650Z",
    "source_name": "google",
    "source_query": "Irrigation Equipment",
    "source_country": "IT",
    "country": "Italy",
    "state": "Emilia-Romagna",
    "city": "Riccione"
  },
  {
    "source_id": "ChIJc4iHtMHnLBMRJKqYvY2UI6o",
    "name": "Fluidra Pro Center Misano - negozio per professionisti del settore",
    "category": "Fluidra Pro Center Misano - negozio per professionisti del settore",
    "formatted_address": "4,3(20)",
    "phone_number": "+390541697483",
    "source_url": "https://www.google.com/maps/place/Fluidra+Pro+Center+Misano+-+negozio+per+professionisti+del+settore/data=!4m7!3m6!1s0x132ce7c1b4878873:0xaa23948dbd98aa24!8m2!3d43.9776153!4d12.641262!16s%2Fg%2F12hm9xks0!19sChIJc4iHtMHnLBMRJKqYvY2UI6o?authuser=0&hl=tr&rclk=1",
    "website_url": "",
    "rating_text": "4,3",
    "stars": null,
    "number_of_reviews": null,
    "price_level": "",
    "open_hours": "",
    "extraction_timestamp": "2025-06-07T15:47:03.650Z",
    "source_name": "google",
    "source_query": "Irrigation Equipment",
    "source_country": "IT",
    "country": "Italy",
    "state": "Emilia-Romagna",
    "city": "Riccione"
  },
  {
    "source_id": "ChIJQVXHN0PdLBMROPYYxIo7JPk",
    "name": "Erboristeria L'Alchimista Parafarmacia",
    "category": "Erboristeria L'Alchimista Parafarmacia",
    "formatted_address": "4,9(13)",
    "phone_number": "+390541660190",
    "source_url": "https://www.google.com/maps/place/Erboristeria+L%27Alchimista+Parafarmacia/data=!4m7!3m6!1s0x132cdd4337c75541:0xf9243b8ac418f638!8m2!3d44.0076287!4d12.6397203!16s%2Fg%2F1tdt3_91!19sChIJQVXHN0PdLBMROPYYxIo7JPk?authuser=0&hl=tr&rclk=1",
    "website_url": "",
    "rating_text": "4,9",
    "stars": null,
    "number_of_reviews": null,
    "price_level": "",
    "open_hours": "",
    "extraction_timestamp": "2025-06-07T15:47:03.650Z",
    "source_name": "google",
    "source_query": "Irrigation Equipment",
    "source_country": "IT",
    "country": "Italy",
    "state": "Emilia-Romagna",
    "city": "Riccione"
  },
  {
    "source_id": "ChIJZ5LXx3jdLBMRR3PHPEib72I",
    "name": "Beach 68 Bath Ettore",
    "category": "Beach 68 Bath Ettore",
    "formatted_address": "4,6(312)",
    "phone_number": "+390541606537",
    "source_url": "https://www.google.com/maps/place/Beach+68+Bath+Ettore/data=!4m7!3m6!1s0x132cdd78c7d79267:0x62ef9b483cc77347!8m2!3d44.0011103!4d12.6649198!16s%2Fg%2F11bz_44hyv!19sChIJZ5LXx3jdLBMRR3PHPEib72I?authuser=0&hl=tr&rclk=1",
    "website_url": "",
    "rating_text": "4,6",
    "stars": null,
    "number_of_reviews": null,
    "price_level": "",
    "open_hours": "",
    "extraction_timestamp": "2025-06-07T15:47:03.651Z",
    "source_name": "google",
    "source_query": "Irrigation Equipment",
    "source_country": "IT",
    "country": "Italy",
    "state": "Emilia-Romagna",
    "city": "Riccione"
  },
  {
    "source_id": "ChIJ0Ul4Gv7CLBMRZVx0SHWdur4",
    "name": "PiùMe Riccione",
    "category": "PiùMe Riccione",
    "formatted_address": "4,4(229)",
    "phone_number": "+390541781460",
    "source_url": "https://www.google.com/maps/place/Pi%C3%B9Me+Riccione/data=!4m7!3m6!1s0x132cc2fe1a7849d1:0xbeba9d7548745c65!8m2!3d43.9933097!4d12.6512286!16s%2Fg%2F11b6hszf50!19sChIJ0Ul4Gv7CLBMRZVx0SHWdur4?authuser=0&hl=tr&rclk=1",
    "website_url": "",
    "rating_text": "4,4",
    "stars": null,
    "number_of_reviews": null,
    "price_level": "",
    "open_hours": "",
    "extraction_timestamp": "2025-06-07T15:47:03.651Z",
    "source_name": "google",
    "source_query": "Irrigation Equipment",
    "source_country": "IT",
    "country": "Italy",
    "state": "Emilia-Romagna",
    "city": "Riccione"
  },
  {
    "source_id": "ChIJs-bTEXDdLBMRiASFLgbAhoI",
    "name": "GreenVida79",
    "category": "GreenVida79",
    "formatted_address": "4,4(13)",
    "phone_number": "+390541692632",
    "source_url": "https://www.google.com/maps/place/GreenVida79/data=!4m7!3m6!1s0x132cdd7011d3e6b3:0x8286c0062e850488!8m2!3d44.0040047!4d12.6608638!16s%2Fg%2F1tk4hj9n!19sChIJs-bTEXDdLBMRiASFLgbAhoI?authuser=0&hl=tr&rclk=1",
    "website_url": "",
    "rating_text": "4,4",
    "stars": null,
    "number_of_reviews": null,
    "price_level": "",
    "open_hours": "",
    "extraction_timestamp": "2025-06-07T15:47:03.652Z",
    "source_name": "google",
    "source_query": "Irrigation Equipment",
    "source_country": "IT",
    "country": "Italy",
    "state": "Emilia-Romagna",
    "city": "Riccione"
  },
  {
    "source_id": "ChIJBykUdIHnLBMRpLnC7FQDFf8",
    "name": "Molino Grossi",
    "category": "Molino Grossi",
    "formatted_address": "4,5(30)",
    "phone_number": "+390541603011",
    "source_url": "https://www.google.com/maps/place/Molino+Grossi/data=!4m7!3m6!1s0x132ce78174142907:0xff150354ecc2b9a4!8m2!3d43.9913521!4d12.6644949!16s%2Fg%2F1ptvy303m!19sChIJBykUdIHnLBMRpLnC7FQDFf8?authuser=0&hl=tr&rclk=1",
    "website_url": "",
    "rating_text": "4,5",
    "stars": null,
    "number_of_reviews": null,
    "price_level": "",
    "open_hours": "",
    "extraction_timestamp": "2025-06-07T15:47:03.652Z",
    "source_name": "google",
    "source_query": "Irrigation Equipment",
    "source_country": "IT",
    "country": "Italy",
    "state": "Emilia-Romagna",
    "city": "Riccione"
  },
  {
    "source_id": "ChIJwcQUsFzdLBMRRgfPdQQEyTc",
    "name": "Cerri Moreno",
    "category": "Cerri Moreno",
    "formatted_address": "Su Tesisatı Malzemeleri Satıcısı ·  · Viale Cervino, 11+39 0541 660705",
    "phone_number": "+390541660705",
    "source_url": "https://www.google.com/maps/place/Cerri+Moreno/data=!4m7!3m6!1s0x132cdd5cb014c4c1:0x37c9040475cf0746!8m2!3d44.0056802!4d12.6409896!16s%2Fg%2F1td075d2!19sChIJwcQUsFzdLBMRRgfPdQQEyTc?authuser=0&hl=tr&rclk=1",
    "website_url": "",
    "rating_text": "",
    "stars": null,
    "number_of_reviews": null,
    "price_level": "",
    "open_hours": "",
    "extraction_timestamp": "2025-06-07T15:47:03.652Z",
    "source_name": "google",
    "source_query": "Irrigation Equipment",
    "source_country": "IT",
    "country": "Italy",
    "state": "Emilia-Romagna",
    "city": "Riccione"
  },
  {
    "source_id": "ChIJHSMA_EvCLBMRUtBlMXyKacg",
    "name": "Idros.art & Bozzola Group S.p.A.",
    "category": "Idros.art & Bozzola Group S.p.A.",
    "formatted_address": "5,0(4)",
    "phone_number": "+390541787368",
    "source_url": "https://www.google.com/maps/place/Idros.art+%26+Bozzola+Group+S.p.A./data=!4m7!3m6!1s0x132cc24bfc00231d:0xc8698a7c3165d052!8m2!3d44.0402268!4d12.5581256!16s%2Fg%2F11b7q649tm!19sChIJHSMA_EvCLBMRUtBlMXyKacg?authuser=0&hl=tr&rclk=1",
    "website_url": "",
    "rating_text": "5,0",
    "stars": null,
    "number_of_reviews": null,
    "price_level": "",
    "open_hours": "",
    "extraction_timestamp": "2025-06-07T15:47:03.653Z",
    "source_name": "google",
    "source_query": "Irrigation Equipment",
    "source_country": "IT",
    "country": "Italy",
    "state": "Emilia-Romagna",
    "city": "Riccione"
  },
  {
    "source_id": "ChIJ_57YMPjmLBMR53SE-w69kgc",
    "name": "Termoidroclimasol di O. Abbinante",
    "category": "Termoidroclimasol di O. Abbinante",
    "formatted_address": "4,5(8)",
    "phone_number": "+390541615471",
    "source_url": "https://www.google.com/maps/place/Termoidroclimasol+di+O.+Abbinante/data=!4m7!3m6!1s0x132ce6f830d89eff:0x792bd0efb8474e7!8m2!3d43.9648968!4d12.6795101!16s%2Fg%2F11g6xwtsn0!19sChIJ_57YMPjmLBMR53SE-w69kgc?authuser=0&hl=tr&rclk=1",
    "website_url": "",
    "rating_text": "4,5",
    "stars": null,
    "number_of_reviews": null,
    "price_level": "",
    "open_hours": "",
    "extraction_timestamp": "2025-06-07T15:47:03.653Z",
    "source_name": "google",
    "source_query": "Irrigation Equipment",
    "source_country": "IT",
    "country": "Italy",
    "state": "Emilia-Romagna",
    "city": "Riccione"
  },
  {
    "source_id": "ChIJ9xEk2iznLBMR4cWPz_5sYHw",
    "name": "Sup Spiaggia 42 Riccione",
    "category": "Sup Spiaggia 42 Riccione",
    "formatted_address": "Su Sporları Ekipmanları Kiralama Hizmeti ·  · Via Michelangelo, 1324 saat açık · +39 333 386 2628",
    "phone_number": "+39333386262824",
    "source_url": "https://www.google.com/maps/place/Sup+Spiaggia+42+Riccione/data=!4m7!3m6!1s0x132ce72cda2411f7:0x7c606cfecf8fc5e1!8m2!3d43.993986!4d12.6745002!16s%2Fg%2F11lmj82_pl!19sChIJ9xEk2iznLBMR4cWPz_5sYHw?authuser=0&hl=tr&rclk=1",
    "website_url": "",
    "rating_text": "",
    "stars": null,
    "number_of_reviews": null,
    "price_level": "",
    "open_hours": "",
    "extraction_timestamp": "2025-06-07T15:47:03.653Z",
    "source_name": "google",
    "source_query": "Irrigation Equipment",
    "source_country": "IT",
    "country": "Italy",
    "state": "Emilia-Romagna",
    "city": "Riccione"
  },
  {
    "source_id": "ChIJ1Yqt2UTnLBMRchsdz4bKXos",
    "name": "Noble Art Tinteggiature e Cartongesso di Plantamura Michele",
    "category": "Noble Art Tinteggiature e Cartongesso di Plantamura Michele",
    "formatted_address": "5,0(71)",
    "phone_number": "+393803472872",
    "source_url": "https://www.google.com/maps/place/Noble+Art+Tinteggiature+e+Cartongesso+di+Plantamura+Michele/data=!4m7!3m6!1s0x132ce744d9ad8ad5:0x8b5eca86cf1d1b72!8m2!3d43.9855152!4d12.6635387!16s%2Fg%2F11h047m6ch!19sChIJ1Yqt2UTnLBMRchsdz4bKXos?authuser=0&hl=tr&rclk=1",
    "website_url": "",
    "rating_text": "5,0",
    "stars": null,
    "number_of_reviews": null,
    "price_level": "",
    "open_hours": "",
    "extraction_timestamp": "2025-06-07T15:47:03.654Z",
    "source_name": "google",
    "source_query": "Irrigation Equipment",
    "source_country": "IT",
    "country": "Italy",
    "state": "Emilia-Romagna",
    "city": "Riccione"
  },
  {
    "source_id": "ChIJGXrv8kbCLBMRYVKNK-e0RpI",
    "name": "Gruppo Aura",
    "category": "Gruppo Aura",
    "formatted_address": "4,7(30)",
    "phone_number": "+390541684090",
    "source_url": "https://www.google.com/maps/place/Gruppo+Aura/data=!4m7!3m6!1s0x132cc246f2ef7a19:0x9246b4e72b8d5261!8m2!3d44.0328713!4d12.5569048!16s%2Fg%2F11gdtnphds!19sChIJGXrv8kbCLBMRYVKNK-e0RpI?authuser=0&hl=tr&rclk=1",
    "website_url": "",
    "rating_text": "4,7",
    "stars": null,
    "number_of_reviews": null,
    "price_level": "",
    "open_hours": "",
    "extraction_timestamp": "2025-06-07T15:47:03.654Z",
    "source_name": "google",
    "source_query": "Irrigation Equipment",
    "source_country": "IT",
    "country": "Italy",
    "state": "Emilia-Romagna",
    "city": "Riccione"
  }
]
