[
  {
    "source_id": "ChIJ9X_DI6LDLBMR84MeChQNUCU",
    "name": "Irriverde - Il Paesaggio S.r.l.",
    "category": "Irriverde - Il Paesaggio S.r.l.",
    "formatted_address": "4,8(15)",
    "phone_number": "+393939275801",
    "source_url": "https://www.google.com/maps/place/Irriverde+-+Il+Paesaggio+S.r.l./data=!4m7!3m6!1s0x132cc3a223c37ff5:0x25500d140a1e83f3!8m2!3d43.982224!4d12.5281091!16s%2Fg%2F1ptz65rjr!19sChIJ9X_DI6LDLBMR84MeChQNUCU?authuser=0&hl=tr&rclk=1",
    "website_url": "",
    "rating_text": "4,8",
    "stars": null,
    "number_of_reviews": null,
    "price_level": "",
    "open_hours": "",
    "extraction_timestamp": "2025-06-07T16:21:49.633Z",
    "source_name": "google",
    "source_query": "Irrigation Equipment",
    "source_country": "IT",
    "country": "Italy",
    "state": "Emilia-Romagna",
    "city": "Rimini"
  },
  {
    "source_id": "ChIJ-4ZMln7DLBMRQB82ZjBU0gQ",
    "name": "Tecnomat",
    "category": "Tecnomat",
    "formatted_address": "4,6(1.345)",
    "phone_number": "+390283905463",
    "source_url": "https://www.google.com/maps/place/Tecnomat/data=!4m7!3m6!1s0x132cc37e964c86fb:0x4d2543066361f40!8m2!3d44.037535!4d12.5906277!16s%2Fg%2F11s5mnbpp0!19sChIJ-4ZMln7DLBMRQB82ZjBU0gQ?authuser=0&hl=tr&rclk=1",
    "website_url": "",
    "rating_text": "4,6",
    "stars": null,
    "number_of_reviews": null,
    "price_level": "",
    "open_hours": "",
    "extraction_timestamp": "2025-06-07T16:21:49.640Z",
    "source_name": "google",
    "source_query": "Irrigation Equipment",
    "source_country": "IT",
    "country": "Italy",
    "state": "Emilia-Romagna",
    "city": "Rimini"
  },
  {
    "source_id": "ChIJAYXyH7PDLBMR8HxGCqIVtvQ",
    "name": "Elettromeccanica Muccioli",
    "category": "Elettromeccanica Muccioli",
    "formatted_address": "4,6(66)",
    "phone_number": "+390541770283",
    "source_url": "https://www.google.com/maps/place/Elettromeccanica+Muccioli/data=!4m7!3m6!1s0x132cc3b31ff28501:0xf4b615a20a467cf0!8m2!3d44.0454954!4d12.5612467!16s%2Fg%2F11bvv_3dvg!19sChIJAYXyH7PDLBMR8HxGCqIVtvQ?authuser=0&hl=tr&rclk=1",
    "website_url": "",
    "rating_text": "4,6",
    "stars": null,
    "number_of_reviews": null,
    "price_level": "",
    "open_hours": "",
    "extraction_timestamp": "2025-06-07T16:21:49.642Z",
    "source_name": "google",
    "source_query": "Irrigation Equipment",
    "source_country": "IT",
    "country": "Italy",
    "state": "Emilia-Romagna",
    "city": "Rimini"
  },
  {
    "source_id": "ChIJg97fK17BLBMRF2MZLGHlykE",
    "name": "Grundfos Water Treatment Italy – Filiale di Rimini",
    "category": "Grundfos Water Treatment Italy – Filiale di Rimini",
    "formatted_address": "1,9(11)",
    "phone_number": "",
    "source_url": "https://www.google.com/maps/place/Grundfos+Water+Treatment+Italy+%E2%80%93+Filiale+di+Rimini/data=!4m7!3m6!1s0x132cc15e2bdfde83:0x41cae5612c196317!8m2!3d44.0655296!4d12.5297718!16s%2Fg%2F12hk8ktj6!19sChIJg97fK17BLBMRF2MZLGHlykE?authuser=0&hl=tr&rclk=1",
    "website_url": "",
    "rating_text": "1,9",
    "stars": null,
    "number_of_reviews": null,
    "price_level": "",
    "open_hours": "",
    "extraction_timestamp": "2025-06-07T16:21:49.666Z",
    "source_name": "google",
    "source_query": "Irrigation Equipment",
    "source_country": "IT",
    "country": "Italy",
    "state": "Emilia-Romagna",
    "city": "Rimini"
  },
  {
    "source_id": "ChIJM-j6YLXDLBMR753Gtnk2KZQ",
    "name": "F.lli Franchini Srl",
    "category": "F.lli Franchini Srl",
    "formatted_address": "4,9(7)",
    "phone_number": "+390541796311",
    "source_url": "https://www.google.com/maps/place/F.lli+Franchini+Srl/data=!4m7!3m6!1s0x132cc3b560fae833:0x94293679b6c69def!8m2!3d44.0469789!4d12.5523828!16s%2Fg%2F1wjwxrvf!19sChIJM-j6YLXDLBMR753Gtnk2KZQ?authuser=0&hl=tr&rclk=1",
    "website_url": "",
    "rating_text": "4,9",
    "stars": null,
    "number_of_reviews": null,
    "price_level": "",
    "open_hours": "",
    "extraction_timestamp": "2025-06-07T16:21:49.667Z",
    "source_name": "google",
    "source_query": "Irrigation Equipment",
    "source_country": "IT",
    "country": "Italy",
    "state": "Emilia-Romagna",
    "city": "Rimini"
  },
  {
    "source_id": "ChIJcaCgKR3DLBMR6aiQJZPonjI",
    "name": "Idro Romagnola Placucci",
    "category": "Idro Romagnola Placucci",
    "formatted_address": "4,5(50)",
    "phone_number": "+390541384209",
    "source_url": "https://www.google.com/maps/place/Idro+Romagnola+Placucci/data=!4m7!3m6!1s0x132cc31d29a0a071:0x329ee8932590a8e9!8m2!3d44.0432772!4d12.5881413!16s%2Fg%2F1tf04lv8!19sChIJcaCgKR3DLBMR6aiQJZPonjI?authuser=0&hl=tr&rclk=1",
    "website_url": "",
    "rating_text": "4,5",
    "stars": null,
    "number_of_reviews": null,
    "price_level": "",
    "open_hours": "",
    "extraction_timestamp": "2025-06-07T16:21:49.669Z",
    "source_name": "google",
    "source_query": "Irrigation Equipment",
    "source_country": "IT",
    "country": "Italy",
    "state": "Emilia-Romagna",
    "city": "Rimini"
  },
  {
    "source_id": "ChIJSWycMrTDLBMRzCN117uwl-8",
    "name": "Valloni - Robot Tagliaerba",
    "category": "Valloni - Robot Tagliaerba",
    "formatted_address": "4,4(14)",
    "phone_number": "+393395345636",
    "source_url": "https://www.google.com/maps/place/Valloni+-+Robot+Tagliaerba/data=!4m7!3m6!1s0x132cc3b4329c6c49:0xef97b0bbd77523cc!8m2!3d44.0488846!4d12.5555086!16s%2Fg%2F1hc1s1bp4!19sChIJSWycMrTDLBMRzCN117uwl-8?authuser=0&hl=tr&rclk=1",
    "website_url": "",
    "rating_text": "4,4",
    "stars": null,
    "number_of_reviews": null,
    "price_level": "",
    "open_hours": "",
    "extraction_timestamp": "2025-06-07T16:21:49.670Z",
    "source_name": "google",
    "source_query": "Irrigation Equipment",
    "source_country": "IT",
    "country": "Italy",
    "state": "Emilia-Romagna",
    "city": "Rimini"
  },
  {
    "source_id": "ChIJf_vtTpnDLBMRG2ahYoGJFVE",
    "name": "waterworks di Colonna Aldo & Pironi Marco s.n.c.",
    "category": "waterworks di Colonna Aldo & Pironi Marco s.n.c.",
    "formatted_address": "5,0(3)",
    "phone_number": "+393939556511",
    "source_url": "https://www.google.com/maps/place/waterworks+di+Colonna+Aldo+%26+Pironi+Marco+s.n.c./data=!4m7!3m6!1s0x132cc3994eedfb7f:0x5115898162a1661b!8m2!3d44.066126!4d12.5695944!16s%2Fg%2F1pp2wz26f!19sChIJf_vtTpnDLBMRG2ahYoGJFVE?authuser=0&hl=tr&rclk=1",
    "website_url": "",
    "rating_text": "5,0",
    "stars": null,
    "number_of_reviews": null,
    "price_level": "",
    "open_hours": "",
    "extraction_timestamp": "2025-06-07T16:21:49.672Z",
    "source_name": "google",
    "source_query": "Irrigation Equipment",
    "source_country": "IT",
    "country": "Italy",
    "state": "Emilia-Romagna",
    "city": "Rimini"
  },
  {
    "source_id": "ChIJy4AVn9C-LBMRn6nsnuZl82A",
    "name": "Ramilli Irrigazioni S.R.L.",
    "category": "Ramilli Irrigazioni S.R.L.",
    "formatted_address": "4,3(52)",
    "phone_number": "+390541945335",
    "source_url": "https://www.google.com/maps/place/Ramilli+Irrigazioni+S.R.L./data=!4m7!3m6!1s0x132cbed09f1580cb:0x60f365e69eeca99f!8m2!3d44.0923156!4d12.3843691!16s%2Fg%2F1ts2ls1r!19sChIJy4AVn9C-LBMRn6nsnuZl82A?authuser=0&hl=tr&rclk=1",
    "website_url": "",
    "rating_text": "4,3",
    "stars": null,
    "number_of_reviews": null,
    "price_level": "",
    "open_hours": "",
    "extraction_timestamp": "2025-06-07T16:21:49.673Z",
    "source_name": "google",
    "source_query": "Irrigation Equipment",
    "source_country": "IT",
    "country": "Italy",
    "state": "Emilia-Romagna",
    "city": "Rimini"
  },
  {
    "source_id": "ChIJHSMA_EvCLBMRUtBlMXyKacg",
    "name": "Idros.art & Bozzola Group S.p.A.",
    "category": "Idros.art & Bozzola Group S.p.A.",
    "formatted_address": "5,0(4)",
    "phone_number": "+390541787368",
    "source_url": "https://www.google.com/maps/place/Idros.art+%26+Bozzola+Group+S.p.A./data=!4m7!3m6!1s0x132cc24bfc00231d:0xc8698a7c3165d052!8m2!3d44.0402268!4d12.5581256!16s%2Fg%2F11b7q649tm!19sChIJHSMA_EvCLBMRUtBlMXyKacg?authuser=0&hl=tr&rclk=1",
    "website_url": "",
    "rating_text": "5,0",
    "stars": null,
    "number_of_reviews": null,
    "price_level": "",
    "open_hours": "",
    "extraction_timestamp": "2025-06-07T16:21:49.674Z",
    "source_name": "google",
    "source_query": "Irrigation Equipment",
    "source_country": "IT",
    "country": "Italy",
    "state": "Emilia-Romagna",
    "city": "Rimini"
  },
  {
    "source_id": "ChIJXymBuR3ALBMRASFJw1zn8-o",
    "name": "Techwater S.r.l. - Impianti trattamento acque",
    "category": "Techwater S.r.l. - Impianti trattamento acque",
    "formatted_address": "5,0(4)",
    "phone_number": "+390541758444",
    "source_url": "https://www.google.com/maps/place/Techwater+S.r.l.+-+Impianti+trattamento+acque/data=!4m7!3m6!1s0x132cc01db981295f:0xeaf3e75cc3492101!8m2!3d44.02023!4d12.453504!16s%2Fg%2F1tg3d6rp!19sChIJXymBuR3ALBMRASFJw1zn8-o?authuser=0&hl=tr&rclk=1",
    "website_url": "",
    "rating_text": "5,0",
    "stars": null,
    "number_of_reviews": null,
    "price_level": "",
    "open_hours": "",
    "extraction_timestamp": "2025-06-07T16:21:49.675Z",
    "source_name": "google",
    "source_query": "Irrigation Equipment",
    "source_country": "IT",
    "country": "Italy",
    "state": "Emilia-Romagna",
    "city": "Rimini"
  },
  {
    "source_id": "ChIJWeKNqf7CLBMRl89w9_KFXmM",
    "name": "ML Group - Rimini",
    "category": "ML Group - Rimini",
    "formatted_address": "4,0(66)",
    "phone_number": "+390541309311",
    "source_url": "https://www.google.com/maps/place/ML+Group+-+Rimini/data=!4m7!3m6!1s0x132cc2fea98de259:0x635e85f2f770cf97!8m2!3d44.0284813!4d12.574543!16s%2Fg%2F1tg97xmq!19sChIJWeKNqf7CLBMRl89w9_KFXmM?authuser=0&hl=tr&rclk=1",
    "website_url": "",
    "rating_text": "4,0",
    "stars": null,
    "number_of_reviews": null,
    "price_level": "",
    "open_hours": "",
    "extraction_timestamp": "2025-06-07T16:21:49.676Z",
    "source_name": "google",
    "source_query": "Irrigation Equipment",
    "source_country": "IT",
    "country": "Italy",
    "state": "Emilia-Romagna",
    "city": "Rimini"
  },
  {
    "source_id": "ChIJO77SNtfDLBMRrODulN1PwSQ",
    "name": "Idealtherm Di Bascucci Gianluca E C Sas",
    "category": "Idealtherm Di Bascucci Gianluca E C Sas",
    "formatted_address": "3,6(9)",
    "phone_number": "+390541726109",
    "source_url": "https://www.google.com/maps/place/Idealtherm+Di+Bascucci+Gianluca+E+C+Sas/data=!4m7!3m6!1s0x132cc3d736d2be3b:0x24c14fdd94eee0ac!8m2!3d44.0559302!4d12.5349229!16s%2Fg%2F1tdlqxtz!19sChIJO77SNtfDLBMRrODulN1PwSQ?authuser=0&hl=tr&rclk=1",
    "website_url": "",
    "rating_text": "3,6",
    "stars": null,
    "number_of_reviews": null,
    "price_level": "",
    "open_hours": "",
    "extraction_timestamp": "2025-06-07T16:21:49.678Z",
    "source_name": "google",
    "source_query": "Irrigation Equipment",
    "source_country": "IT",
    "country": "Italy",
    "state": "Emilia-Romagna",
    "city": "Rimini"
  },
  {
    "source_id": "ChIJAekqCcvDLBMRFevQys-pghA",
    "name": "Cambielli S.p.A.",
    "category": "Cambielli S.p.A.",
    "formatted_address": "4,0(27)",
    "phone_number": "+390541799411",
    "source_url": "https://www.google.com/maps/place/Cambielli+S.p.A./data=!4m7!3m6!1s0x132cc3cb092ae901:0x1082a9cfcad0eb15!8m2!3d44.0478381!4d12.5485539!16s%2Fg%2F1td8vfx6!19sChIJAekqCcvDLBMRFevQys-pghA?authuser=0&hl=tr&rclk=1",
    "website_url": "",
    "rating_text": "4,0",
    "stars": null,
    "number_of_reviews": null,
    "price_level": "",
    "open_hours": "",
    "extraction_timestamp": "2025-06-07T16:21:49.679Z",
    "source_name": "google",
    "source_query": "Irrigation Equipment",
    "source_country": "IT",
    "country": "Italy",
    "state": "Emilia-Romagna",
    "city": "Rimini"
  },
  {
    "source_id": "ChIJ8c-TeNPDLBMRB4h_2Z8woW0",
    "name": "Clima Acque S.R.L.",
    "category": "Clima Acque S.R.L.",
    "formatted_address": "3,4(5)",
    "phone_number": "+390541309368",
    "source_url": "https://www.google.com/maps/place/Clima+Acque+S.R.L./data=!4m7!3m6!1s0x132cc3d37893cff1:0x6da1309fd97f8807!8m2!3d44.0284813!4d12.574543!16s%2Fg%2F11h75pxtb6!19sChIJ8c-TeNPDLBMRB4h_2Z8woW0?authuser=0&hl=tr&rclk=1",
    "website_url": "",
    "rating_text": "3,4",
    "stars": null,
    "number_of_reviews": null,
    "price_level": "",
    "open_hours": "",
    "extraction_timestamp": "2025-06-07T16:21:49.680Z",
    "source_name": "google",
    "source_query": "Irrigation Equipment",
    "source_country": "IT",
    "country": "Italy",
    "state": "Emilia-Romagna",
    "city": "Rimini"
  },
  {
    "source_id": "ChIJG4WVsNPCLBMRbwIFqTOGtws",
    "name": "Ferramenta Adriatica - ToolShop.it",
    "category": "Ferramenta Adriatica - ToolShop.it",
    "formatted_address": "4,6(81)",
    "phone_number": "+390541373430",
    "source_url": "https://www.google.com/maps/place/Ferramenta+Adriatica+-+ToolShop.it/data=!4m7!3m6!1s0x132cc2d3b095851b:0xbb78633a905026f!8m2!3d44.0313719!4d12.6178288!16s%2Fg%2F11b6hz0tjl!19sChIJG4WVsNPCLBMRbwIFqTOGtws?authuser=0&hl=tr&rclk=1",
    "website_url": "",
    "rating_text": "4,6",
    "stars": null,
    "number_of_reviews": null,
    "price_level": "",
    "open_hours": "",
    "extraction_timestamp": "2025-06-07T16:21:49.681Z",
    "source_name": "google",
    "source_query": "Irrigation Equipment",
    "source_country": "IT",
    "country": "Italy",
    "state": "Emilia-Romagna",
    "city": "Rimini"
  },
  {
    "source_id": "ChIJXfxKMu_DLBMRygJyqB8yw3o",
    "name": "Mari - s.r.l.",
    "category": "Mari - s.r.l.",
    "formatted_address": "4,6(12)",
    "phone_number": "+390541743331",
    "source_url": "https://www.google.com/maps/place/Mari+-+s.r.l./data=!4m7!3m6!1s0x132cc3ef324afc5d:0x7ac3321fa87202ca!8m2!3d44.0702425!4d12.5429138!16s%2Fg%2F1tdr5ffb!19sChIJXfxKMu_DLBMRygJyqB8yw3o?authuser=0&hl=tr&rclk=1",
    "website_url": "",
    "rating_text": "4,6",
    "stars": null,
    "number_of_reviews": null,
    "price_level": "",
    "open_hours": "",
    "extraction_timestamp": "2025-06-07T16:21:49.683Z",
    "source_name": "google",
    "source_query": "Irrigation Equipment",
    "source_country": "IT",
    "country": "Italy",
    "state": "Emilia-Romagna",
    "city": "Rimini"
  },
  {
    "source_id": "ChIJ-3oY3lfBLBMRxL5hRXFsTxo",
    "name": "IM Impianti - Maioli Impianti - Idraulico Rimini",
    "category": "IM Impianti - Maioli Impianti - Idraulico Rimini",
    "formatted_address": "3,8(19)",
    "phone_number": "+393355970962",
    "source_url": "https://www.google.com/maps/place/IM+Impianti+-+Maioli+Impianti+-+Idraulico+Rimini/data=!4m7!3m6!1s0x132cc157de187afb:0x1a4f6c714561bec4!8m2!3d44.0771365!4d12.5293476!16s%2Fg%2F12hl3mxbl!19sChIJ-3oY3lfBLBMRxL5hRXFsTxo?authuser=0&hl=tr&rclk=1",
    "website_url": "",
    "rating_text": "3,8",
    "stars": null,
    "number_of_reviews": null,
    "price_level": "",
    "open_hours": "",
    "extraction_timestamp": "2025-06-07T16:21:49.684Z",
    "source_name": "google",
    "source_query": "Irrigation Equipment",
    "source_country": "IT",
    "country": "Italy",
    "state": "Emilia-Romagna",
    "city": "Rimini"
  },
  {
    "source_id": "ChIJl1BsxrjDLBMR9crOYMTw7gA",
    "name": "Gecosistema Srl",
    "category": "Gecosistema Srl",
    "formatted_address": "5,0(1)",
    "phone_number": "+393396843323",
    "source_url": "https://www.google.com/maps/place/Gecosistema+Srl/data=!4m7!3m6!1s0x132cc3b8c66c5097:0xeef0c460cecaf5!8m2!3d44.0683888!4d12.5426714!16s%2Fg%2F11mts0pbrf!19sChIJl1BsxrjDLBMR9crOYMTw7gA?authuser=0&hl=tr&rclk=1",
    "website_url": "",
    "rating_text": "5,0",
    "stars": null,
    "number_of_reviews": null,
    "price_level": "",
    "open_hours": "",
    "extraction_timestamp": "2025-06-07T16:21:49.685Z",
    "source_name": "google",
    "source_query": "Irrigation Equipment",
    "source_country": "IT",
    "country": "Italy",
    "state": "Emilia-Romagna",
    "city": "Rimini"
  },
  {
    "source_id": "ChIJ34hsm87DLBMRpIZQORvyL6E",
    "name": "F.I.R. DI PROPERZI VITTORIO",
    "category": "F.I.R. DI PROPERZI VITTORIO",
    "formatted_address": "4,4(32)",
    "phone_number": "+390541772298",
    "source_url": "https://www.google.com/maps/place/F.I.R.+DI+PROPERZI+VITTORIO/data=!4m7!3m6!1s0x132cc3ce9b6c88df:0xa12ff21b395086a4!8m2!3d44.0509872!4d12.5448958!16s%2Fg%2F12hk17r6w!19sChIJ34hsm87DLBMRpIZQORvyL6E?authuser=0&hl=tr&rclk=1",
    "website_url": "",
    "rating_text": "4,4",
    "stars": null,
    "number_of_reviews": null,
    "price_level": "",
    "open_hours": "",
    "extraction_timestamp": "2025-06-07T16:21:49.686Z",
    "source_name": "google",
    "source_query": "Irrigation Equipment",
    "source_country": "IT",
    "country": "Italy",
    "state": "Emilia-Romagna",
    "city": "Rimini"
  }
]
