[
  {
    "source_id": "ChIJ8wuAynKLf0cRbXiqE9xGVHM",
    "name": "CERMAG S.p.A. | Ricambi macchine agricole e giardinaggio | More than spare parts",
    "category": "CERMAG S.p.A. | Ricambi macchine agricole e giardinaggio | More than spare parts",
    "formatted_address": "4,5(93)",
    "phone_number": "+390522649199",
    "source_url": "https://www.google.com/maps/place/CERMAG+S.p.A.+%7C+Ricambi+macchine+agricole+e+giardinaggio+%7C+More+than+spare+parts/data=!4m7!3m6!1s0x477f8b72ca800bf3:0x735446dc13aa786d!8m2!3d44.8157541!4d10.8085657!16s%2Fg%2F11b6hxzykx!19sChIJ8wuAynKLf0cRbXiqE9xGVHM?authuser=0&hl=tr&rclk=1",
    "website_url": "https://ordini.cermag.com/",
    "rating_text": "4,5",
    "stars": null,
    "number_of_reviews": null,
    "price_level": "",
    "open_hours": "",
    "extraction_timestamp": "2025-06-07T15:47:23.384Z",
    "source_name": "google",
    "source_query": "Irrigation Equipment",
    "source_country": "IT",
    "country": "Italy",
    "state": "Emilia-Romagna",
    "city": "Rio Saliceto"
  },
  {
    "source_id": "ChIJNxmt4A6Lf0cR3eziXSHrUGA",
    "name": "Fert-Company",
    "category": "Fert-Company",
    "formatted_address": "4,2(13)",
    "phone_number": "+390522649280",
    "source_url": "https://www.google.com/maps/place/Fert-Company/data=!4m7!3m6!1s0x477f8b0ee0ad1937:0x6050eb215de2ecdd!8m2!3d44.8182065!4d10.8057437!16s%2Fg%2F11h1r3rfn!19sChIJNxmt4A6Lf0cR3eziXSHrUGA?authuser=0&hl=tr&rclk=1",
    "website_url": "",
    "rating_text": "4,2",
    "stars": null,
    "number_of_reviews": null,
    "price_level": "",
    "open_hours": "",
    "extraction_timestamp": "2025-06-07T15:47:23.386Z",
    "source_name": "google",
    "source_query": "Irrigation Equipment",
    "source_country": "IT",
    "country": "Italy",
    "state": "Emilia-Romagna",
    "city": "Rio Saliceto"
  },
  {
    "source_id": "ChIJ_cRE5m6Lf0cRrA7eLa9fu3w",
    "name": "GGE srl - Impianti di aspirazione e filtrazione aria",
    "category": "GGE srl - Impianti di aspirazione e filtrazione aria",
    "formatted_address": "4,9(85)",
    "phone_number": "+390522738411",
    "source_url": "https://www.google.com/maps/place/GGE+srl+-+Impianti+di+aspirazione+e+filtrazione+aria/data=!4m7!3m6!1s0x477f8b6ee644c4fd:0x7cbb5faf2dde0eac!8m2!3d44.8095677!4d10.8153333!16s%2Fg%2F1tfxfjfv!19sChIJ_cRE5m6Lf0cRrA7eLa9fu3w?authuser=0&hl=tr&rclk=1",
    "website_url": "http://www.gge.eu/",
    "rating_text": "4,9",
    "stars": null,
    "number_of_reviews": null,
    "price_level": "",
    "open_hours": "",
    "extraction_timestamp": "2025-06-07T15:47:23.388Z",
    "source_name": "google",
    "source_query": "Irrigation Equipment",
    "source_country": "IT",
    "country": "Italy",
    "state": "Emilia-Romagna",
    "city": "Rio Saliceto"
  },
  {
    "source_id": "ChIJMfhw72uLf0cRxtQtcCp0h8o",
    "name": "Annovi E Gasparini Srl",
    "category": "Annovi E Gasparini Srl",
    "formatted_address": "4,4(23)",
    "phone_number": "+390522699854",
    "source_url": "https://www.google.com/maps/place/Annovi+E+Gasparini+Srl/data=!4m7!3m6!1s0x477f8b6bef70f831:0xca87742a702dd4c6!8m2!3d44.8089408!4d10.810317!16s%2Fg%2F1tkksqd0!19sChIJMfhw72uLf0cRxtQtcCp0h8o?authuser=0&hl=tr&rclk=1",
    "website_url": "",
    "rating_text": "4,4",
    "stars": null,
    "number_of_reviews": null,
    "price_level": "",
    "open_hours": "",
    "extraction_timestamp": "2025-06-07T15:47:23.390Z",
    "source_name": "google",
    "source_query": "Irrigation Equipment",
    "source_country": "IT",
    "country": "Italy",
    "state": "Emilia-Romagna",
    "city": "Rio Saliceto"
  },
  {
    "source_id": "ChIJAcsK30Lzf0cRaTFJPma9CoA",
    "name": "G.F. Srl - Enjoy the garden",
    "category": "G.F. Srl - Enjoy the garden",
    "formatted_address": "4,1(9)",
    "phone_number": "+390522637311",
    "source_url": "https://www.google.com/maps/place/G.F.+Srl+-+Enjoy+the+garden/data=!4m7!3m6!1s0x477ff342df0acb01:0x800abd663e493169!8m2!3d44.7681164!4d10.8260182!16s%2Fg%2F12mm851w6!19sChIJAcsK30Lzf0cRaTFJPma9CoA?authuser=0&hl=tr&rclk=1",
    "website_url": "http://www.gfgarden.it/",
    "rating_text": "4,1",
    "stars": null,
    "number_of_reviews": null,
    "price_level": "",
    "open_hours": "",
    "extraction_timestamp": "2025-06-07T15:47:23.392Z",
    "source_name": "google",
    "source_query": "Irrigation Equipment",
    "source_country": "IT",
    "country": "Italy",
    "state": "Emilia-Romagna",
    "city": "Rio Saliceto"
  },
  {
    "source_id": "ChIJxXsgrBKLf0cRJ6ekcKmc38Q",
    "name": "All - Mec S.r.l.",
    "category": "All - Mec S.r.l.",
    "formatted_address": "3,0(2)",
    "phone_number": "+390522648020",
    "source_url": "https://www.google.com/maps/place/All+-+Mec+S.r.l./data=!4m7!3m6!1s0x477f8b12ac207bc5:0xc4df9ca970a4a727!8m2!3d44.8133044!4d10.8067335!16s%2Fg%2F1tk1lvbm!19sChIJxXsgrBKLf0cRJ6ekcKmc38Q?authuser=0&hl=tr&rclk=1",
    "website_url": "https://www.ai-mec.com/",
    "rating_text": "3,0",
    "stars": null,
    "number_of_reviews": null,
    "price_level": "",
    "open_hours": "",
    "extraction_timestamp": "2025-06-07T15:47:23.394Z",
    "source_name": "google",
    "source_query": "Irrigation Equipment",
    "source_country": "IT",
    "country": "Italy",
    "state": "Emilia-Romagna",
    "city": "Rio Saliceto"
  },
  {
    "source_id": "ChIJB77FNmyLf0cRcUJhEm2ClWE",
    "name": "F.lli Dotti",
    "category": "F.lli Dotti",
    "formatted_address": "4,9(21)",
    "phone_number": "+390522699574",
    "source_url": "https://www.google.com/maps/place/F.lli+Dotti/data=!4m7!3m6!1s0x477f8b6c36c5be07:0x6195826d12614271!8m2!3d44.8120304!4d10.8093342!16s%2Fg%2F1hc4wp_c1!19sChIJB77FNmyLf0cRcUJhEm2ClWE?authuser=0&hl=tr&rclk=1",
    "website_url": "https://www.cercatrovaonline.it/it/inserzione-ricerca/flli-dotti-snc",
    "rating_text": "4,9",
    "stars": null,
    "number_of_reviews": null,
    "price_level": "",
    "open_hours": "",
    "extraction_timestamp": "2025-06-07T15:47:23.404Z",
    "source_name": "google",
    "source_query": "Irrigation Equipment",
    "source_country": "IT",
    "country": "Italy",
    "state": "Emilia-Romagna",
    "city": "Rio Saliceto"
  },
  {
    "source_id": "ChIJGzc_hxKLf0cRj4apweuIy64",
    "name": "Longhi Giovanni e Loris - Perforazione Pozzi",
    "category": "Longhi Giovanni e Loris - Perforazione Pozzi",
    "formatted_address": "3,7(3)",
    "phone_number": "+390522649540",
    "source_url": "https://www.google.com/maps/place/Longhi+Giovanni+e+Loris+-+Perforazione+Pozzi/data=!4m7!3m6!1s0x477f8b12873f371b:0xaecb88ebc1a9868f!8m2!3d44.8146705!4d10.8045376!16s%2Fg%2F1tg_8b20!19sChIJGzc_hxKLf0cRj4apweuIy64?authuser=0&hl=tr&rclk=1",
    "website_url": "http://www.longhigiovannieloris.it/",
    "rating_text": "3,7",
    "stars": null,
    "number_of_reviews": null,
    "price_level": "",
    "open_hours": "",
    "extraction_timestamp": "2025-06-07T15:47:23.405Z",
    "source_name": "google",
    "source_query": "Irrigation Equipment",
    "source_country": "IT",
    "country": "Italy",
    "state": "Emilia-Romagna",
    "city": "Rio Saliceto"
  },
  {
    "source_id": "ChIJcQG6ul7df0cR3VxKiu5OPBs",
    "name": "Scova Impianti Srl",
    "category": "Scova Impianti Srl",
    "formatted_address": "4,5(64)",
    "phone_number": "+39059923202",
    "source_url": "https://www.google.com/maps/place/Scova+Impianti+Srl/data=!4m7!3m6!1s0x477fdd5ebaba0171:0x1b3c4eee8a4a5cdd!8m2!3d44.6018135!4d11.032294!16s%2Fg%2F1tfzwbfb!19sChIJcQG6ul7df0cR3VxKiu5OPBs?authuser=0&hl=tr&rclk=1",
    "website_url": "https://www.scovaimpianti.com/",
    "rating_text": "4,5",
    "stars": null,
    "number_of_reviews": null,
    "price_level": "",
    "open_hours": "",
    "extraction_timestamp": "2025-06-07T15:47:23.407Z",
    "source_name": "google",
    "source_query": "Irrigation Equipment",
    "source_country": "IT",
    "country": "Italy",
    "state": "Emilia-Romagna",
    "city": "Rio Saliceto"
  },
  {
    "source_id": "ChIJtzLXV34mgEcR9sDfnfgzOxg",
    "name": "Sime Idromeccanica S.R.L.",
    "category": "Sime Idromeccanica S.R.L.",
    "formatted_address": "4,8(22)",
    "phone_number": "+390522824724",
    "source_url": "https://www.google.com/maps/place/Sime+Idromeccanica+S.R.L./data=!4m7!3m6!1s0x4780267e57d732b7:0x183b33f89ddfc0f6!8m2!3d44.8931121!4d10.6571392!16s%2Fg%2F1tx1s13m!19sChIJtzLXV34mgEcR9sDfnfgzOxg?authuser=0&hl=tr&rclk=1",
    "website_url": "",
    "rating_text": "4,8",
    "stars": null,
    "number_of_reviews": null,
    "price_level": "",
    "open_hours": "",
    "extraction_timestamp": "2025-06-07T15:47:23.408Z",
    "source_name": "google",
    "source_query": "Irrigation Equipment",
    "source_country": "IT",
    "country": "Italy",
    "state": "Emilia-Romagna",
    "city": "Rio Saliceto"
  },
  {
    "source_id": "ChIJq5e6TTv0f0cRe0lfkBwyQVE",
    "name": "Aqua Industrial Group",
    "category": "Aqua Industrial Group",
    "formatted_address": "3,5(10)",
    "phone_number": "+390522695805",
    "source_url": "https://www.google.com/maps/place/Aqua+Industrial+Group/data=!4m7!3m6!1s0x477ff43b4dba97ab:0x5141321c905f497b!8m2!3d44.7252141!4d10.7656823!16s%2Fg%2F1hc61vd63!19sChIJq5e6TTv0f0cRe0lfkBwyQVE?authuser=0&hl=tr&rclk=1",
    "website_url": "http://www.aqua.it/",
    "rating_text": "3,5",
    "stars": null,
    "number_of_reviews": null,
    "price_level": "",
    "open_hours": "",
    "extraction_timestamp": "2025-06-07T15:47:23.409Z",
    "source_name": "google",
    "source_query": "Irrigation Equipment",
    "source_country": "IT",
    "country": "Italy",
    "state": "Emilia-Romagna",
    "city": "Rio Saliceto"
  },
  {
    "source_id": "ChIJQyDw8N_0f0cRhE_m36C06SU",
    "name": "Irrigreen",
    "category": "Irrigreen",
    "formatted_address": "4,3(3)",
    "phone_number": "+390522642318",
    "source_url": "https://www.google.com/maps/place/Irrigreen/data=!4m7!3m6!1s0x477ff4dff0f02043:0x25e9b4a0dfe64f84!8m2!3d45.1836109!4d10.6267461!16s%2Fg%2F1tddwm9t!19sChIJQyDw8N_0f0cRhE_m36C06SU?authuser=0&hl=tr&rclk=1",
    "website_url": "http://www.irrigreen.it/",
    "rating_text": "4,3",
    "stars": null,
    "number_of_reviews": null,
    "price_level": "",
    "open_hours": "",
    "extraction_timestamp": "2025-06-07T15:47:23.410Z",
    "source_name": "google",
    "source_query": "Irrigation Equipment",
    "source_country": "IT",
    "country": "Italy",
    "state": "Emilia-Romagna",
    "city": "Rio Saliceto"
  },
  {
    "source_id": "ChIJ8S_H450fgEcRen1BwvkupIc",
    "name": "Agro-system Snc di Bassoli - Piscine e Macchine giardino - Reggio Emilia",
    "category": "Agro-system Snc di Bassoli - Piscine e Macchine giardino - Reggio Emilia",
    "formatted_address": "4,6(88)",
    "phone_number": "+390522954100",
    "source_url": "https://www.google.com/maps/place/Agro-system+Snc+di+Bassoli+-+Piscine+e+Macchine+giardino+-+Reggio+Emilia/data=!4m7!3m6!1s0x47801f9de3c72ff1:0x87a42ef9c2417d7a!8m2!3d44.797091!4d10.686568!16s%2Fg%2F1tfb5f45!19sChIJ8S_H450fgEcRen1BwvkupIc?authuser=0&hl=tr&rclk=1",
    "website_url": "https://agrosystem.info/",
    "rating_text": "4,6",
    "stars": null,
    "number_of_reviews": null,
    "price_level": "",
    "open_hours": "",
    "extraction_timestamp": "2025-06-07T15:47:23.411Z",
    "source_name": "google",
    "source_query": "Irrigation Equipment",
    "source_country": "IT",
    "country": "Italy",
    "state": "Emilia-Romagna",
    "city": "Rio Saliceto"
  },
  {
    "source_id": "ChIJm7-cMBw9GocRifWuZRJutqQ",
    "name": "Ondanomala Diving School ASD",
    "category": "Ondanomala Diving School ASD",
    "formatted_address": "5,0(48)",
    "phone_number": "+39389171344524",
    "source_url": "https://www.google.com/maps/place/Ondanomala+Diving+School+ASD/data=!4m7!3m6!1s0x871a3d1c309cbf9b:0xa4b66e1265aef589!8m2!3d44.8082644!4d10.8050294!16s%2Fg%2F11rw8yh8ql!19sChIJm7-cMBw9GocRifWuZRJutqQ?authuser=0&hl=tr&rclk=1",
    "website_url": "https://ondanomalascuba.it/",
    "rating_text": "5,0",
    "stars": null,
    "number_of_reviews": null,
    "price_level": "",
    "open_hours": "",
    "extraction_timestamp": "2025-06-07T15:47:23.412Z",
    "source_name": "google",
    "source_query": "Irrigation Equipment",
    "source_country": "IT",
    "country": "Italy",
    "state": "Emilia-Romagna",
    "city": "Rio Saliceto"
  },
  {
    "source_id": "ChIJRf8sYROLf0cRqUm2WZB9fZM",
    "name": "Ferramenta F.lli Bussei",
    "category": "Ferramenta F.lli Bussei",
    "formatted_address": "4,6(88)",
    "phone_number": "+390522699103",
    "source_url": "https://www.google.com/maps/place/Ferramenta+F.lli+Bussei/data=!4m7!3m6!1s0x477f8b13612cff45:0x937d7d9059b649a9!8m2!3d44.8107909!4d10.8044023!16s%2Fg%2F11b6jgxdbz!19sChIJRf8sYROLf0cRqUm2WZB9fZM?authuser=0&hl=tr&rclk=1",
    "website_url": "",
    "rating_text": "4,6",
    "stars": null,
    "number_of_reviews": null,
    "price_level": "",
    "open_hours": "",
    "extraction_timestamp": "2025-06-07T15:47:23.414Z",
    "source_name": "google",
    "source_query": "Irrigation Equipment",
    "source_country": "IT",
    "country": "Italy",
    "state": "Emilia-Romagna",
    "city": "Rio Saliceto"
  },
  {
    "source_id": "ChIJp4PEhhOLf0cRMQw0Vvx9TQo",
    "name": "Idrocal Impianti",
    "category": "Idrocal Impianti",
    "formatted_address": "2,8(5)",
    "phone_number": "+390522647006",
    "source_url": "https://www.google.com/maps/place/Idrocal+Impianti/data=!4m7!3m6!1s0x477f8b1386c483a7:0xa4d7dfc56340c31!8m2!3d44.8107315!4d10.8024001!16s%2Fg%2F1tf46_d0!19sChIJp4PEhhOLf0cRMQw0Vvx9TQo?authuser=0&hl=tr&rclk=1",
    "website_url": "https://www.idrocal.it/",
    "rating_text": "2,8",
    "stars": null,
    "number_of_reviews": null,
    "price_level": "",
    "open_hours": "",
    "extraction_timestamp": "2025-06-07T15:47:23.415Z",
    "source_name": "google",
    "source_query": "Irrigation Equipment",
    "source_country": "IT",
    "country": "Italy",
    "state": "Emilia-Romagna",
    "city": "Rio Saliceto"
  },
  {
    "source_id": "ChIJ-6Go57eLf0cRlzBaFzqv-es",
    "name": "Depuratore",
    "category": "Depuratore",
    "formatted_address": "Su Arıtma Tesisi · Via Fossatelli, 64",
    "phone_number": "",
    "source_url": "https://www.google.com/maps/place/Depuratore/data=!4m7!3m6!1s0x477f8bb7e7a8a1fb:0xebf9af3a175a3097!8m2!3d44.8172068!4d10.8095601!16s%2Fg%2F11r7dt6wzd!19sChIJ-6Go57eLf0cRlzBaFzqv-es?authuser=0&hl=tr&rclk=1",
    "website_url": "",
    "rating_text": "",
    "stars": null,
    "number_of_reviews": null,
    "price_level": "",
    "open_hours": "",
    "extraction_timestamp": "2025-06-07T15:47:23.416Z",
    "source_name": "google",
    "source_query": "Irrigation Equipment",
    "source_country": "IT",
    "country": "Italy",
    "state": "Emilia-Romagna",
    "city": "Rio Saliceto"
  }
]
