[
  {
    "source_id": "ChIJ9X_DI6LDLBMR84MeChQNUCU",
    "name": "Irriverde - Il Paesaggio S.r.l.",
    "category": "Irriverde - Il Paesaggio S.r.l.",
    "formatted_address": "4,8(15)",
    "phone_number": "+393939275801",
    "source_url": "https://www.google.com/maps/place/Irriverde+-+Il+Paesaggio+S.r.l./data=!4m7!3m6!1s0x132cc3a223c37ff5:0x25500d140a1e83f3!8m2!3d43.982224!4d12.5281091!16s%2Fg%2F1ptz65rjr!19sChIJ9X_DI6LDLBMR84MeChQNUCU?authuser=0&hl=tr&rclk=1",
    "website_url": "http://www.irriverde.it/",
    "rating_text": "4,8",
    "stars": null,
    "number_of_reviews": null,
    "price_level": "",
    "open_hours": "",
    "extraction_timestamp": "2025-06-07T15:52:49.189Z",
    "source_name": "google",
    "source_query": "Irrigation Equipment",
    "source_country": "IT",
    "country": "Italy",
    "state": "Emilia-Romagna",
    "city": "Rivazzurra"
  },
  {
    "source_id": "ChIJy4AVn9C-LBMRn6nsnuZl82A",
    "name": "Ramilli Irrigazioni S.R.L.",
    "category": "Ramilli Irrigazioni S.R.L.",
    "formatted_address": "4,3(52)",
    "phone_number": "+390541945335",
    "source_url": "https://www.google.com/maps/place/Ramilli+Irrigazioni+S.R.L./data=!4m7!3m6!1s0x132cbed09f1580cb:0x60f365e69eeca99f!8m2!3d44.0923156!4d12.3843691!16s%2Fg%2F1ts2ls1r!19sChIJy4AVn9C-LBMRn6nsnuZl82A?authuser=0&hl=tr&rclk=1",
    "website_url": "https://www.ramilli.it/",
    "rating_text": "4,3",
    "stars": null,
    "number_of_reviews": null,
    "price_level": "",
    "open_hours": "",
    "extraction_timestamp": "2025-06-07T15:52:49.190Z",
    "source_name": "google",
    "source_query": "Irrigation Equipment",
    "source_country": "IT",
    "country": "Italy",
    "state": "Emilia-Romagna",
    "city": "Rivazzurra"
  },
  {
    "source_id": "ChIJf_vtTpnDLBMRG2ahYoGJFVE",
    "name": "waterworks di Colonna Aldo & Pironi Marco s.n.c.",
    "category": "waterworks di Colonna Aldo & Pironi Marco s.n.c.",
    "formatted_address": "5,0(3)",
    "phone_number": "+393939556511",
    "source_url": "https://www.google.com/maps/place/waterworks+di+Colonna+Aldo+%26+Pironi+Marco+s.n.c./data=!4m7!3m6!1s0x132cc3994eedfb7f:0x5115898162a1661b!8m2!3d44.066126!4d12.5695944!16s%2Fg%2F1pp2wz26f!19sChIJf_vtTpnDLBMRG2ahYoGJFVE?authuser=0&hl=tr&rclk=1",
    "website_url": "",
    "rating_text": "5,0",
    "stars": null,
    "number_of_reviews": null,
    "price_level": "",
    "open_hours": "",
    "extraction_timestamp": "2025-06-07T15:52:49.190Z",
    "source_name": "google",
    "source_query": "Irrigation Equipment",
    "source_country": "IT",
    "country": "Italy",
    "state": "Emilia-Romagna",
    "city": "Rivazzurra"
  },
  {
    "source_id": "ChIJm7ItJNjCLBMRwI3dtC2fM7A",
    "name": "Ferramenta Migani dei F.lli Campagna Jacopo e Gioele S.N.C.",
    "category": "Ferramenta Migani dei F.lli Campagna Jacopo e Gioele S.N.C.",
    "formatted_address": "4,6(52)",
    "phone_number": "+390541373152",
    "source_url": "https://www.google.com/maps/place/Ferramenta+Migani+dei+F.lli+Campagna+Jacopo+e+Gioele+S.N.C./data=!4m7!3m6!1s0x132cc2d8242db29b:0xb0339f2db4dd8dc0!8m2!3d44.037346!4d12.6097519!16s%2Fg%2F1trlr7rg!19sChIJm7ItJNjCLBMRwI3dtC2fM7A?authuser=0&hl=tr&rclk=1",
    "website_url": "https://www.facebook.com/Ferramenta-Migani-flli-Campagna-Jacopo-e-Gioele-103142898549063/",
    "rating_text": "4,6",
    "stars": null,
    "number_of_reviews": null,
    "price_level": "",
    "open_hours": "",
    "extraction_timestamp": "2025-06-07T15:52:49.191Z",
    "source_name": "google",
    "source_query": "Irrigation Equipment",
    "source_country": "IT",
    "country": "Italy",
    "state": "Emilia-Romagna",
    "city": "Rivazzurra"
  }
]
