[
  {
    "source_id": "ChIJ-fEaeozAgEcRNSgMpLv4a24",
    "name": "Macchine Agricole Fontana Mauro",
    "category": "Macchine Agricole Fontana Mauro",
    "formatted_address": "4,0(42)",
    "phone_number": "+390523958262",
    "source_url": "https://www.google.com/maps/place/Macchine+Agricole+Fontana+Mauro/data=!4m7!3m6!1s0x4780c08c7a1af1f9:0x6e6bf8bba40c2835!8m2!3d44.92372!4d9.6053983!16s%2Fg%2F1hc12vth7!19sChIJ-fEaeozAgEcRNSgMpLv4a24?authuser=0&hl=tr&rclk=1",
    "website_url": "https://www.macchineagricolefontana.it/",
    "rating_text": "4,0",
    "stars": null,
    "number_of_reviews": null,
    "price_level": "",
    "open_hours": "",
    "extraction_timestamp": "2025-06-07T16:09:18.333Z",
    "source_name": "google",
    "source_query": "Irrigation Equipment",
    "source_country": "IT",
    "country": "Italy",
    "state": "Emilia-Romagna",
    "city": "Rivergaro"
  },
  {
    "source_id": "ChIJy805WcDcgEcRtmGWlwosXQc",
    "name": "IRRIMEC SRL",
    "category": "IRRIMEC SRL",
    "formatted_address": "4,5(90)",
    "phone_number": "+390523760441",
    "source_url": "https://www.google.com/maps/place/IRRIMEC+SRL/data=!4m7!3m6!1s0x4780dcc05939cdcb:0x75d2c0a979661b6!8m2!3d45.0612353!4d9.630829!16s%2Fg%2F1tdgt7d_!19sChIJy805WcDcgEcRtmGWlwosXQc?authuser=0&hl=tr&rclk=1",
    "website_url": "http://www.irrimec.com/",
    "rating_text": "4,5",
    "stars": null,
    "number_of_reviews": null,
    "price_level": "",
    "open_hours": "",
    "extraction_timestamp": "2025-06-07T16:09:18.333Z",
    "source_name": "google",
    "source_query": "Irrigation Equipment",
    "source_country": "IT",
    "country": "Italy",
    "state": "Emilia-Romagna",
    "city": "Rivergaro"
  },
  {
    "source_id": "ChIJlfKaqSlRfksRNvergECjVi8",
    "name": "Mannino Sistemi Trattamento Acqua",
    "category": "Mannino Sistemi Trattamento Acqua",
    "formatted_address": "4,8(16)",
    "phone_number": "+393505784936",
    "source_url": "https://www.google.com/maps/place/Mannino+Sistemi+Trattamento+Acqua/data=!4m7!3m6!1s0x4b7e5129a99af295:0x2f56a34080abf736!8m2!3d45.0422201!4d9.6981487!16s%2Fg%2F11q3q46xvv!19sChIJlfKaqSlRfksRNvergECjVi8?authuser=0&hl=tr&rclk=1",
    "website_url": "http://manninodepurazione.it/",
    "rating_text": "4,8",
    "stars": null,
    "number_of_reviews": null,
    "price_level": "",
    "open_hours": "",
    "extraction_timestamp": "2025-06-07T16:09:18.333Z",
    "source_name": "google",
    "source_query": "Irrigation Equipment",
    "source_country": "IT",
    "country": "Italy",
    "state": "Emilia-Romagna",
    "city": "Rivergaro"
  },
  {
    "source_id": "ChIJ9V7VUGIbEQ4Rd0H8gwcDqwk",
    "name": "Mannino Sistemi Trattamento Acqua",
    "category": "Mannino Sistemi Trattamento Acqua",
    "formatted_address": "3,7(3)",
    "phone_number": "+393505784936",
    "source_url": "https://www.google.com/maps/place/Mannino+Sistemi+Trattamento+Acqua/data=!4m7!3m6!1s0xe111b6250d55ef5:0x9ab030783fc4177!8m2!3d45.0422201!4d9.6981487!16s%2Fg%2F11s33q_spp!19sChIJ9V7VUGIbEQ4Rd0H8gwcDqwk?authuser=0&hl=tr&rclk=1",
    "website_url": "http://www.manninodepurazione.it/",
    "rating_text": "3,7",
    "stars": null,
    "number_of_reviews": null,
    "price_level": "",
    "open_hours": "",
    "extraction_timestamp": "2025-06-07T16:09:18.334Z",
    "source_name": "google",
    "source_query": "Irrigation Equipment",
    "source_country": "IT",
    "country": "Italy",
    "state": "Emilia-Romagna",
    "city": "Rivergaro"
  },
  {
    "source_id": "ChIJBUT9_L7BgEcRi7zOXqsf_XA",
    "name": "River Piscine",
    "category": "River Piscine",
    "formatted_address": "4,4(45)",
    "phone_number": "+390523952141",
    "source_url": "https://www.google.com/maps/place/River+Piscine/data=!4m7!3m6!1s0x4780c1befcfd4405:0x70fd1fab5ecebc8b!8m2!3d44.9473073!4d9.6364689!16s%2Fg%2F1tdj31nt!19sChIJBUT9_L7BgEcRi7zOXqsf_XA?authuser=0&hl=tr&rclk=1",
    "website_url": "http://www.riverpiscine.com/",
    "rating_text": "4,4",
    "stars": null,
    "number_of_reviews": null,
    "price_level": "",
    "open_hours": "",
    "extraction_timestamp": "2025-06-07T16:09:18.334Z",
    "source_name": "google",
    "source_query": "Irrigation Equipment",
    "source_country": "IT",
    "country": "Italy",
    "state": "Emilia-Romagna",
    "city": "Rivergaro"
  },
  {
    "source_id": "ChIJCdwQIfbNgEcRtWOzhvtW0iA",
    "name": "Agrimil Tech Srl",
    "category": "Agrimil Tech Srl",
    "formatted_address": "4,8(9)",
    "phone_number": "+390523849679",
    "source_url": "https://www.google.com/maps/place/Agrimil+Tech+Srl/data=!4m7!3m6!1s0x4780cdf62110dc09:0x20d256fb86b363b5!8m2!3d45.0556557!4d9.5030905!16s%2Fg%2F1tdf9z93!19sChIJCdwQIfbNgEcRtWOzhvtW0iA?authuser=0&hl=tr&rclk=1",
    "website_url": "http://www.agrimil.it/",
    "rating_text": "4,8",
    "stars": null,
    "number_of_reviews": null,
    "price_level": "",
    "open_hours": "",
    "extraction_timestamp": "2025-06-07T16:09:18.335Z",
    "source_name": "google",
    "source_query": "Irrigation Equipment",
    "source_country": "IT",
    "country": "Italy",
    "state": "Emilia-Romagna",
    "city": "Rivergaro"
  },
  {
    "source_id": "ChIJY73yN73BgEcRSEZX3xPltOI",
    "name": "Acqua park rivergaro",
    "category": "Acqua park rivergaro",
    "formatted_address": "3,7(19)",
    "phone_number": "",
    "source_url": "https://www.google.com/maps/place/Acqua+park+rivergaro/data=!4m7!3m6!1s0x4780c1bd37f2bd63:0xe2b4e513df574648!8m2!3d44.91944!4d9.5941612!16s%2Fg%2F11hzd05f6z!19sChIJY73yN73BgEcRSEZX3xPltOI?authuser=0&hl=tr&rclk=1",
    "website_url": "",
    "rating_text": "3,7",
    "stars": null,
    "number_of_reviews": null,
    "price_level": "",
    "open_hours": "",
    "extraction_timestamp": "2025-06-07T16:09:18.335Z",
    "source_name": "google",
    "source_query": "Irrigation Equipment",
    "source_country": "IT",
    "country": "Italy",
    "state": "Emilia-Romagna",
    "city": "Rivergaro"
  },
  {
    "source_id": "ChIJtVDkNgRFgEcRqc6umwWIJuI",
    "name": "Rm Spa",
    "category": "Rm Spa",
    "formatted_address": "4,6(81)",
    "phone_number": "+390521872321",
    "source_url": "https://www.google.com/maps/place/Rm+Spa/data=!4m7!3m6!1s0x4780450436e450b5:0xe22688059baecea9!8m2!3d44.9105406!4d10.2583785!16s%2Fg%2F12hl93byl!19sChIJtVDkNgRFgEcRqc6umwWIJuI?authuser=0&hl=tr&rclk=1",
    "website_url": "http://www.rmirrigation.com/",
    "rating_text": "4,6",
    "stars": null,
    "number_of_reviews": null,
    "price_level": "",
    "open_hours": "",
    "extraction_timestamp": "2025-06-07T16:09:18.335Z",
    "source_name": "google",
    "source_query": "Irrigation Equipment",
    "source_country": "IT",
    "country": "Italy",
    "state": "Emilia-Romagna",
    "city": "Rivergaro"
  },
  {
    "source_id": "ChIJAbC8x_TAgEcRs52vRfeoP0U",
    "name": "La Ferramenta Canevari",
    "category": "La Ferramenta Canevari",
    "formatted_address": "4,3(31)",
    "phone_number": "+393468886536",
    "source_url": "https://www.google.com/maps/place/La+Ferramenta+Canevari/data=!4m7!3m6!1s0x4780c0f4c7bcb001:0x453fa8f745af9db3!8m2!3d44.9146253!4d9.6004445!16s%2Fg%2F11f03w5fxy!19sChIJAbC8x_TAgEcRs52vRfeoP0U?authuser=0&hl=tr&rclk=1",
    "website_url": "https://www.instagram.com/la_ferramenta_canevari/",
    "rating_text": "4,3",
    "stars": null,
    "number_of_reviews": null,
    "price_level": "",
    "open_hours": "",
    "extraction_timestamp": "2025-06-07T16:09:18.336Z",
    "source_name": "google",
    "source_query": "Irrigation Equipment",
    "source_country": "IT",
    "country": "Italy",
    "state": "Emilia-Romagna",
    "city": "Rivergaro"
  },
  {
    "source_id": "ChIJ4WnZNofogEcRcCSJgGupNXk",
    "name": "Irrigarden",
    "category": "Irrigarden",
    "formatted_address": "3,7(6)",
    "phone_number": "+390523592012",
    "source_url": "https://www.google.com/maps/place/Irrigarden/data=!4m7!3m6!1s0x4780e88736d969e1:0x7935a96b80892470!8m2!3d45.0288739!4d9.7384753!16s%2Fg%2F11g4d1r753!19sChIJ4WnZNofogEcRcCSJgGupNXk?authuser=0&hl=tr&rclk=1",
    "website_url": "https://www.irrigarden.com/",
    "rating_text": "3,7",
    "stars": null,
    "number_of_reviews": null,
    "price_level": "",
    "open_hours": "",
    "extraction_timestamp": "2025-06-07T16:09:18.336Z",
    "source_name": "google",
    "source_query": "Irrigation Equipment",
    "source_country": "IT",
    "country": "Italy",
    "state": "Emilia-Romagna",
    "city": "Rivergaro"
  },
  {
    "source_id": "ChIJYwk8V_bpgEcRGMAEpcDwPlQ",
    "name": "River S.p.A.",
    "category": "River S.p.A.",
    "formatted_address": "4,8(5)",
    "phone_number": "+390523553011",
    "source_url": "https://www.google.com/maps/place/River+S.p.A./data=!4m7!3m6!1s0x4780e9f6573c0963:0x543ef0c0a504c018!8m2!3d44.9653489!4d9.6832916!16s%2Fg%2F1wj_4x53!19sChIJYwk8V_bpgEcRGMAEpcDwPlQ?authuser=0&hl=tr&rclk=1",
    "website_url": "http://www.riverspa.com/",
    "rating_text": "4,8",
    "stars": null,
    "number_of_reviews": null,
    "price_level": "",
    "open_hours": "",
    "extraction_timestamp": "2025-06-07T16:09:18.336Z",
    "source_name": "google",
    "source_query": "Irrigation Equipment",
    "source_country": "IT",
    "country": "Italy",
    "state": "Emilia-Romagna",
    "city": "Rivergaro"
  },
  {
    "source_id": "ChIJP4ZNSAV720MRKzxQGw-onx0",
    "name": "Mannino Sistemi Trattamento",
    "category": "Mannino Sistemi Trattamento",
    "formatted_address": "",
    "phone_number": "+393505784936",
    "source_url": "https://www.google.com/maps/place/Mannino+Sistemi+Trattamento/data=!4m7!3m6!1s0x43db7b05484d863f:0x1d9fa80f1b503c2b!8m2!3d44.4355116!4d10.9767761!16s%2Fg%2F11q4bd04zw!19sChIJP4ZNSAV720MRKzxQGw-onx0?authuser=0&hl=tr&rclk=1",
    "website_url": "http://manninodepurazione.it/",
    "rating_text": "",
    "stars": null,
    "number_of_reviews": null,
    "price_level": "",
    "open_hours": "",
    "extraction_timestamp": "2025-06-07T16:09:18.337Z",
    "source_name": "google",
    "source_query": "Irrigation Equipment",
    "source_country": "IT",
    "country": "Italy",
    "state": "Emilia-Romagna",
    "city": "Rivergaro"
  }
]
