[
  {
    "source_id": "ChIJN7GAlk-Jf0cRUw3Ah4cFO-o",
    "name": "Elettromeccanica Calzolari Srl",
    "category": "Elettromeccanica Calzolari Srl",
    "formatted_address": "4,5(108)",
    "phone_number": "+390522665507",
    "source_url": "https://www.google.com/maps/place/Elettromeccanica+Calzolari+Srl/data=!4m7!3m6!1s0x477f894f9680b137:0xea3b058787c00d53!8m2!3d44.869564!4d10.8407936!16s%2Fg%2F1tdn_9j9!19sChIJN7GAlk-Jf0cRUw3Ah4cFO-o?authuser=0&hl=tr&rclk=1",
    "website_url": "http://www.calzolarire.it/",
    "rating_text": "4,5",
    "stars": null,
    "number_of_reviews": null,
    "price_level": "",
    "open_hours": "",
    "extraction_timestamp": "2025-06-07T17:05:25.157Z",
    "source_name": "google",
    "source_query": "Irrigation Equipment",
    "source_country": "IT",
    "country": "Italy",
    "state": "Emilia-Romagna",
    "city": "Rolo"
  },
  {
    "source_id": "ChIJcQG6ul7df0cR3VxKiu5OPBs",
    "name": "Scova Impianti Srl",
    "category": "Scova Impianti Srl",
    "formatted_address": "4,5(64)",
    "phone_number": "+39059923202",
    "source_url": "https://www.google.com/maps/place/Scova+Impianti+Srl/data=!4m7!3m6!1s0x477fdd5ebaba0171:0x1b3c4eee8a4a5cdd!8m2!3d44.6018135!4d11.032294!16s%2Fg%2F1tfzwbfb!19sChIJcQG6ul7df0cR3VxKiu5OPBs?authuser=0&hl=tr&rclk=1",
    "website_url": "https://www.scovaimpianti.com/",
    "rating_text": "4,5",
    "stars": null,
    "number_of_reviews": null,
    "price_level": "",
    "open_hours": "",
    "extraction_timestamp": "2025-06-07T17:05:25.159Z",
    "source_name": "google",
    "source_query": "Irrigation Equipment",
    "source_country": "IT",
    "country": "Italy",
    "state": "Emilia-Romagna",
    "city": "Rolo"
  },
  {
    "source_id": "ChIJ69PdR1EvgEcRzaszzDo7sjQ",
    "name": "Nodolini s.n.c.",
    "category": "Nodolini s.n.c.",
    "formatted_address": "5,0(8)",
    "phone_number": "+390522977491",
    "source_url": "https://www.google.com/maps/place/Nodolini+s.n.c./data=!4m7!3m6!1s0x47802f5147ddd3eb:0x34b23b3acc33abcd!8m2!3d44.9541974!4d10.6879499!16s%2Fg%2F11b6j0n4vm!19sChIJ69PdR1EvgEcRzaszzDo7sjQ?authuser=0&hl=tr&rclk=1",
    "website_url": "http://www.nodolini.com/",
    "rating_text": "5,0",
    "stars": null,
    "number_of_reviews": null,
    "price_level": "",
    "open_hours": "",
    "extraction_timestamp": "2025-06-07T17:05:25.160Z",
    "source_name": "google",
    "source_query": "Irrigation Equipment",
    "source_country": "IT",
    "country": "Italy",
    "state": "Emilia-Romagna",
    "city": "Rolo"
  },
  {
    "source_id": "ChIJE_3jOnMtfkcRkxtTFj3Ym9E",
    "name": "Irrigation Scarabelli Srl",
    "category": "Irrigation Scarabelli Srl",
    "formatted_address": "4,5(23)",
    "phone_number": "+39051763363",
    "source_url": "https://www.google.com/maps/place/Irrigation+Scarabelli+Srl/data=!4m7!3m6!1s0x477e2d733ae3fd13:0xd19bd83d16531b93!8m2!3d44.5426053!4d11.4189136!16s%2Fg%2F11gzdz6vf!19sChIJE_3jOnMtfkcRkxtTFj3Ym9E?authuser=0&hl=tr&rclk=1",
    "website_url": "",
    "rating_text": "4,5",
    "stars": null,
    "number_of_reviews": null,
    "price_level": "",
    "open_hours": "",
    "extraction_timestamp": "2025-06-07T17:05:25.161Z",
    "source_name": "google",
    "source_query": "Irrigation Equipment",
    "source_country": "IT",
    "country": "Italy",
    "state": "Emilia-Romagna",
    "city": "Rolo"
  },
  {
    "source_id": "ChIJNUxmUXGJf0cRSCx0_feqVX4",
    "name": "Rovatti Pompe (SPA)",
    "category": "Rovatti Pompe (SPA)",
    "formatted_address": "4,2(10)",
    "phone_number": "+390522665000",
    "source_url": "https://www.google.com/maps/place/Rovatti+Pompe+%28SPA%29/data=!4m7!3m6!1s0x477f897151664c35:0x7e55aaf7fd742c48!8m2!3d44.8738517!4d10.8130664!16s%2Fg%2F1tn4x002!19sChIJNUxmUXGJf0cRSCx0_feqVX4?authuser=0&hl=tr&rclk=1",
    "website_url": "https://www.rovatti.it/",
    "rating_text": "4,2",
    "stars": null,
    "number_of_reviews": null,
    "price_level": "",
    "open_hours": "",
    "extraction_timestamp": "2025-06-07T17:05:25.162Z",
    "source_name": "google",
    "source_query": "Irrigation Equipment",
    "source_country": "IT",
    "country": "Italy",
    "state": "Emilia-Romagna",
    "city": "Rolo"
  },
  {
    "source_id": "ChIJT9kZH0aJf0cRsZU367bACU0",
    "name": "Rovatti A. & Figli Pompe S.P.A.",
    "category": "Rovatti A. & Figli Pompe S.P.A.",
    "formatted_address": "3,9(13)",
    "phone_number": "+390522660270",
    "source_url": "https://www.google.com/maps/place/Rovatti+A.+%26+Figli+Pompe+S.P.A./data=!4m7!3m6!1s0x477f89461f19d94f:0x4d09c0b6eb3795b1!8m2!3d44.8739855!4d10.8424443!16s%2Fg%2F1td41bcx!19sChIJT9kZH0aJf0cRsZU367bACU0?authuser=0&hl=tr&rclk=1",
    "website_url": "https://www.rovatti.it/",
    "rating_text": "3,9",
    "stars": null,
    "number_of_reviews": null,
    "price_level": "",
    "open_hours": "",
    "extraction_timestamp": "2025-06-07T17:05:25.163Z",
    "source_name": "google",
    "source_query": "Irrigation Equipment",
    "source_country": "IT",
    "country": "Italy",
    "state": "Emilia-Romagna",
    "city": "Rolo"
  },
  {
    "source_id": "ChIJR0cLXhQkgEcRi9oI9GALzlg",
    "name": "IRRILAND",
    "category": "IRRILAND",
    "formatted_address": "4,0(4)",
    "phone_number": "+390522831544",
    "source_url": "https://www.google.com/maps/place/IRRILAND/data=!4m7!3m6!1s0x478024145e0b4747:0x58ce0b60f408da8b!8m2!3d44.891987!4d10.650983!16s%2Fg%2F1tczjb0h!19sChIJR0cLXhQkgEcRi9oI9GALzlg?authuser=0&hl=tr&rclk=1",
    "website_url": "http://www.irriland.it/",
    "rating_text": "4,0",
    "stars": null,
    "number_of_reviews": null,
    "price_level": "",
    "open_hours": "",
    "extraction_timestamp": "2025-06-07T17:05:25.164Z",
    "source_name": "google",
    "source_query": "Irrigation Equipment",
    "source_country": "IT",
    "country": "Italy",
    "state": "Emilia-Romagna",
    "city": "Rolo"
  },
  {
    "source_id": "ChIJtVDkNgRFgEcRqc6umwWIJuI",
    "name": "Rm Spa",
    "category": "Rm Spa",
    "formatted_address": "4,6(81)",
    "phone_number": "+390521872321",
    "source_url": "https://www.google.com/maps/place/Rm+Spa/data=!4m7!3m6!1s0x4780450436e450b5:0xe22688059baecea9!8m2!3d44.9105406!4d10.2583785!16s%2Fg%2F12hl93byl!19sChIJtVDkNgRFgEcRqc6umwWIJuI?authuser=0&hl=tr&rclk=1",
    "website_url": "http://www.rmirrigation.com/",
    "rating_text": "4,6",
    "stars": null,
    "number_of_reviews": null,
    "price_level": "",
    "open_hours": "",
    "extraction_timestamp": "2025-06-07T17:05:25.165Z",
    "source_name": "google",
    "source_query": "Irrigation Equipment",
    "source_country": "IT",
    "country": "Italy",
    "state": "Emilia-Romagna",
    "city": "Rolo"
  },
  {
    "source_id": "ChIJI3RskoWFf0cRPKnb_O5Fmbg",
    "name": "Gandolfi (S.N.C.)",
    "category": "Gandolfi (S.N.C.)",
    "formatted_address": "4,2(10)",
    "phone_number": "+390522666288",
    "source_url": "https://www.google.com/maps/place/Gandolfi+%28S.N.C.%29/data=!4m7!3m6!1s0x477f8585926c7423:0xb89945eefcdba93c!8m2!3d44.886202!4d10.8558869!16s%2Fg%2F1t_tj42p!19sChIJI3RskoWFf0cRPKnb_O5Fmbg?authuser=0&hl=tr&rclk=1",
    "website_url": "http://www.gandolfisac.it/",
    "rating_text": "4,2",
    "stars": null,
    "number_of_reviews": null,
    "price_level": "",
    "open_hours": "",
    "extraction_timestamp": "2025-06-07T17:05:25.166Z",
    "source_name": "google",
    "source_query": "Irrigation Equipment",
    "source_country": "IT",
    "country": "Italy",
    "state": "Emilia-Romagna",
    "city": "Rolo"
  },
  {
    "source_id": "ChIJveAeFroEgEcRZfa9xqlB6vM",
    "name": "Morelli Irrigazioni",
    "category": "Morelli Irrigazioni",
    "formatted_address": "1,0(1)",
    "phone_number": "+393480042122",
    "source_url": "https://www.google.com/maps/place/Morelli+Irrigazioni/data=!4m7!3m6!1s0x478004ba161ee0bd:0xf3ea41a9c6bdf665!8m2!3d44.649256!4d10.5636837!16s%2Fg%2F11gy01p0bd!19sChIJveAeFroEgEcRZfa9xqlB6vM?authuser=0&hl=tr&rclk=1",
    "website_url": "http://irrigazionimorelli.it/",
    "rating_text": "1,0",
    "stars": null,
    "number_of_reviews": null,
    "price_level": "",
    "open_hours": "",
    "extraction_timestamp": "2025-06-07T17:05:25.167Z",
    "source_name": "google",
    "source_query": "Irrigation Equipment",
    "source_country": "IT",
    "country": "Italy",
    "state": "Emilia-Romagna",
    "city": "Rolo"
  },
  {
    "source_id": "ChIJh3Nd8G0sfkcR_m7VewEmxXM",
    "name": "Irrigarden",
    "category": "Irrigarden",
    "formatted_address": "4,7(158)",
    "phone_number": "+39051782013",
    "source_url": "https://www.google.com/maps/place/Irrigarden/data=!4m7!3m6!1s0x477e2c6df05d7387:0x73c526017bd56efe!8m2!3d44.5096266!4d11.4390897!16s%2Fg%2F1vgw_l7w!19sChIJh3Nd8G0sfkcR_m7VewEmxXM?authuser=0&hl=tr&rclk=1",
    "website_url": "https://www.irrigarden-bo.it/",
    "rating_text": "4,7",
    "stars": null,
    "number_of_reviews": null,
    "price_level": "",
    "open_hours": "",
    "extraction_timestamp": "2025-06-07T17:05:25.169Z",
    "source_name": "google",
    "source_query": "Irrigation Equipment",
    "source_country": "IT",
    "country": "Italy",
    "state": "Emilia-Romagna",
    "city": "Rolo"
  },
  {
    "source_id": "ChIJiVSvsQIdgEcR0PUcMFDq-Yg",
    "name": "Idrotim",
    "category": "Idrotim",
    "formatted_address": "5,0(5)",
    "phone_number": "+393387675768",
    "source_url": "https://www.google.com/maps/place/Idrotim/data=!4m7!3m6!1s0x47801d02b1af5489:0x88f9ea50301cf5d0!8m2!3d44.642221!4d10.671266!16s%2Fg%2F1tnhx5lh!19sChIJiVSvsQIdgEcR0PUcMFDq-Yg?authuser=0&hl=tr&rclk=1",
    "website_url": "http://www.idrotim.it/",
    "rating_text": "5,0",
    "stars": null,
    "number_of_reviews": null,
    "price_level": "",
    "open_hours": "",
    "extraction_timestamp": "2025-06-07T17:05:25.170Z",
    "source_name": "google",
    "source_query": "Irrigation Equipment",
    "source_country": "IT",
    "country": "Italy",
    "state": "Emilia-Romagna",
    "city": "Rolo"
  },
  {
    "source_id": "ChIJJ6V6lMDgf0cR1SpFsfjDuHg",
    "name": "Ocmis Irrigazione Spa",
    "category": "Ocmis Irrigazione Spa",
    "formatted_address": "3,5(31)",
    "phone_number": "+39059702150",
    "source_url": "https://www.google.com/maps/place/Ocmis+Irrigazione+Spa/data=!4m7!3m6!1s0x477fe0c0947aa527:0x78b8c3f8b1452ad5!8m2!3d44.530494!4d10.9794578!16s%2Fg%2F1vd3tn19!19sChIJJ6V6lMDgf0cR1SpFsfjDuHg?authuser=0&hl=tr&rclk=1",
    "website_url": "http://www.ocmis-irrigazione.it/",
    "rating_text": "3,5",
    "stars": null,
    "number_of_reviews": null,
    "price_level": "",
    "open_hours": "",
    "extraction_timestamp": "2025-06-07T17:05:25.171Z",
    "source_name": "google",
    "source_query": "Irrigation Equipment",
    "source_country": "IT",
    "country": "Italy",
    "state": "Emilia-Romagna",
    "city": "Rolo"
  },
  {
    "source_id": "ChIJQyDw8N_0f0cRhE_m36C06SU",
    "name": "Irrigreen",
    "category": "Irrigreen",
    "formatted_address": "4,3(3)",
    "phone_number": "+390522642318",
    "source_url": "https://www.google.com/maps/place/Irrigreen/data=!4m7!3m6!1s0x477ff4dff0f02043:0x25e9b4a0dfe64f84!8m2!3d45.1836109!4d10.6267461!16s%2Fg%2F1tddwm9t!19sChIJQyDw8N_0f0cRhE_m36C06SU?authuser=0&hl=tr&rclk=1",
    "website_url": "http://www.irrigreen.it/",
    "rating_text": "4,3",
    "stars": null,
    "number_of_reviews": null,
    "price_level": "",
    "open_hours": "",
    "extraction_timestamp": "2025-06-07T17:05:25.172Z",
    "source_name": "google",
    "source_query": "Irrigation Equipment",
    "source_country": "IT",
    "country": "Italy",
    "state": "Emilia-Romagna",
    "city": "Rolo"
  }
]
