[
  {
    "source_id": "ChIJy805WcDcgEcRtmGWlwosXQc",
    "name": "IRRIMEC SRL",
    "category": "IRRIMEC SRL",
    "formatted_address": "4,5(90)",
    "phone_number": "+390523760441",
    "source_url": "https://www.google.com/maps/place/IRRIMEC+SRL/data=!4m7!3m6!1s0x4780dcc05939cdcb:0x75d2c0a979661b6!8m2!3d45.0612353!4d9.630829!16s%2Fg%2F1tdgt7d_!19sChIJy805WcDcgEcRtmGWlwosXQc?authuser=0&hl=tr&rclk=1",
    "website_url": "http://www.irrimec.com/",
    "rating_text": "4,5",
    "stars": null,
    "number_of_reviews": null,
    "price_level": "",
    "open_hours": "",
    "extraction_timestamp": "2025-06-07T16:39:36.735Z",
    "source_name": "google",
    "source_query": "Irrigation Equipment",
    "source_country": "IT",
    "country": "Italy",
    "state": "Emilia-Romagna",
    "city": "Rottofreno"
  },
  {
    "source_id": "ChIJCdwQIfbNgEcRtWOzhvtW0iA",
    "name": "Agrimil Tech Srl",
    "category": "Agrimil Tech Srl",
    "formatted_address": "4,8(9)",
    "phone_number": "+390523849679",
    "source_url": "https://www.google.com/maps/place/Agrimil+Tech+Srl/data=!4m7!3m6!1s0x4780cdf62110dc09:0x20d256fb86b363b5!8m2!3d45.0556557!4d9.5030905!16s%2Fg%2F1tdf9z93!19sChIJCdwQIfbNgEcRtWOzhvtW0iA?authuser=0&hl=tr&rclk=1",
    "website_url": "http://www.agrimil.it/",
    "rating_text": "4,8",
    "stars": null,
    "number_of_reviews": null,
    "price_level": "",
    "open_hours": "",
    "extraction_timestamp": "2025-06-07T16:39:36.736Z",
    "source_name": "google",
    "source_query": "Irrigation Equipment",
    "source_country": "IT",
    "country": "Italy",
    "state": "Emilia-Romagna",
    "city": "Rottofreno"
  },
  {
    "source_id": "ChIJIRMNVtHagEcRRBAFw1DdpBQ",
    "name": "TERMOIDRAULICA LUPI CLAUDIO",
    "category": "TERMOIDRAULICA LUPI CLAUDIO",
    "formatted_address": "5,0(1)",
    "phone_number": "+393387824790",
    "source_url": "https://www.google.com/maps/place/TERMOIDRAULICA+LUPI+CLAUDIO/data=!4m7!3m6!1s0x4780dad1560d1321:0x14a4dd50c3051044!8m2!3d41.29085!4d12.71216!16s%2Fg%2F11g6z4rg7s!19sChIJIRMNVtHagEcRRBAFw1DdpBQ?authuser=0&hl=tr&rclk=1",
    "website_url": "",
    "rating_text": "5,0",
    "stars": null,
    "number_of_reviews": null,
    "price_level": "",
    "open_hours": "",
    "extraction_timestamp": "2025-06-07T16:39:36.736Z",
    "source_name": "google",
    "source_query": "Irrigation Equipment",
    "source_country": "IT",
    "country": "Italy",
    "state": "Emilia-Romagna",
    "city": "Rottofreno"
  },
  {
    "source_id": "ChIJV4bnO9DagEcRiEufPfvYjsM",
    "name": "Ok Sigma Di Rottofreno Emilia Ovest",
    "category": "Ok Sigma Di Rottofreno Emilia Ovest",
    "formatted_address": "4,3(46)",
    "phone_number": "+390523781141",
    "source_url": "https://www.google.com/maps/place/Ok+Sigma+Di+Rottofreno+Emilia+Ovest/data=!4m7!3m6!1s0x4780dad03be78657:0xc38ed8fb3d9f4b88!8m2!3d45.0578726!4d9.5398554!16s%2Fg%2F1td7m4qs!19sChIJV4bnO9DagEcRiEufPfvYjsM?authuser=0&hl=tr&rclk=1",
    "website_url": "https://www.supersigma.com/pdv/realc_pc_4247",
    "rating_text": "4,3",
    "stars": null,
    "number_of_reviews": null,
    "price_level": "",
    "open_hours": "",
    "extraction_timestamp": "2025-06-07T16:39:36.736Z",
    "source_name": "google",
    "source_query": "Irrigation Equipment",
    "source_country": "IT",
    "country": "Italy",
    "state": "Emilia-Romagna",
    "city": "Rottofreno"
  },
  {
    "source_id": "ChIJ4WnZNofogEcRcCSJgGupNXk",
    "name": "Irrigarden",
    "category": "Irrigarden",
    "formatted_address": "3,7(6)",
    "phone_number": "+390523592012",
    "source_url": "https://www.google.com/maps/place/Irrigarden/data=!4m7!3m6!1s0x4780e88736d969e1:0x7935a96b80892470!8m2!3d45.0288739!4d9.7384753!16s%2Fg%2F11g4d1r753!19sChIJ4WnZNofogEcRcCSJgGupNXk?authuser=0&hl=tr&rclk=1",
    "website_url": "https://www.irrigarden.com/",
    "rating_text": "3,7",
    "stars": null,
    "number_of_reviews": null,
    "price_level": "",
    "open_hours": "",
    "extraction_timestamp": "2025-06-07T16:39:36.737Z",
    "source_name": "google",
    "source_query": "Irrigation Equipment",
    "source_country": "IT",
    "country": "Italy",
    "state": "Emilia-Romagna",
    "city": "Rottofreno"
  },
  {
    "source_id": "ChIJS5MUhybdgEcR5VM0wd-wyo4",
    "name": "Assistenza impianti trattamento acqua Piacenza",
    "category": "Assistenza impianti trattamento acqua Piacenza",
    "formatted_address": "",
    "phone_number": "+393247707944",
    "source_url": "https://www.google.com/maps/place/Assistenza+impianti+trattamento+acqua+Piacenza/data=!4m7!3m6!1s0x4780dd268714934b:0x8ecab0dfc13453e5!8m2!3d45.0422201!4d9.6981487!16s%2Fg%2F11j4p_1f6m!19sChIJS5MUhybdgEcR5VM0wd-wyo4?authuser=0&hl=tr&rclk=1",
    "website_url": "",
    "rating_text": "",
    "stars": null,
    "number_of_reviews": null,
    "price_level": "",
    "open_hours": "",
    "extraction_timestamp": "2025-06-07T16:39:36.737Z",
    "source_name": "google",
    "source_query": "Irrigation Equipment",
    "source_country": "IT",
    "country": "Italy",
    "state": "Emilia-Romagna",
    "city": "Rottofreno"
  }
]
