[
  {
    "source_id": "ChIJy805WcDcgEcRtmGWlwosXQc",
    "name": "IRRIMEC SRL",
    "category": "IRRIMEC SRL",
    "formatted_address": "4,5(90)",
    "phone_number": "+390523760441",
    "source_url": "https://www.google.com/maps/place/IRRIMEC+SRL/data=!4m7!3m6!1s0x4780dcc05939cdcb:0x75d2c0a979661b6!8m2!3d45.0612353!4d9.630829!16s%2Fg%2F1tdgt7d_!19sChIJy805WcDcgEcRtmGWlwosXQc?authuser=0&hl=tr&rclk=1",
    "website_url": "http://www.irrimec.com/",
    "rating_text": "4,5",
    "stars": null,
    "number_of_reviews": null,
    "price_level": "",
    "open_hours": "",
    "extraction_timestamp": "2025-06-07T15:41:20.161Z",
    "source_name": "google",
    "source_query": "Irrigation Equipment",
    "source_country": "IT",
    "country": "Italy",
    "state": "Emilia-Romagna",
    "city": "Roveleto"
  },
  {
    "source_id": "ChIJDxdzaOTxgEcRiPzTJAQd_zM",
    "name": "TECNOPOWER srl",
    "category": "TECNOPOWER srl",
    "formatted_address": "5,0(6)",
    "phone_number": "+390523523011",
    "source_url": "https://www.google.com/maps/place/TECNOPOWER+srl/data=!4m7!3m6!1s0x4780f1e46873170f:0x33ff1d0424d3fc88!8m2!3d44.9616873!4d9.8562046!16s%2Fg%2F1tdcf6v9!19sChIJDxdzaOTxgEcRiPzTJAQd_zM?authuser=0&hl=tr&rclk=1",
    "website_url": "https://www.tecno-power.com/",
    "rating_text": "5,0",
    "stars": null,
    "number_of_reviews": null,
    "price_level": "",
    "open_hours": "",
    "extraction_timestamp": "2025-06-07T15:41:20.163Z",
    "source_name": "google",
    "source_query": "Irrigation Equipment",
    "source_country": "IT",
    "country": "Italy",
    "state": "Emilia-Romagna",
    "city": "Roveleto"
  },
  {
    "source_id": "ChIJPzARJO7sgEcRiLa8c2yngpg",
    "name": "Casella Macchine Agricole Srl",
    "category": "Casella Macchine Agricole Srl",
    "formatted_address": "4,6(290)",
    "phone_number": "+390523853911",
    "source_url": "https://www.google.com/maps/place/Casella+Macchine+Agricole+Srl/data=!4m7!3m6!1s0x4780ecee2411303f:0x9882a76c73bcb688!8m2!3d44.9181761!4d9.7741966!16s%2Fg%2F1tfghp4p!19sChIJPzARJO7sgEcRiLa8c2yngpg?authuser=0&hl=tr&rclk=1",
    "website_url": "http://www.casella.it/",
    "rating_text": "4,6",
    "stars": null,
    "number_of_reviews": null,
    "price_level": "",
    "open_hours": "",
    "extraction_timestamp": "2025-06-07T15:41:20.165Z",
    "source_name": "google",
    "source_query": "Irrigation Equipment",
    "source_country": "IT",
    "country": "Italy",
    "state": "Emilia-Romagna",
    "city": "Roveleto"
  },
  {
    "source_id": "ChIJtVDkNgRFgEcRqc6umwWIJuI",
    "name": "Rm Spa",
    "category": "Rm Spa",
    "formatted_address": "4,6(81)",
    "phone_number": "+390521872321",
    "source_url": "https://www.google.com/maps/place/Rm+Spa/data=!4m7!3m6!1s0x4780450436e450b5:0xe22688059baecea9!8m2!3d44.9105406!4d10.2583785!16s%2Fg%2F12hl93byl!19sChIJtVDkNgRFgEcRqc6umwWIJuI?authuser=0&hl=tr&rclk=1",
    "website_url": "http://www.rmirrigation.com/",
    "rating_text": "4,6",
    "stars": null,
    "number_of_reviews": null,
    "price_level": "",
    "open_hours": "",
    "extraction_timestamp": "2025-06-07T15:41:20.166Z",
    "source_name": "google",
    "source_query": "Irrigation Equipment",
    "source_country": "IT",
    "country": "Italy",
    "state": "Emilia-Romagna",
    "city": "Roveleto"
  },
  {
    "source_id": "ChIJQYNdTR7ugEcR4C5pBzkg_Us",
    "name": "IDROIMPIANTI E COSTRUZIONI srl",
    "category": "IDROIMPIANTI E COSTRUZIONI srl",
    "formatted_address": "4,0(4)",
    "phone_number": "+390523509325",
    "source_url": "https://www.google.com/maps/place/IDROIMPIANTI+E+COSTRUZIONI+srl/data=!4m7!3m6!1s0x4780ee1e4d5d8341:0x4bfd203907692ee0!8m2!3d44.9686639!4d9.8458448!16s%2Fg%2F1tfmb2hj!19sChIJQYNdTR7ugEcR4C5pBzkg_Us?authuser=0&hl=tr&rclk=1",
    "website_url": "http://www.idroimpiantiecostruzioni.com/",
    "rating_text": "4,0",
    "stars": null,
    "number_of_reviews": null,
    "price_level": "",
    "open_hours": "",
    "extraction_timestamp": "2025-06-07T15:41:20.168Z",
    "source_name": "google",
    "source_query": "Irrigation Equipment",
    "source_country": "IT",
    "country": "Italy",
    "state": "Emilia-Romagna",
    "city": "Roveleto"
  },
  {
    "source_id": "ChIJ4WnZNofogEcRcCSJgGupNXk",
    "name": "Irrigarden",
    "category": "Irrigarden",
    "formatted_address": "3,7(6)",
    "phone_number": "+390523592012",
    "source_url": "https://www.google.com/maps/place/Irrigarden/data=!4m7!3m6!1s0x4780e88736d969e1:0x7935a96b80892470!8m2!3d45.0288739!4d9.7384753!16s%2Fg%2F11g4d1r753!19sChIJ4WnZNofogEcRcCSJgGupNXk?authuser=0&hl=tr&rclk=1",
    "website_url": "https://www.irrigarden.com/",
    "rating_text": "3,7",
    "stars": null,
    "number_of_reviews": null,
    "price_level": "",
    "open_hours": "",
    "extraction_timestamp": "2025-06-07T15:41:20.170Z",
    "source_name": "google",
    "source_query": "Irrigation Equipment",
    "source_country": "IT",
    "country": "Italy",
    "state": "Emilia-Romagna",
    "city": "Roveleto"
  },
  {
    "source_id": "ChIJZdcqShnugEcRT0GFbKTk6iM",
    "name": "G M Termosanitari Snc",
    "category": "G M Termosanitari Snc",
    "formatted_address": "4,1(12)",
    "phone_number": "+390523500639",
    "source_url": "https://www.google.com/maps/place/G+M+Termosanitari+Snc/data=!4m7!3m6!1s0x4780ee194a2ad765:0x23eae4a46c85414f!8m2!3d44.9645398!4d9.8478885!16s%2Fg%2F11b6hzwjz5!19sChIJZdcqShnugEcRT0GFbKTk6iM?authuser=0&hl=tr&rclk=1",
    "website_url": "https://gmtermosanitari.it/",
    "rating_text": "4,1",
    "stars": null,
    "number_of_reviews": null,
    "price_level": "",
    "open_hours": "",
    "extraction_timestamp": "2025-06-07T15:41:20.172Z",
    "source_name": "google",
    "source_query": "Irrigation Equipment",
    "source_country": "IT",
    "country": "Italy",
    "state": "Emilia-Romagna",
    "city": "Roveleto"
  }
]
