[
  {
    "source_id": "ChIJ1c-YKEv3f0cRK_abF_cGaSU",
    "name": "Global Water Solutions Italia srl",
    "category": "Global Water Solutions Italia srl",
    "formatted_address": "4,8(4)",
    "phone_number": "+390522626307",
    "source_url": "https://www.google.com/maps/place/Global+Water+Solutions+Italia+srl/data=!4m7!3m6!1s0x477ff74b2898cfd5:0x256906f7179bf62b!8m2!3d44.6565234!4d10.7697472!16s%2Fg%2F11fzc76q7y!19sChIJ1c-YKEv3f0cRK_abF_cGaSU?authuser=0&hl=tr&rclk=1",
    "website_url": "https://www.globalwatersolutions.com/?lang=it",
    "rating_text": "4,8",
    "stars": null,
    "number_of_reviews": null,
    "price_level": "",
    "open_hours": "",
    "extraction_timestamp": "2025-06-07T16:04:35.403Z",
    "source_name": "google",
    "source_query": "Irrigation Equipment",
    "source_country": "IT",
    "country": "Italy",
    "state": "Emilia-Romagna",
    "city": "Rubiera"
  },
  {
    "source_id": "ChIJa8flob_wf0cRa7XVBodnL2I",
    "name": "Arag Srl",
    "category": "Arag Srl",
    "formatted_address": "4,6(141)",
    "phone_number": "+390522622011",
    "source_url": "https://www.google.com/maps/place/Arag+Srl/data=!4m7!3m6!1s0x477ff0bfa1e5c76b:0x622f678706d5b56b!8m2!3d44.6556162!4d10.7922409!16s%2Fg%2F1tdnd2vb!19sChIJa8flob_wf0cRa7XVBodnL2I?authuser=0&hl=tr&rclk=1",
    "website_url": "http://www.aragnet.com/",
    "rating_text": "4,6",
    "stars": null,
    "number_of_reviews": null,
    "price_level": "",
    "open_hours": "",
    "extraction_timestamp": "2025-06-07T16:04:35.405Z",
    "source_name": "google",
    "source_query": "Irrigation Equipment",
    "source_country": "IT",
    "country": "Italy",
    "state": "Emilia-Romagna",
    "city": "Rubiera"
  },
  {
    "source_id": "ChIJzTE3mg76f0cRpohIQLJjiWU",
    "name": "UDOR S.p.A.",
    "category": "UDOR S.p.A.",
    "formatted_address": "4,5(24)",
    "phone_number": "+390522628249",
    "source_url": "https://www.google.com/maps/place/UDOR+S.p.A./data=!4m7!3m6!1s0x477ffa0e9a3731cd:0x658963b2404888a6!8m2!3d44.6333193!4d10.7786458!16s%2Fg%2F11b64wnjfw!19sChIJzTE3mg76f0cRpohIQLJjiWU?authuser=0&hl=tr&rclk=1",
    "website_url": "https://www.udor.it/",
    "rating_text": "4,5",
    "stars": null,
    "number_of_reviews": null,
    "price_level": "",
    "open_hours": "",
    "extraction_timestamp": "2025-06-07T16:04:35.407Z",
    "source_name": "google",
    "source_query": "Irrigation Equipment",
    "source_country": "IT",
    "country": "Italy",
    "state": "Emilia-Romagna",
    "city": "Rubiera"
  },
  {
    "source_id": "ChIJL1fZzrjwf0cRcptKxsWYgW8",
    "name": "Pompe Zanni",
    "category": "Pompe Zanni",
    "formatted_address": "4,6(5)",
    "phone_number": "+390522626636",
    "source_url": "https://www.google.com/maps/place/Pompe+Zanni/data=!4m7!3m6!1s0x477ff0b8ced9572f:0x6f8198c5c64a9b72!8m2!3d44.6554527!4d10.7870346!16s%2Fg%2F1tqck1q6!19sChIJL1fZzrjwf0cRcptKxsWYgW8?authuser=0&hl=tr&rclk=1",
    "website_url": "http://www.pompezanni.it/",
    "rating_text": "4,6",
    "stars": null,
    "number_of_reviews": null,
    "price_level": "",
    "open_hours": "",
    "extraction_timestamp": "2025-06-07T16:04:35.408Z",
    "source_name": "google",
    "source_query": "Irrigation Equipment",
    "source_country": "IT",
    "country": "Italy",
    "state": "Emilia-Romagna",
    "city": "Rubiera"
  },
  {
    "source_id": "ChIJVZxiurbwf0cRtQMHYRGCvjU",
    "name": "Gasparini s.n.c.",
    "category": "Gasparini s.n.c.",
    "formatted_address": "4,5(17)",
    "phone_number": "+390522628105",
    "source_url": "https://www.google.com/maps/place/Gasparini+s.n.c./data=!4m7!3m6!1s0x477ff0b6ba629c55:0x35be8211610703b5!8m2!3d44.6544677!4d10.7767723!16s%2Fg%2F11clhr8tg6!19sChIJVZxiurbwf0cRtQMHYRGCvjU?authuser=0&hl=tr&rclk=1",
    "website_url": "https://gasparinisnc.com/",
    "rating_text": "4,5",
    "stars": null,
    "number_of_reviews": null,
    "price_level": "",
    "open_hours": "",
    "extraction_timestamp": "2025-06-07T16:04:35.410Z",
    "source_name": "google",
    "source_query": "Irrigation Equipment",
    "source_country": "IT",
    "country": "Italy",
    "state": "Emilia-Romagna",
    "city": "Rubiera"
  },
  {
    "source_id": "ChIJ6ae1ra7wf0cRTw3houGYGnQ",
    "name": "WaterLine",
    "category": "WaterLine",
    "formatted_address": "3,4(29)",
    "phone_number": "+390522626090",
    "source_url": "https://www.google.com/maps/place/WaterLine/data=!4m7!3m6!1s0x477ff0aeadb5a7e9:0x741a98e1a2e10d4f!8m2!3d44.6425928!4d10.7721124!16s%2Fg%2F1td46trb!19sChIJ6ae1ra7wf0cRTw3houGYGnQ?authuser=0&hl=tr&rclk=1",
    "website_url": "http://www.waterline.it/",
    "rating_text": "3,4",
    "stars": null,
    "number_of_reviews": null,
    "price_level": "",
    "open_hours": "",
    "extraction_timestamp": "2025-06-07T16:04:35.411Z",
    "source_name": "google",
    "source_query": "Irrigation Equipment",
    "source_country": "IT",
    "country": "Italy",
    "state": "Emilia-Romagna",
    "city": "Rubiera"
  },
  {
    "source_id": "ChIJQ9z2zrjwf0cR236cEi2QAo4",
    "name": "Viesse Pompe Italia",
    "category": "Viesse Pompe Italia",
    "formatted_address": "4,0(1)",
    "phone_number": "+390522626636",
    "source_url": "https://www.google.com/maps/place/Viesse+Pompe+Italia/data=!4m7!3m6!1s0x477ff0b8cef6dc43:0x8e02902d129c7edb!8m2!3d44.6548101!4d10.7905697!16s%2Fg%2F11hdnh0l14!19sChIJQ9z2zrjwf0cR236cEi2QAo4?authuser=0&hl=tr&rclk=1",
    "website_url": "https://www.viessepompe.it/",
    "rating_text": "4,0",
    "stars": null,
    "number_of_reviews": null,
    "price_level": "",
    "open_hours": "",
    "extraction_timestamp": "2025-06-07T16:04:35.412Z",
    "source_name": "google",
    "source_query": "Irrigation Equipment",
    "source_country": "IT",
    "country": "Italy",
    "state": "Emilia-Romagna",
    "city": "Rubiera"
  },
  {
    "source_id": "ChIJF4CIdKUdgEcR0yLIfT07DS8",
    "name": "Idrocentro magazzino",
    "category": "Idrocentro magazzino",
    "formatted_address": "3,6(8)",
    "phone_number": "+390522621093",
    "source_url": "https://www.google.com/maps/place/Idrocentro+magazzino/data=!4m7!3m6!1s0x47801da574888017:0x2f0d3b3d7dc822d3!8m2!3d44.6529485!4d10.7728242!16s%2Fg%2F11gjs8wdhk!19sChIJF4CIdKUdgEcR0yLIfT07DS8?authuser=0&hl=tr&rclk=1",
    "website_url": "http://www.idrocentro.com/",
    "rating_text": "3,6",
    "stars": null,
    "number_of_reviews": null,
    "price_level": "",
    "open_hours": "",
    "extraction_timestamp": "2025-06-07T16:04:35.414Z",
    "source_name": "google",
    "source_query": "Irrigation Equipment",
    "source_country": "IT",
    "country": "Italy",
    "state": "Emilia-Romagna",
    "city": "Rubiera"
  },
  {
    "source_id": "ChIJyXoAv7Pwf0cRRC9qtMGr39s",
    "name": "meglioalge showroom di Idrocentro",
    "category": "meglioalge showroom di Idrocentro",
    "formatted_address": "4,1(17)",
    "phone_number": "+3905221478330",
    "source_url": "https://www.google.com/maps/place/meglioalge+showroom+di+Idrocentro/data=!4m7!3m6!1s0x477ff0b3bf007ac9:0xdbdfabc1b46a2f44!8m2!3d44.6528388!4d10.7728242!16s%2Fg%2F1vpprcl8!19sChIJyXoAv7Pwf0cRRC9qtMGr39s?authuser=0&hl=tr&rclk=1",
    "website_url": "http://www.meglioalge.it/",
    "rating_text": "4,1",
    "stars": null,
    "number_of_reviews": null,
    "price_level": "",
    "open_hours": "",
    "extraction_timestamp": "2025-06-07T16:04:35.415Z",
    "source_name": "google",
    "source_query": "Irrigation Equipment",
    "source_country": "IT",
    "country": "Italy",
    "state": "Emilia-Romagna",
    "city": "Rubiera"
  },
  {
    "source_id": "ChIJcQG6ul7df0cR3VxKiu5OPBs",
    "name": "Scova Impianti Srl",
    "category": "Scova Impianti Srl",
    "formatted_address": "4,5(64)",
    "phone_number": "+39059923202",
    "source_url": "https://www.google.com/maps/place/Scova+Impianti+Srl/data=!4m7!3m6!1s0x477fdd5ebaba0171:0x1b3c4eee8a4a5cdd!8m2!3d44.6018135!4d11.032294!16s%2Fg%2F1tfzwbfb!19sChIJcQG6ul7df0cR3VxKiu5OPBs?authuser=0&hl=tr&rclk=1",
    "website_url": "https://www.scovaimpianti.com/",
    "rating_text": "4,5",
    "stars": null,
    "number_of_reviews": null,
    "price_level": "",
    "open_hours": "",
    "extraction_timestamp": "2025-06-07T16:04:35.416Z",
    "source_name": "google",
    "source_query": "Irrigation Equipment",
    "source_country": "IT",
    "country": "Italy",
    "state": "Emilia-Romagna",
    "city": "Rubiera"
  },
  {
    "source_id": "ChIJGdYZU7_wf0cRBE75ZqoK8UE",
    "name": "Fil.Tech S.r.l.",
    "category": "Fil.Tech S.r.l.",
    "formatted_address": "4,4(9)",
    "phone_number": "+390522262688",
    "source_url": "https://www.google.com/maps/place/Fil.Tech+S.r.l./data=!4m7!3m6!1s0x477ff0bf5319d619:0x41f10aaa66f94e04!8m2!3d44.6567605!4d10.788081!16s%2Fg%2F1hc1tfgcy!19sChIJGdYZU7_wf0cRBE75ZqoK8UE?authuser=0&hl=tr&rclk=1",
    "website_url": "http://www.fil-techsrl.com/",
    "rating_text": "4,4",
    "stars": null,
    "number_of_reviews": null,
    "price_level": "",
    "open_hours": "",
    "extraction_timestamp": "2025-06-07T16:04:35.418Z",
    "source_name": "google",
    "source_query": "Irrigation Equipment",
    "source_country": "IT",
    "country": "Italy",
    "state": "Emilia-Romagna",
    "city": "Rubiera"
  },
  {
    "source_id": "ChIJybzudglG0xIRHOzpzLlyhhc",
    "name": "Ptc High Pressure Jetting",
    "category": "Ptc High Pressure Jetting",
    "formatted_address": "4,5(37)",
    "phone_number": "+390522626477",
    "source_url": "https://www.google.com/maps/place/Ptc+High+Pressure+Jetting/data=!4m7!3m6!1s0x12d3460976eebcc9:0x178672b9cce9ec1c!8m2!3d44.6542982!4d10.7903937!16s%2Fg%2F11cs4ky094!19sChIJybzudglG0xIRHOzpzLlyhhc?authuser=0&hl=tr&rclk=1",
    "website_url": "http://ptcitaliana.com/",
    "rating_text": "4,5",
    "stars": null,
    "number_of_reviews": null,
    "price_level": "",
    "open_hours": "",
    "extraction_timestamp": "2025-06-07T16:04:35.419Z",
    "source_name": "google",
    "source_query": "Irrigation Equipment",
    "source_country": "IT",
    "country": "Italy",
    "state": "Emilia-Romagna",
    "city": "Rubiera"
  },
  {
    "source_id": "ChIJdabTzffxf0cRVaQmHyd4rcs",
    "name": "Blanco idrotermica",
    "category": "Blanco idrotermica",
    "formatted_address": "5,0(24)",
    "phone_number": "+393464974813",
    "source_url": "https://www.google.com/maps/place/Blanco+idrotermica/data=!4m7!3m6!1s0x477ff1f7cdd3a675:0xcbad78271f26a455!8m2!3d44.6536166!4d10.7825341!16s%2Fg%2F11pb1_rxlp!19sChIJdabTzffxf0cRVaQmHyd4rcs?authuser=0&hl=tr&rclk=1",
    "website_url": "http://blancoidrotermica.com/",
    "rating_text": "5,0",
    "stars": null,
    "number_of_reviews": null,
    "price_level": "",
    "open_hours": "",
    "extraction_timestamp": "2025-06-07T16:04:35.421Z",
    "source_name": "google",
    "source_query": "Irrigation Equipment",
    "source_country": "IT",
    "country": "Italy",
    "state": "Emilia-Romagna",
    "city": "Rubiera"
  },
  {
    "source_id": "ChIJVbY9wogW2oERieiLdmJQ_1I",
    "name": "Potentia real Gardening",
    "category": "Potentia real Gardening",
    "formatted_address": "5,0(2)",
    "phone_number": "+393515245826",
    "source_url": "https://www.google.com/maps/place/Potentia+real+Gardening/data=!4m7!3m6!1s0x81da1688c23db655:0x52ff5062768be889!8m2!3d44.6480282!4d10.7777248!16s%2Fg%2F11m5cpfvb5!19sChIJVbY9wogW2oERieiLdmJQ_1I?authuser=0&hl=tr&rclk=1",
    "website_url": "https://potentiarealgardening.it/",
    "rating_text": "5,0",
    "stars": null,
    "number_of_reviews": null,
    "price_level": "",
    "open_hours": "",
    "extraction_timestamp": "2025-06-07T16:04:35.423Z",
    "source_name": "google",
    "source_query": "Irrigation Equipment",
    "source_country": "IT",
    "country": "Italy",
    "state": "Emilia-Romagna",
    "city": "Rubiera"
  },
  {
    "source_id": "ChIJsZnCUkv3f0cR-FFfmjUN17Y",
    "name": "Gruppo Italcer - Ceramica Rondine",
    "category": "Gruppo Italcer - Ceramica Rondine",
    "formatted_address": "3,8(31)",
    "phone_number": "+390522625111",
    "source_url": "https://www.google.com/maps/place/Gruppo+Italcer+-+Ceramica+Rondine/data=!4m7!3m6!1s0x477ff74b52c299b1:0xb6d70d359a5f51f8!8m2!3d44.6542745!4d10.7695499!16s%2Fg%2F1tgllrj6!19sChIJsZnCUkv3f0cR-FFfmjUN17Y?authuser=0&hl=tr&rclk=1",
    "website_url": "http://www.ceramicarondine.it/",
    "rating_text": "3,8",
    "stars": null,
    "number_of_reviews": null,
    "price_level": "",
    "open_hours": "",
    "extraction_timestamp": "2025-06-07T16:04:35.425Z",
    "source_name": "google",
    "source_query": "Irrigation Equipment",
    "source_country": "IT",
    "country": "Italy",
    "state": "Emilia-Romagna",
    "city": "Rubiera"
  },
  {
    "source_id": "ChIJ53Yh1hPxf0cR0QSCBvc7oS8",
    "name": "ITALCER SPA SB",
    "category": "ITALCER SPA SB",
    "formatted_address": "5,0(2)",
    "phone_number": "+390522625111",
    "source_url": "https://www.google.com/maps/place/ITALCER+SPA+SB/data=!4m7!3m6!1s0x477ff113d62176e7:0x2fa13bf7068204d1!8m2!3d44.6513712!4d10.7689319!16s%2Fg%2F11qn79tj6x!19sChIJ53Yh1hPxf0cR0QSCBvc7oS8?authuser=0&hl=tr&rclk=1",
    "website_url": "https://www.gruppoitalcer.it/",
    "rating_text": "5,0",
    "stars": null,
    "number_of_reviews": null,
    "price_level": "",
    "open_hours": "",
    "extraction_timestamp": "2025-06-07T16:04:35.426Z",
    "source_name": "google",
    "source_query": "Irrigation Equipment",
    "source_country": "IT",
    "country": "Italy",
    "state": "Emilia-Romagna",
    "city": "Rubiera"
  },
  {
    "source_id": "ChIJWRJ_WMXxf0cRN-_yDRJAt5Q",
    "name": "OFFICINA RIPARAZIONI e VENDITA Macchine da giardino e agricole Rubiera di Malagoli Christian",
    "category": "OFFICINA RIPARAZIONI e VENDITA Macchine da giardino e agricole Rubiera di Malagoli Christian",
    "formatted_address": "5,0(2)",
    "phone_number": "+393518565348",
    "source_url": "https://www.google.com/maps/place/OFFICINA+RIPARAZIONI+e+VENDITA+Macchine+da+giardino+e+agricole+Rubiera+di+Malagoli+Christian/data=!4m7!3m6!1s0x477ff1c5587f1259:0x94b740120df2ef37!8m2!3d44.6558568!4d10.7893672!16s%2Fg%2F11x0mszwz9!19sChIJWRJ_WMXxf0cRN-_yDRJAt5Q?authuser=0&hl=tr&rclk=1",
    "website_url": "",
    "rating_text": "5,0",
    "stars": null,
    "number_of_reviews": null,
    "price_level": "",
    "open_hours": "",
    "extraction_timestamp": "2025-06-07T16:04:35.428Z",
    "source_name": "google",
    "source_query": "Irrigation Equipment",
    "source_country": "IT",
    "country": "Italy",
    "state": "Emilia-Romagna",
    "city": "Rubiera"
  },
  {
    "source_id": "ChIJ8S_H450fgEcRen1BwvkupIc",
    "name": "Agro-system Snc di Bassoli - Piscine e Macchine giardino - Reggio Emilia",
    "category": "Agro-system Snc di Bassoli - Piscine e Macchine giardino - Reggio Emilia",
    "formatted_address": "4,6(88)",
    "phone_number": "+390522954100",
    "source_url": "https://www.google.com/maps/place/Agro-system+Snc+di+Bassoli+-+Piscine+e+Macchine+giardino+-+Reggio+Emilia/data=!4m7!3m6!1s0x47801f9de3c72ff1:0x87a42ef9c2417d7a!8m2!3d44.797091!4d10.686568!16s%2Fg%2F1tfb5f45!19sChIJ8S_H450fgEcRen1BwvkupIc?authuser=0&hl=tr&rclk=1",
    "website_url": "https://agrosystem.info/",
    "rating_text": "4,6",
    "stars": null,
    "number_of_reviews": null,
    "price_level": "",
    "open_hours": "",
    "extraction_timestamp": "2025-06-07T16:04:35.429Z",
    "source_name": "google",
    "source_query": "Irrigation Equipment",
    "source_country": "IT",
    "country": "Italy",
    "state": "Emilia-Romagna",
    "city": "Rubiera"
  },
  {
    "source_id": "ChIJa3M2W0v3f0cRC5nlY8G69_A",
    "name": "Edilquattro Srl",
    "category": "Edilquattro Srl",
    "formatted_address": "4,2(27)",
    "phone_number": "+390522626322",
    "source_url": "https://www.google.com/maps/place/Edilquattro+Srl/data=!4m7!3m6!1s0x477ff74b5b36736b:0xf0f7bac163e5990b!8m2!3d44.6550317!4d10.7684!16s%2Fg%2F1hc1fdb22!19sChIJa3M2W0v3f0cRC5nlY8G69_A?authuser=0&hl=tr&rclk=1",
    "website_url": "https://edilquattro.bigmat.it/",
    "rating_text": "4,2",
    "stars": null,
    "number_of_reviews": null,
    "price_level": "",
    "open_hours": "",
    "extraction_timestamp": "2025-06-07T16:04:35.431Z",
    "source_name": "google",
    "source_query": "Irrigation Equipment",
    "source_country": "IT",
    "country": "Italy",
    "state": "Emilia-Romagna",
    "city": "Rubiera"
  },
  {
    "source_id": "ChIJN1xWPb_wf0cRtkMa_uVV71c",
    "name": "Oce Oleodinamica",
    "category": "Oce Oleodinamica",
    "formatted_address": "Üretici ·  · Via Filippo Brunelleschi, 11/CKapalı ⋅ Açılış zamanı: Pzt 08:00 · +39 0522 628787",
    "phone_number": "+390522628787",
    "source_url": "https://www.google.com/maps/place/Oce+Oleodinamica/data=!4m7!3m6!1s0x477ff0bf3d565c37:0x57ef55e5fe1a43b6!8m2!3d44.6553861!4d10.7893369!16s%2Fg%2F11dd_r1m60!19sChIJN1xWPb_wf0cRtkMa_uVV71c?authuser=0&hl=tr&rclk=1",
    "website_url": "http://ocere.it/",
    "rating_text": "",
    "stars": null,
    "number_of_reviews": null,
    "price_level": "",
    "open_hours": "",
    "extraction_timestamp": "2025-06-07T16:04:35.433Z",
    "source_name": "google",
    "source_query": "Irrigation Equipment",
    "source_country": "IT",
    "country": "Italy",
    "state": "Emilia-Romagna",
    "city": "Rubiera"
  },
  {
    "source_id": "ChIJhXQdA5Hxf0cRVu3Bp5B52D8",
    "name": "Modena Impianti Srl",
    "category": "Modena Impianti Srl",
    "formatted_address": "4,8(119)",
    "phone_number": "+39059525563",
    "source_url": "https://www.google.com/maps/place/Modena+Impianti+Srl/data=!4m7!3m6!1s0x477ff191031d7485:0x3fd87990a7c1ed56!8m2!3d44.6956675!4d10.8473379!16s%2Fg%2F11clhq8wcy!19sChIJhXQdA5Hxf0cRVu3Bp5B52D8?authuser=0&hl=tr&rclk=1",
    "website_url": "https://www.modenaimpianti.it/",
    "rating_text": "4,8",
    "stars": null,
    "number_of_reviews": null,
    "price_level": "",
    "open_hours": "",
    "extraction_timestamp": "2025-06-07T16:04:35.434Z",
    "source_name": "google",
    "source_query": "Irrigation Equipment",
    "source_country": "IT",
    "country": "Italy",
    "state": "Emilia-Romagna",
    "city": "Rubiera"
  },
  {
    "source_id": "ChIJQ0CSwgocgEcRVX3A3Ox6yyA",
    "name": "Gom-Plast",
    "category": "Gom-Plast",
    "formatted_address": "4,1(138)",
    "phone_number": "+390522382333",
    "source_url": "https://www.google.com/maps/place/Gom-Plast/data=!4m7!3m6!1s0x47801c0ac2924043:0x20cb7aecdcc07d55!8m2!3d44.7138804!4d10.6066999!16s%2Fg%2F1tcyd9rq!19sChIJQ0CSwgocgEcRVX3A3Ox6yyA?authuser=0&hl=tr&rclk=1",
    "website_url": "http://www.gomplast.it/",
    "rating_text": "4,1",
    "stars": null,
    "number_of_reviews": null,
    "price_level": "",
    "open_hours": "",
    "extraction_timestamp": "2025-06-07T16:04:35.435Z",
    "source_name": "google",
    "source_query": "Irrigation Equipment",
    "source_country": "IT",
    "country": "Italy",
    "state": "Emilia-Romagna",
    "city": "Rubiera"
  },
  {
    "source_id": "ChIJO9OcYtzvf0cRuaBD4UFA4Uc",
    "name": "Tecnomat",
    "category": "Tecnomat",
    "formatted_address": "4,5(10.652)",
    "phone_number": "+390283905463",
    "source_url": "https://www.google.com/maps/place/Tecnomat/data=!4m7!3m6!1s0x477fefdc629cd33b:0x47e14041e143a0b9!8m2!3d44.6532844!4d10.8720529!16s%2Fg%2F11gb3mdxcf!19sChIJO9OcYtzvf0cRuaBD4UFA4Uc?authuser=0&hl=tr&rclk=1",
    "website_url": "https://www.tecnomat.it/it/n/modena/?utm_campaign=MODENA_negozio_GMB&utm_content=sito_web&utm_medium=google_my_business&utm_source=google&utm_term=sito_web_MODENA_GMB",
    "rating_text": "4,5",
    "stars": null,
    "number_of_reviews": null,
    "price_level": "",
    "open_hours": "",
    "extraction_timestamp": "2025-06-07T16:04:35.439Z",
    "source_name": "google",
    "source_query": "Irrigation Equipment",
    "source_country": "IT",
    "country": "Italy",
    "state": "Emilia-Romagna",
    "city": "Rubiera"
  },
  {
    "source_id": "ChIJi24mSbsggEcRb26xfRLERzM",
    "name": "Garden Store",
    "category": "Garden Store",
    "formatted_address": "4,5(73)",
    "phone_number": "+393351499648",
    "source_url": "https://www.google.com/maps/place/Garden+Store/data=!4m7!3m6!1s0x478020bb49266e8b:0x3347c4127db16e6f!8m2!3d44.8472938!4d10.7413978!16s%2Fg%2F119x3dp7l!19sChIJi24mSbsggEcRb26xfRLERzM?authuser=0&hl=tr&rclk=1",
    "website_url": "http://www.gardenstoresrl.it/",
    "rating_text": "4,5",
    "stars": null,
    "number_of_reviews": null,
    "price_level": "",
    "open_hours": "",
    "extraction_timestamp": "2025-06-07T16:04:35.440Z",
    "source_name": "google",
    "source_query": "Irrigation Equipment",
    "source_country": "IT",
    "country": "Italy",
    "state": "Emilia-Romagna",
    "city": "Rubiera"
  },
  {
    "source_id": "ChIJgyFIM7P3f0cR-IOpDf5oIOU",
    "name": "Agri1 Reggio Emilia",
    "category": "Agri1 Reggio Emilia",
    "formatted_address": "4,5(144)",
    "phone_number": "+390522351584",
    "source_url": "https://www.google.com/maps/place/Agri1+Reggio+Emilia/data=!4m7!3m6!1s0x477ff7b333482183:0xe52068fe0da983f8!8m2!3d44.6698024!4d10.708226!16s%2Fg%2F1hc139g75!19sChIJgyFIM7P3f0cR-IOpDf5oIOU?authuser=0&hl=tr&rclk=1",
    "website_url": "https://www.agri1.it/",
    "rating_text": "4,5",
    "stars": null,
    "number_of_reviews": null,
    "price_level": "",
    "open_hours": "",
    "extraction_timestamp": "2025-06-07T16:04:35.441Z",
    "source_name": "google",
    "source_query": "Irrigation Equipment",
    "source_country": "IT",
    "country": "Italy",
    "state": "Emilia-Romagna",
    "city": "Rubiera"
  },
  {
    "source_id": "ChIJJ6V6lMDgf0cR1SpFsfjDuHg",
    "name": "Ocmis Irrigazione Spa",
    "category": "Ocmis Irrigazione Spa",
    "formatted_address": "3,5(31)",
    "phone_number": "+39059702150",
    "source_url": "https://www.google.com/maps/place/Ocmis+Irrigazione+Spa/data=!4m7!3m6!1s0x477fe0c0947aa527:0x78b8c3f8b1452ad5!8m2!3d44.530494!4d10.9794578!16s%2Fg%2F1vd3tn19!19sChIJJ6V6lMDgf0cR1SpFsfjDuHg?authuser=0&hl=tr&rclk=1",
    "website_url": "http://www.ocmis-irrigazione.it/",
    "rating_text": "3,5",
    "stars": null,
    "number_of_reviews": null,
    "price_level": "",
    "open_hours": "",
    "extraction_timestamp": "2025-06-07T16:04:35.443Z",
    "source_name": "google",
    "source_query": "Irrigation Equipment",
    "source_country": "IT",
    "country": "Italy",
    "state": "Emilia-Romagna",
    "city": "Rubiera"
  },
  {
    "source_id": "ChIJk3L8e73xf0cR4rUOdjKw7no",
    "name": "emilia market",
    "category": "emilia market",
    "formatted_address": "4,4(31)",
    "phone_number": "+3905221531892",
    "source_url": "https://www.google.com/maps/place/emilia+market/data=!4m7!3m6!1s0x477ff1bd7bfc7293:0x7aeeb032760eb5e2!8m2!3d44.6552481!4d10.7713584!16s%2Fg%2F11f62v_4_c!19sChIJk3L8e73xf0cR4rUOdjKw7no?authuser=0&hl=tr&rclk=1",
    "website_url": "",
    "rating_text": "4,4",
    "stars": null,
    "number_of_reviews": null,
    "price_level": "",
    "open_hours": "",
    "extraction_timestamp": "2025-06-07T16:04:35.444Z",
    "source_name": "google",
    "source_query": "Irrigation Equipment",
    "source_country": "IT",
    "country": "Italy",
    "state": "Emilia-Romagna",
    "city": "Rubiera"
  },
  {
    "source_id": "ChIJIaH9tLrwf0cRwhvMzjlCTXg",
    "name": "Caddy's",
    "category": "Caddy's",
    "formatted_address": "4,6(133)",
    "phone_number": "+390522627589",
    "source_url": "https://www.google.com/maps/place/Caddy%27s/data=!4m7!3m6!1s0x477ff0bab4fda121:0x784d4239cecc1bc2!8m2!3d44.6481014!4d10.7807915!16s%2Fg%2F1tncrrh3!19sChIJIaH9tLrwf0cRwhvMzjlCTXg?authuser=0&hl=tr&rclk=1",
    "website_url": "https://www.caddys.it/negozi/reggio-emilia/rubiera-viale-resistenza",
    "rating_text": "4,6",
    "stars": null,
    "number_of_reviews": null,
    "price_level": "",
    "open_hours": "",
    "extraction_timestamp": "2025-06-07T16:04:35.445Z",
    "source_name": "google",
    "source_query": "Irrigation Equipment",
    "source_country": "IT",
    "country": "Italy",
    "state": "Emilia-Romagna",
    "city": "Rubiera"
  },
  {
    "source_id": "ChIJ07xpx4jvf0cRI1GTwZjpT8g",
    "name": "Artigian Casa h24 di Misota Ivan - Fabbro Elettricista Idraulico",
    "category": "Artigian Casa h24 di Misota Ivan - Fabbro Elettricista Idraulico",
    "formatted_address": "Artigian Casa h24 di Misota Ivan - Fabbro Elettricista Idraulico",
    "phone_number": "+39320872048524",
    "source_url": "https://www.google.com/maps/place/Artigian+Casa+h24+di+Misota+Ivan+-+Fabbro+Elettricista+Idraulico/data=!4m7!3m6!1s0x477fef88c769bcd3:0xc84fe998c1935123!8m2!3d44.5684956!4d11.5107274!16s%2Fg%2F11kh4_p49l!19sChIJ07xpx4jvf0cRI1GTwZjpT8g?authuser=0&hl=tr&rclk=1",
    "website_url": "https://artigian.casa/",
    "rating_text": "4,4",
    "stars": null,
    "number_of_reviews": null,
    "price_level": "",
    "open_hours": "",
    "extraction_timestamp": "2025-06-07T16:04:35.446Z",
    "source_name": "google",
    "source_query": "Irrigation Equipment",
    "source_country": "IT",
    "country": "Italy",
    "state": "Emilia-Romagna",
    "city": "Rubiera"
  },
  {
    "source_id": "ChIJk9r3qIkegEcRDJFELpXf_6w",
    "name": "Sabart Srl",
    "category": "Sabart Srl",
    "formatted_address": "4,1(41)",
    "phone_number": "+390522508511",
    "source_url": "https://www.google.com/maps/place/Sabart+Srl/data=!4m7!3m6!1s0x47801e89a8f7da93:0xacffdf952e44910c!8m2!3d44.738198!4d10.65927!16s%2Fg%2F1wb8sk66!19sChIJk9r3qIkegEcRDJFELpXf_6w?authuser=0&hl=tr&rclk=1",
    "website_url": "http://www.sabart.it/",
    "rating_text": "4,1",
    "stars": null,
    "number_of_reviews": null,
    "price_level": "",
    "open_hours": "",
    "extraction_timestamp": "2025-06-07T16:04:35.448Z",
    "source_name": "google",
    "source_query": "Irrigation Equipment",
    "source_country": "IT",
    "country": "Italy",
    "state": "Emilia-Romagna",
    "city": "Rubiera"
  },
  {
    "source_id": "ChIJAdruoW0cgEcR3Gg91KmmNQw",
    "name": "Kramp Italia",
    "category": "Kramp Italia",
    "formatted_address": "4,7(18)",
    "phone_number": "+3905221712630",
    "source_url": "https://www.google.com/maps/place/Kramp+Italia/data=!4m7!3m6!1s0x47801c6da1eeda01:0xc35a6a9d43d68dc!8m2!3d44.711173!4d10.7080676!16s%2Fg%2F1hc4fppvw!19sChIJAdruoW0cgEcR3Gg91KmmNQw?authuser=0&hl=tr&rclk=1",
    "website_url": "https://www.kramp.com/shop-it/it?utm_source=google&utm_medium=organic&utm_campaign=gmb&utm_content=website",
    "rating_text": "4,7",
    "stars": null,
    "number_of_reviews": null,
    "price_level": "",
    "open_hours": "",
    "extraction_timestamp": "2025-06-07T16:04:35.449Z",
    "source_name": "google",
    "source_query": "Irrigation Equipment",
    "source_country": "IT",
    "country": "Italy",
    "state": "Emilia-Romagna",
    "city": "Rubiera"
  },
  {
    "source_id": "ChIJiVSvsQIdgEcR0PUcMFDq-Yg",
    "name": "Idrotim",
    "category": "Idrotim",
    "formatted_address": "5,0(5)",
    "phone_number": "+393387675768",
    "source_url": "https://www.google.com/maps/place/Idrotim/data=!4m7!3m6!1s0x47801d02b1af5489:0x88f9ea50301cf5d0!8m2!3d44.642221!4d10.671266!16s%2Fg%2F1tnhx5lh!19sChIJiVSvsQIdgEcR0PUcMFDq-Yg?authuser=0&hl=tr&rclk=1",
    "website_url": "http://www.idrotim.it/",
    "rating_text": "5,0",
    "stars": null,
    "number_of_reviews": null,
    "price_level": "",
    "open_hours": "",
    "extraction_timestamp": "2025-06-07T16:04:35.450Z",
    "source_name": "google",
    "source_query": "Irrigation Equipment",
    "source_country": "IT",
    "country": "Italy",
    "state": "Emilia-Romagna",
    "city": "Rubiera"
  },
  {
    "source_id": "ChIJ36EFbM_vf0cRQVPDXPOyqi8",
    "name": "Caprari",
    "category": "Caprari",
    "formatted_address": "4,2(22)",
    "phone_number": "",
    "source_url": "https://www.google.com/maps/place/Caprari/data=!4m7!3m6!1s0x477fefcf6c05a1df:0x2faab2f35cc35341!8m2!3d44.6582946!4d10.8809223!16s%2Fg%2F11f4wjg43c!19sChIJ36EFbM_vf0cRQVPDXPOyqi8?authuser=0&hl=tr&rclk=1",
    "website_url": "http://www.caprari.it/",
    "rating_text": "4,2",
    "stars": null,
    "number_of_reviews": null,
    "price_level": "",
    "open_hours": "",
    "extraction_timestamp": "2025-06-07T16:04:35.452Z",
    "source_name": "google",
    "source_query": "Irrigation Equipment",
    "source_country": "IT",
    "country": "Italy",
    "state": "Emilia-Romagna",
    "city": "Rubiera"
  }
]
