[
  {
    "source_id": "ChIJYfR0yX1ugEcRV6mM_Oe_toc",
    "name": "GEA",
    "category": "GEA",
    "formatted_address": "4,4(67)",
    "phone_number": "+390521839411",
    "source_url": "https://www.google.com/maps/place/GEA/data=!4m7!3m6!1s0x47806e7dc974f461:0x87b6bfe7fc8ca957!8m2!3d44.7256986!4d10.2292747!16s%2Fg%2F1tfq821f!19sChIJYfR0yX1ugEcRV6mM_Oe_toc?authuser=0&hl=tr&rclk=1",
    "website_url": "https://www.gea.com/",
    "rating_text": "4,4",
    "stars": null,
    "number_of_reviews": null,
    "price_level": "",
    "open_hours": "",
    "extraction_timestamp": "2025-06-07T16:24:12.849Z",
    "source_name": "google",
    "source_query": "Irrigation Equipment",
    "source_country": "IT",
    "country": "Italy",
    "state": "Emilia-Romagna",
    "city": "Sala Baganza"
  },
  {
    "source_id": "ChIJtVDkNgRFgEcRqc6umwWIJuI",
    "name": "Rm Spa",
    "category": "Rm Spa",
    "formatted_address": "4,6(81)",
    "phone_number": "+390521872321",
    "source_url": "https://www.google.com/maps/place/Rm+Spa/data=!4m7!3m6!1s0x4780450436e450b5:0xe22688059baecea9!8m2!3d44.9105406!4d10.2583785!16s%2Fg%2F12hl93byl!19sChIJtVDkNgRFgEcRqc6umwWIJuI?authuser=0&hl=tr&rclk=1",
    "website_url": "http://www.rmirrigation.com/",
    "rating_text": "4,6",
    "stars": null,
    "number_of_reviews": null,
    "price_level": "",
    "open_hours": "",
    "extraction_timestamp": "2025-06-07T16:24:12.851Z",
    "source_name": "google",
    "source_query": "Irrigation Equipment",
    "source_country": "IT",
    "country": "Italy",
    "state": "Emilia-Romagna",
    "city": "Sala Baganza"
  },
  {
    "source_id": "ChIJ37XCv35ugEcRel6abpUt9Ik",
    "name": "Artide srl",
    "category": "Artide srl",
    "formatted_address": "5,0(5)",
    "phone_number": "+390521833702",
    "source_url": "https://www.google.com/maps/place/Artide+srl/data=!4m7!3m6!1s0x47806e7ebfc2b5df:0x89f42d956e9a5e7a!8m2!3d44.7229417!4d10.2317667!16s%2Fg%2F1wk6ymf8!19sChIJ37XCv35ugEcRel6abpUt9Ik?authuser=0&hl=tr&rclk=1",
    "website_url": "https://www.artide.it/",
    "rating_text": "5,0",
    "stars": null,
    "number_of_reviews": null,
    "price_level": "",
    "open_hours": "",
    "extraction_timestamp": "2025-06-07T16:24:12.852Z",
    "source_name": "google",
    "source_query": "Irrigation Equipment",
    "source_country": "IT",
    "country": "Italy",
    "state": "Emilia-Romagna",
    "city": "Sala Baganza"
  },
  {
    "source_id": "ChIJI04ZUd9tgEcR0B24kowyAcY",
    "name": "Moreni Tullo & C. Srl",
    "category": "Moreni Tullo & C. Srl",
    "formatted_address": "4,4(9)",
    "phone_number": "+390521833264",
    "source_url": "https://www.google.com/maps/place/Moreni+Tullo+%26+C.+Srl/data=!4m7!3m6!1s0x47806ddf51194e23:0xc601328c92b81dd0!8m2!3d44.7176968!4d10.2332634!16s%2Fg%2F1tfd17gm!19sChIJI04ZUd9tgEcR0B24kowyAcY?authuser=0&hl=tr&rclk=1",
    "website_url": "",
    "rating_text": "4,4",
    "stars": null,
    "number_of_reviews": null,
    "price_level": "",
    "open_hours": "",
    "extraction_timestamp": "2025-06-07T16:24:12.854Z",
    "source_name": "google",
    "source_query": "Irrigation Equipment",
    "source_country": "IT",
    "country": "Italy",
    "state": "Emilia-Romagna",
    "city": "Sala Baganza"
  },
  {
    "source_id": "ChIJoWn3Mt1ugEcRuJFECy0B-Rs",
    "name": "Maini Giardinaggio",
    "category": "Maini Giardinaggio",
    "formatted_address": "",
    "phone_number": "+393466905853",
    "source_url": "https://www.google.com/maps/place/Maini+Giardinaggio/data=!4m7!3m6!1s0x47806edd32f769a1:0x1bf9012d0b4491b8!8m2!3d41.29085!4d12.71216!16s%2Fg%2F1tg6tkcp!19sChIJoWn3Mt1ugEcRuJFECy0B-Rs?authuser=0&hl=tr&rclk=1",
    "website_url": "",
    "rating_text": "",
    "stars": null,
    "number_of_reviews": null,
    "price_level": "",
    "open_hours": "",
    "extraction_timestamp": "2025-06-07T16:24:12.855Z",
    "source_name": "google",
    "source_query": "Irrigation Equipment",
    "source_country": "IT",
    "country": "Italy",
    "state": "Emilia-Romagna",
    "city": "Sala Baganza"
  }
]
