[
  {
    "source_id": "ChIJU4k8l8ZhgEcR8GuH7Z1iewQ",
    "name": "C.s.a. srl",
    "category": "C.s.a. srl",
    "formatted_address": "4,6(12)",
    "phone_number": "+390524523978",
    "source_url": "https://www.google.com/maps/place/C.s.a.+srl/data=!4m7!3m6!1s0x478061c6973c8953:0x47b629ded876bf0!8m2!3d44.8392168!4d10.0169961!16s%2Fg%2F1tkqz31s!19sChIJU4k8l8ZhgEcR8GuH7Z1iewQ?authuser=0&hl=tr&rclk=1",
    "website_url": "",
    "rating_text": "4,6",
    "stars": null,
    "number_of_reviews": null,
    "price_level": "",
    "open_hours": "",
    "extraction_timestamp": "2025-06-07T15:42:13.316Z",
    "source_name": "google",
    "source_query": "Irrigation Equipment",
    "source_country": "IT",
    "country": "Italy",
    "state": "Emilia-Romagna",
    "city": "Salsomaggiore Terme"
  },
  {
    "source_id": "ChIJUQp2IXSKgEcRW0nfEsWzEBc",
    "name": "Agraria Dioni di Dioni Pierluigi &C SNC",
    "category": "Agraria Dioni di Dioni Pierluigi &C SNC",
    "formatted_address": "4,6(72)",
    "phone_number": "+390524573347",
    "source_url": "https://www.google.com/maps/place/Agraria+Dioni+di+Dioni+Pierluigi+%26C+SNC/data=!4m7!3m6!1s0x47808a7421760a51:0x1710b3c512df495b!8m2!3d44.8103996!4d9.9819385!16s%2Fg%2F1tycvhlj!19sChIJUQp2IXSKgEcRW0nfEsWzEBc?authuser=0&hl=tr&rclk=1",
    "website_url": "",
    "rating_text": "4,6",
    "stars": null,
    "number_of_reviews": null,
    "price_level": "",
    "open_hours": "",
    "extraction_timestamp": "2025-06-07T15:42:13.316Z",
    "source_name": "google",
    "source_query": "Irrigation Equipment",
    "source_country": "IT",
    "country": "Italy",
    "state": "Emilia-Romagna",
    "city": "Salsomaggiore Terme"
  },
  {
    "source_id": "ChIJtVDkNgRFgEcRqc6umwWIJuI",
    "name": "Rm Spa",
    "category": "Rm Spa",
    "formatted_address": "4,6(81)",
    "phone_number": "+390521872321",
    "source_url": "https://www.google.com/maps/place/Rm+Spa/data=!4m7!3m6!1s0x4780450436e450b5:0xe22688059baecea9!8m2!3d44.9105406!4d10.2583785!16s%2Fg%2F12hl93byl!19sChIJtVDkNgRFgEcRqc6umwWIJuI?authuser=0&hl=tr&rclk=1",
    "website_url": "",
    "rating_text": "4,6",
    "stars": null,
    "number_of_reviews": null,
    "price_level": "",
    "open_hours": "",
    "extraction_timestamp": "2025-06-07T15:42:13.316Z",
    "source_name": "google",
    "source_query": "Irrigation Equipment",
    "source_country": "IT",
    "country": "Italy",
    "state": "Emilia-Romagna",
    "city": "Salsomaggiore Terme"
  },
  {
    "source_id": "ChIJl-5pY3-KgEcR_lyEZ-bB-XA",
    "name": "Hobby Market Di Lindori Franco",
    "category": "Hobby Market Di Lindori Franco",
    "formatted_address": "4,7(118)",
    "phone_number": "+390524578990",
    "source_url": "https://www.google.com/maps/place/Hobby+Market+Di+Lindori+Franco/data=!4m7!3m6!1s0x47808a7f6369ee97:0x70f9c1e667845cfe!8m2!3d44.8212054!4d9.9895958!16s%2Fg%2F11g8xcs8lz!19sChIJl-5pY3-KgEcR_lyEZ-bB-XA?authuser=0&hl=tr&rclk=1",
    "website_url": "",
    "rating_text": "4,7",
    "stars": null,
    "number_of_reviews": null,
    "price_level": "",
    "open_hours": "",
    "extraction_timestamp": "2025-06-07T15:42:13.317Z",
    "source_name": "google",
    "source_query": "Irrigation Equipment",
    "source_country": "IT",
    "country": "Italy",
    "state": "Emilia-Romagna",
    "city": "Salsomaggiore Terme"
  },
  {
    "source_id": "ChIJrTizh3yKgEcRRUIDZQtIT-k",
    "name": "Termoidraulica GL di Gallo Luigi",
    "category": "Termoidraulica GL di Gallo Luigi",
    "formatted_address": "4,8(25)",
    "phone_number": "+393479079363",
    "source_url": "https://www.google.com/maps/place/Termoidraulica+GL+di+Gallo+Luigi/data=!4m7!3m6!1s0x47808a7c87b338ad:0xe94f480b65034245!8m2!3d44.8230212!4d10.0003393!16s%2Fg%2F11g6nllmb7!19sChIJrTizh3yKgEcRRUIDZQtIT-k?authuser=0&hl=tr&rclk=1",
    "website_url": "",
    "rating_text": "4,8",
    "stars": null,
    "number_of_reviews": null,
    "price_level": "",
    "open_hours": "",
    "extraction_timestamp": "2025-06-07T15:42:13.317Z",
    "source_name": "google",
    "source_query": "Irrigation Equipment",
    "source_country": "IT",
    "country": "Italy",
    "state": "Emilia-Romagna",
    "city": "Salsomaggiore Terme"
  },
  {
    "source_id": "ChIJcVl9ULJhgEcRbGcT6JofpE0",
    "name": "Sirmax New Life Srl - Circular Polymers",
    "category": "Sirmax New Life Srl - Circular Polymers",
    "formatted_address": "3,8(13)",
    "phone_number": "+390524071711",
    "source_url": "https://www.google.com/maps/place/Sirmax+New+Life+Srl+-+Circular+Polymers/data=!4m7!3m6!1s0x478061b2507d5971:0x4da41f9ae813676c!8m2!3d44.8409309!4d10.0181637!16s%2Fg%2F1tfq820_!19sChIJcVl9ULJhgEcRbGcT6JofpE0?authuser=0&hl=tr&rclk=1",
    "website_url": "",
    "rating_text": "3,8",
    "stars": null,
    "number_of_reviews": null,
    "price_level": "",
    "open_hours": "",
    "extraction_timestamp": "2025-06-07T15:42:13.317Z",
    "source_name": "google",
    "source_query": "Irrigation Equipment",
    "source_country": "IT",
    "country": "Italy",
    "state": "Emilia-Romagna",
    "city": "Salsomaggiore Terme"
  },
  {
    "source_id": "ChIJV4c9dwphgEcR5VmwNi1ruYM",
    "name": "Brico Ok - Salsomaggiore",
    "category": "Brico Ok - Salsomaggiore",
    "formatted_address": "4,4(105)",
    "phone_number": "+390524730057",
    "source_url": "https://www.google.com/maps/place/Brico+Ok+-+Salsomaggiore/data=!4m7!3m6!1s0x4780610a773d8757:0x83b96b2d36b059e5!8m2!3d44.822144!4d9.9976954!16s%2Fg%2F11thqtbf8d!19sChIJV4c9dwphgEcR5VmwNi1ruYM?authuser=0&hl=tr&rclk=1",
    "website_url": "",
    "rating_text": "4,4",
    "stars": null,
    "number_of_reviews": null,
    "price_level": "",
    "open_hours": "",
    "extraction_timestamp": "2025-06-07T15:42:13.318Z",
    "source_name": "google",
    "source_query": "Irrigation Equipment",
    "source_country": "IT",
    "country": "Italy",
    "state": "Emilia-Romagna",
    "city": "Salsomaggiore Terme"
  }
]
