[
  {
    "source_id": "ChIJh3Nd8G0sfkcR_m7VewEmxXM",
    "name": "Irrigarden",
    "category": "Irrigarden",
    "formatted_address": "4,7(158)",
    "phone_number": "+39051782013",
    "source_url": "https://www.google.com/maps/place/Irrigarden/data=!4m7!3m6!1s0x477e2c6df05d7387:0x73c526017bd56efe!8m2!3d44.5096266!4d11.4390897!16s%2Fg%2F1vgw_l7w!19sChIJh3Nd8G0sfkcR_m7VewEmxXM?authuser=0&hl=tr&rclk=1",
    "website_url": "",
    "rating_text": "4,7",
    "stars": null,
    "number_of_reviews": null,
    "price_level": "",
    "open_hours": "",
    "extraction_timestamp": "2025-06-07T16:09:01.320Z",
    "source_name": "google",
    "source_query": "Irrigation Equipment",
    "source_country": "IT",
    "country": "Italy",
    "state": "Emilia-Romagna",
    "city": "San Lazzaro"
  },
  {
    "source_id": "ChIJE_3jOnMtfkcRkxtTFj3Ym9E",
    "name": "Irrigation Scarabelli Srl",
    "category": "Irrigation Scarabelli Srl",
    "formatted_address": "4,5(23)",
    "phone_number": "+39051763363",
    "source_url": "https://www.google.com/maps/place/Irrigation+Scarabelli+Srl/data=!4m7!3m6!1s0x477e2d733ae3fd13:0xd19bd83d16531b93!8m2!3d44.5426053!4d11.4189136!16s%2Fg%2F11gzdz6vf!19sChIJE_3jOnMtfkcRkxtTFj3Ym9E?authuser=0&hl=tr&rclk=1",
    "website_url": "",
    "rating_text": "4,5",
    "stars": null,
    "number_of_reviews": null,
    "price_level": "",
    "open_hours": "",
    "extraction_timestamp": "2025-06-07T16:09:01.321Z",
    "source_name": "google",
    "source_query": "Irrigation Equipment",
    "source_country": "IT",
    "country": "Italy",
    "state": "Emilia-Romagna",
    "city": "San Lazzaro"
  },
  {
    "source_id": "ChIJ_SYf2IMsfkcRVw9xVhrnjyI",
    "name": "Irrigazione Bragaglia",
    "category": "Irrigazione Bragaglia",
    "formatted_address": "4,7(30)",
    "phone_number": "+39051534865",
    "source_url": "https://www.google.com/maps/place/Irrigazione+Bragaglia/data=!4m7!3m6!1s0x477e2c83d81f26fd:0x228fe71a56710f57!8m2!3d44.5053735!4d11.412403!16s%2Fg%2F1vp6z0gf!19sChIJ_SYf2IMsfkcRVw9xVhrnjyI?authuser=0&hl=tr&rclk=1",
    "website_url": "",
    "rating_text": "4,7",
    "stars": null,
    "number_of_reviews": null,
    "price_level": "",
    "open_hours": "",
    "extraction_timestamp": "2025-06-07T16:09:01.322Z",
    "source_name": "google",
    "source_query": "Irrigation Equipment",
    "source_country": "IT",
    "country": "Italy",
    "state": "Emilia-Romagna",
    "city": "San Lazzaro"
  },
  {
    "source_id": "ChIJ-cbSVrUrfkcR8LHr2M4V5bM",
    "name": "GDE SPA - San Lazzaro",
    "category": "GDE SPA - San Lazzaro",
    "formatted_address": "4,1(64)",
    "phone_number": "+390516255480",
    "source_url": "https://www.google.com/maps/place/GDE+SPA+-+San+Lazzaro/data=!4m7!3m6!1s0x477e2bb556d2c6f9:0xb3e515ced8ebb1f0!8m2!3d44.4673896!4d11.432555!16s%2Fg%2F1hc11mfkx!19sChIJ-cbSVrUrfkcR8LHr2M4V5bM?authuser=0&hl=tr&rclk=1",
    "website_url": "",
    "rating_text": "4,1",
    "stars": null,
    "number_of_reviews": null,
    "price_level": "",
    "open_hours": "",
    "extraction_timestamp": "2025-06-07T16:09:01.323Z",
    "source_name": "google",
    "source_query": "Irrigation Equipment",
    "source_country": "IT",
    "country": "Italy",
    "state": "Emilia-Romagna",
    "city": "San Lazzaro"
  },
  {
    "source_id": "ChIJAaXVCaYrfkcRUOVX8esS5u4",
    "name": "CVP Italia",
    "category": "CVP Italia",
    "formatted_address": "4,1(56)",
    "phone_number": "+390516270637",
    "source_url": "https://www.google.com/maps/place/CVP+Italia/data=!4m7!3m6!1s0x477e2ba609d5a501:0xeee612ebf157e550!8m2!3d44.4749635!4d11.4125056!16s%2Fg%2F1tfgc1zw!19sChIJAaXVCaYrfkcRUOVX8esS5u4?authuser=0&hl=tr&rclk=1",
    "website_url": "",
    "rating_text": "4,1",
    "stars": null,
    "number_of_reviews": null,
    "price_level": "",
    "open_hours": "",
    "extraction_timestamp": "2025-06-07T16:09:01.324Z",
    "source_name": "google",
    "source_query": "Irrigation Equipment",
    "source_country": "IT",
    "country": "Italy",
    "state": "Emilia-Romagna",
    "city": "San Lazzaro"
  },
  {
    "source_id": "ChIJneG4xqQrfkcRXZ2DBzQAOco",
    "name": "Elettromeccanica Gruppioni",
    "category": "Elettromeccanica Gruppioni",
    "formatted_address": "4,1(7)",
    "phone_number": "+39051462110",
    "source_url": "https://www.google.com/maps/place/Elettromeccanica+Gruppioni/data=!4m7!3m6!1s0x477e2ba4c6b8e19d:0xca39003407839d5d!8m2!3d44.4774004!4d11.4187028!16s%2Fg%2F1wc46tr7!19sChIJneG4xqQrfkcRXZ2DBzQAOco?authuser=0&hl=tr&rclk=1",
    "website_url": "",
    "rating_text": "4,1",
    "stars": null,
    "number_of_reviews": null,
    "price_level": "",
    "open_hours": "",
    "extraction_timestamp": "2025-06-07T16:09:01.325Z",
    "source_name": "google",
    "source_query": "Irrigation Equipment",
    "source_country": "IT",
    "country": "Italy",
    "state": "Emilia-Romagna",
    "city": "San Lazzaro"
  },
  {
    "source_id": "ChIJyXgg68QrfkcRAaJCOMJ3PxY",
    "name": "hidrisistem",
    "category": "hidrisistem",
    "formatted_address": "5,0(1)",
    "phone_number": "+39366448310824",
    "source_url": "https://www.google.com/maps/place/hidrisistem/data=!4m7!3m6!1s0x477e2bc4eb2078c9:0x163f77c23842a201!8m2!3d44.496029!4d11.402638!16s%2Fg%2F11w_zjhjy3!19sChIJyXgg68QrfkcRAaJCOMJ3PxY?authuser=0&hl=tr&rclk=1",
    "website_url": "",
    "rating_text": "5,0",
    "stars": null,
    "number_of_reviews": null,
    "price_level": "",
    "open_hours": "",
    "extraction_timestamp": "2025-06-07T16:09:01.325Z",
    "source_name": "google",
    "source_query": "Irrigation Equipment",
    "source_country": "IT",
    "country": "Italy",
    "state": "Emilia-Romagna",
    "city": "San Lazzaro"
  },
  {
    "source_id": "ChIJD3GnSKQrfkcRG7eRhJjDThw",
    "name": "Cambielli S.p.A.",
    "category": "Cambielli S.p.A.",
    "formatted_address": "3,9(73)",
    "phone_number": "+390516277011",
    "source_url": "https://www.google.com/maps/place/Cambielli+S.p.A./data=!4m7!3m6!1s0x477e2ba448a7710f:0x1c4ec3988491b71b!8m2!3d44.4775379!4d11.415555!16s%2Fg%2F1tkv8ly6!19sChIJD3GnSKQrfkcRG7eRhJjDThw?authuser=0&hl=tr&rclk=1",
    "website_url": "",
    "rating_text": "3,9",
    "stars": null,
    "number_of_reviews": null,
    "price_level": "",
    "open_hours": "",
    "extraction_timestamp": "2025-06-07T16:09:01.326Z",
    "source_name": "google",
    "source_query": "Irrigation Equipment",
    "source_country": "IT",
    "country": "Italy",
    "state": "Emilia-Romagna",
    "city": "San Lazzaro"
  },
  {
    "source_id": "ChIJ0-sTHsorfkcRUbs8MgboIFU",
    "name": "Ecoplus Group",
    "category": "Ecoplus Group",
    "formatted_address": "5,0(1)",
    "phone_number": "+390516259183",
    "source_url": "https://www.google.com/maps/place/Ecoplus+Group/data=!4m7!3m6!1s0x477e2bca1e13ebd3:0x5520e806323cbb51!8m2!3d44.4678118!4d11.4300801!16s%2Fg%2F1wj_s313!19sChIJ0-sTHsorfkcRUbs8MgboIFU?authuser=0&hl=tr&rclk=1",
    "website_url": "",
    "rating_text": "5,0",
    "stars": null,
    "number_of_reviews": null,
    "price_level": "",
    "open_hours": "",
    "extraction_timestamp": "2025-06-07T16:09:01.328Z",
    "source_name": "google",
    "source_query": "Irrigation Equipment",
    "source_country": "IT",
    "country": "Italy",
    "state": "Emilia-Romagna",
    "city": "San Lazzaro"
  },
  {
    "source_id": "ChIJRZtdJqYrfkcR8Hs4pOjX-w4",
    "name": "Italgarden (S.R.L.) - Prodotti per il Giardinaggio",
    "category": "Italgarden (S.R.L.) - Prodotti per il Giardinaggio",
    "formatted_address": "4,6(5)",
    "phone_number": "+39051453413",
    "source_url": "https://www.google.com/maps/place/Italgarden+%28S.R.L.%29+-+Prodotti+per+il+Giardinaggio/data=!4m7!3m6!1s0x477e2ba6265d9b45:0xefbd7e8a4387bf0!8m2!3d44.470224!4d11.4290552!16s%2Fg%2F1hc4dfqbr!19sChIJRZtdJqYrfkcR8Hs4pOjX-w4?authuser=0&hl=tr&rclk=1",
    "website_url": "",
    "rating_text": "4,6",
    "stars": null,
    "number_of_reviews": null,
    "price_level": "",
    "open_hours": "",
    "extraction_timestamp": "2025-06-07T16:09:01.328Z",
    "source_name": "google",
    "source_query": "Irrigation Equipment",
    "source_country": "IT",
    "country": "Italy",
    "state": "Emilia-Romagna",
    "city": "San Lazzaro"
  },
  {
    "source_id": "ChIJI_Yx0MgrfkcRfkeGxrLfjdU",
    "name": "OPIELLE IMPIANTI S.R.L. Oleodinamica-Pneumatica-Lubrificazione",
    "category": "OPIELLE IMPIANTI S.R.L. Oleodinamica-Pneumatica-Lubrificazione",
    "formatted_address": "5,0(2)",
    "phone_number": "+390510933969",
    "source_url": "https://www.google.com/maps/place/OPIELLE+IMPIANTI+S.R.L.+Oleodinamica-Pneumatica-Lubrificazione/data=!4m7!3m6!1s0x477e2bc8d031f623:0xd58ddfb2c686477e!8m2!3d44.470623!4d11.4344806!16s%2Fg%2F11xbwjc09!19sChIJI_Yx0MgrfkcRfkeGxrLfjdU?authuser=0&hl=tr&rclk=1",
    "website_url": "",
    "rating_text": "5,0",
    "stars": null,
    "number_of_reviews": null,
    "price_level": "",
    "open_hours": "",
    "extraction_timestamp": "2025-06-07T16:09:01.329Z",
    "source_name": "google",
    "source_query": "Irrigation Equipment",
    "source_country": "IT",
    "country": "Italy",
    "state": "Emilia-Romagna",
    "city": "San Lazzaro"
  },
  {
    "source_id": "ChIJxyobw7QrfkcR7HqTqxS-ufk",
    "name": "Calzoni Paolo",
    "category": "Calzoni Paolo",
    "formatted_address": "4,7(121)",
    "phone_number": "+390516256916",
    "source_url": "https://www.google.com/maps/place/Calzoni+Paolo/data=!4m7!3m6!1s0x477e2bb4c31b2ac7:0xf9b9be14ab937aec!8m2!3d44.4651587!4d11.4225057!16s%2Fg%2F1hc0r72zq!19sChIJxyobw7QrfkcR7HqTqxS-ufk?authuser=0&hl=tr&rclk=1",
    "website_url": "",
    "rating_text": "4,7",
    "stars": null,
    "number_of_reviews": null,
    "price_level": "",
    "open_hours": "",
    "extraction_timestamp": "2025-06-07T16:09:01.330Z",
    "source_name": "google",
    "source_query": "Irrigation Equipment",
    "source_country": "IT",
    "country": "Italy",
    "state": "Emilia-Romagna",
    "city": "San Lazzaro"
  },
  {
    "source_id": "ChIJj6lqi20sfkcRzOHfxextuA0",
    "name": "La Pioggia",
    "category": "La Pioggia",
    "formatted_address": "4,6(54)",
    "phone_number": "+39051781194",
    "source_url": "https://www.google.com/maps/place/La+Pioggia/data=!4m7!3m6!1s0x477e2c6d8b6aa98f:0xdb86decc5dfe1cc!8m2!3d44.5092215!4d11.4394615!16s%2Fg%2F1tffc0h0!19sChIJj6lqi20sfkcRzOHfxextuA0?authuser=0&hl=tr&rclk=1",
    "website_url": "",
    "rating_text": "4,6",
    "stars": null,
    "number_of_reviews": null,
    "price_level": "",
    "open_hours": "",
    "extraction_timestamp": "2025-06-07T16:09:01.356Z",
    "source_name": "google",
    "source_query": "Irrigation Equipment",
    "source_country": "IT",
    "country": "Italy",
    "state": "Emilia-Romagna",
    "city": "San Lazzaro"
  },
  {
    "source_id": "ChIJB_C5irArfkcRrt0ziSZNtWc",
    "name": "Aldo Martelli & C.",
    "category": "Aldo Martelli & C.",
    "formatted_address": "4,2(15)",
    "phone_number": "+39051452803",
    "source_url": "https://www.google.com/maps/place/Aldo+Martelli+%26+C./data=!4m7!3m6!1s0x477e2bb08ab9f007:0x67b54d268933ddae!8m2!3d44.4713914!4d11.4201325!16s%2Fg%2F1tf0pg3f!19sChIJB_C5irArfkcRrt0ziSZNtWc?authuser=0&hl=tr&rclk=1",
    "website_url": "",
    "rating_text": "4,2",
    "stars": null,
    "number_of_reviews": null,
    "price_level": "",
    "open_hours": "",
    "extraction_timestamp": "2025-06-07T16:09:01.358Z",
    "source_name": "google",
    "source_query": "Irrigation Equipment",
    "source_country": "IT",
    "country": "Italy",
    "state": "Emilia-Romagna",
    "city": "San Lazzaro"
  },
  {
    "source_id": "ChIJVVWVJcsrfkcRSwQT8LYyVBE",
    "name": "Hydrorider",
    "category": "Hydrorider",
    "formatted_address": "4,9(23)",
    "phone_number": "+39051461110",
    "source_url": "https://www.google.com/maps/place/Hydrorider/data=!4m7!3m6!1s0x477e2bcb25955555:0x115432b6f013044b!8m2!3d44.464233!4d11.4292333!16s%2Fg%2F11f77bs8c4!19sChIJVVWVJcsrfkcRSwQT8LYyVBE?authuser=0&hl=tr&rclk=1",
    "website_url": "",
    "rating_text": "4,9",
    "stars": null,
    "number_of_reviews": null,
    "price_level": "",
    "open_hours": "",
    "extraction_timestamp": "2025-06-07T16:09:01.359Z",
    "source_name": "google",
    "source_query": "Irrigation Equipment",
    "source_country": "IT",
    "country": "Italy",
    "state": "Emilia-Romagna",
    "city": "San Lazzaro"
  },
  {
    "source_id": "ChIJkddWCaorfkcRaP_60C3gSlg",
    "name": "Fantazzini Impianti S.a.s.",
    "category": "Fantazzini Impianti S.a.s.",
    "formatted_address": "4,7(12)",
    "phone_number": "+39051461288",
    "source_url": "https://www.google.com/maps/place/Fantazzini+Impianti+S.a.s./data=!4m7!3m6!1s0x477e2baa0956d791:0x584ae02dd0faff68!8m2!3d44.4783424!4d11.4169895!16s%2Fg%2F1tflqvqw!19sChIJkddWCaorfkcRaP_60C3gSlg?authuser=0&hl=tr&rclk=1",
    "website_url": "",
    "rating_text": "4,7",
    "stars": null,
    "number_of_reviews": null,
    "price_level": "",
    "open_hours": "",
    "extraction_timestamp": "2025-06-07T16:09:01.359Z",
    "source_name": "google",
    "source_query": "Irrigation Equipment",
    "source_country": "IT",
    "country": "Italy",
    "state": "Emilia-Romagna",
    "city": "San Lazzaro"
  },
  {
    "source_id": "ChIJLxYM0PwtfkcRRuD5O0CqjLk",
    "name": "San Lazzaro acque minerali",
    "category": "San Lazzaro acque minerali",
    "formatted_address": "4,6(18)",
    "phone_number": "+390516053226",
    "source_url": "https://www.google.com/maps/place/San+Lazzaro+acque+minerali/data=!4m7!3m6!1s0x477e2dfcd00c162f:0xb98caa403bf9e046!8m2!3d44.4753068!4d11.4103615!16s%2Fg%2F11qsfj44b2!19sChIJLxYM0PwtfkcRRuD5O0CqjLk?authuser=0&hl=tr&rclk=1",
    "website_url": "",
    "rating_text": "4,6",
    "stars": null,
    "number_of_reviews": null,
    "price_level": "",
    "open_hours": "",
    "extraction_timestamp": "2025-06-07T16:09:01.360Z",
    "source_name": "google",
    "source_query": "Irrigation Equipment",
    "source_country": "IT",
    "country": "Italy",
    "state": "Emilia-Romagna",
    "city": "San Lazzaro"
  },
  {
    "source_id": "ChIJw8FIaNwrfkcRlGhHlAIMfhQ",
    "name": "CAE S.p.A.",
    "category": "CAE S.p.A.",
    "formatted_address": "3,9(38)",
    "phone_number": "+390514992711",
    "source_url": "https://www.google.com/maps/place/CAE+S.p.A./data=!4m7!3m6!1s0x477e2bdc6848c1c3:0x147e0c0294476894!8m2!3d44.4769719!4d11.4513025!16s%2Fg%2F1v26kyxw!19sChIJw8FIaNwrfkcRlGhHlAIMfhQ?authuser=0&hl=tr&rclk=1",
    "website_url": "",
    "rating_text": "3,9",
    "stars": null,
    "number_of_reviews": null,
    "price_level": "",
    "open_hours": "",
    "extraction_timestamp": "2025-06-07T16:09:01.362Z",
    "source_name": "google",
    "source_query": "Irrigation Equipment",
    "source_country": "IT",
    "country": "Italy",
    "state": "Emilia-Romagna",
    "city": "San Lazzaro"
  },
  {
    "source_id": "ChIJsY3C28grfkcRw2ayR_AZvtY",
    "name": "ARCE Equipment",
    "category": "ARCE Equipment",
    "formatted_address": "5,0(4)",
    "phone_number": "+39800688319",
    "source_url": "https://www.google.com/maps/place/ARCE+Equipment/data=!4m7!3m6!1s0x477e2bc8dbc28db1:0xd6be19f047b266c3!8m2!3d44.470487!4d11.4332498!16s%2Fg%2F11fz9yspc6!19sChIJsY3C28grfkcRw2ayR_AZvtY?authuser=0&hl=tr&rclk=1",
    "website_url": "",
    "rating_text": "5,0",
    "stars": null,
    "number_of_reviews": null,
    "price_level": "",
    "open_hours": "",
    "extraction_timestamp": "2025-06-07T16:09:01.363Z",
    "source_name": "google",
    "source_query": "Irrigation Equipment",
    "source_country": "IT",
    "country": "Italy",
    "state": "Emilia-Romagna",
    "city": "San Lazzaro"
  },
  {
    "source_id": "ChIJDxCwZLIrfkcRToCMukTi_4k",
    "name": "ETERNOO",
    "category": "ETERNOO",
    "formatted_address": "4,2(139)",
    "phone_number": "+39051453344",
    "source_url": "https://www.google.com/maps/place/ETERNOO/data=!4m7!3m6!1s0x477e2bb264b0100f:0x89ffe244ba8c804e!8m2!3d44.4676913!4d11.415433!16s%2Fg%2F1tjth34j!19sChIJDxCwZLIrfkcRToCMukTi_4k?authuser=0&hl=tr&rclk=1",
    "website_url": "",
    "rating_text": "4,2",
    "stars": null,
    "number_of_reviews": null,
    "price_level": "",
    "open_hours": "",
    "extraction_timestamp": "2025-06-07T16:09:01.364Z",
    "source_name": "google",
    "source_query": "Irrigation Equipment",
    "source_country": "IT",
    "country": "Italy",
    "state": "Emilia-Romagna",
    "city": "San Lazzaro"
  },
  {
    "source_id": "ChIJR8uisJgsfkcRn9vRjt4iIP0",
    "name": "DeltaGas Assistenza Caldaie",
    "category": "DeltaGas Assistenza Caldaie",
    "formatted_address": "4,7(190)",
    "phone_number": "+393382821271",
    "source_url": "https://www.google.com/maps/place/DeltaGas+Assistenza+Caldaie/data=!4m7!3m6!1s0x477e2c98b0a2cb47:0xfd2022de8ed1db9f!8m2!3d44.4886529!4d11.3769967!16s%2Fg%2F12ht1y69j!19sChIJR8uisJgsfkcRn9vRjt4iIP0?authuser=0&hl=tr&rclk=1",
    "website_url": "",
    "rating_text": "4,7",
    "stars": null,
    "number_of_reviews": null,
    "price_level": "",
    "open_hours": "",
    "extraction_timestamp": "2025-06-07T16:09:01.365Z",
    "source_name": "google",
    "source_query": "Irrigation Equipment",
    "source_country": "IT",
    "country": "Italy",
    "state": "Emilia-Romagna",
    "city": "San Lazzaro"
  },
  {
    "source_id": "ChIJw3M1-gHTf0cR4Npr_n0P5Pg",
    "name": "Idraco s.r.l. Vendita ingrosso/dettaglio",
    "category": "Idraco s.r.l. Vendita ingrosso/dettaglio",
    "formatted_address": "4,8(27)",
    "phone_number": "+390510954480",
    "source_url": "https://www.google.com/maps/place/Idraco+s.r.l.+Vendita+ingrosso%2Fdettaglio/data=!4m7!3m6!1s0x477fd301fa3573c3:0xf8e40f7dfe6bdae0!8m2!3d44.5332442!4d11.3463793!16s%2Fg%2F11h045w95v!19sChIJw3M1-gHTf0cR4Npr_n0P5Pg?authuser=0&hl=tr&rclk=1",
    "website_url": "",
    "rating_text": "4,8",
    "stars": null,
    "number_of_reviews": null,
    "price_level": "",
    "open_hours": "",
    "extraction_timestamp": "2025-06-07T16:09:01.366Z",
    "source_name": "google",
    "source_query": "Irrigation Equipment",
    "source_country": "IT",
    "country": "Italy",
    "state": "Emilia-Romagna",
    "city": "San Lazzaro"
  },
  {
    "source_id": "ChIJnTMseWMrfkcROkZnl9Ut3MM",
    "name": "Supreme Compression Fittings Quapus Srl",
    "category": "Supreme Compression Fittings Quapus Srl",
    "formatted_address": "4,6(9)",
    "phone_number": "+390516053557",
    "source_url": "https://www.google.com/maps/place/Supreme+Compression+Fittings+Quapus+Srl/data=!4m7!3m6!1s0x477e2b63792c339d:0xc3dc2dd59767463a!8m2!3d44.4986604!4d11.4240626!16s%2Fg%2F1ptw88990!19sChIJnTMseWMrfkcROkZnl9Ut3MM?authuser=0&hl=tr&rclk=1",
    "website_url": "",
    "rating_text": "4,6",
    "stars": null,
    "number_of_reviews": null,
    "price_level": "",
    "open_hours": "",
    "extraction_timestamp": "2025-06-07T16:09:01.367Z",
    "source_name": "google",
    "source_query": "Irrigation Equipment",
    "source_country": "IT",
    "country": "Italy",
    "state": "Emilia-Romagna",
    "city": "San Lazzaro"
  },
  {
    "source_id": "ChIJ2c0HawcrfkcRkjllwkCqVW8",
    "name": "Pilucco Gelateria",
    "category": "Pilucco Gelateria",
    "formatted_address": "4,6(521) · ₺₺",
    "phone_number": "+39051463377",
    "source_url": "https://www.google.com/maps/place/Pilucco+Gelateria/data=!4m7!3m6!1s0x477e2b076b07cdd9:0x6f55aa40c2653992!8m2!3d44.4721246!4d11.4040355!16s%2Fg%2F11b6s3p0c6!19sChIJ2c0HawcrfkcRkjllwkCqVW8?authuser=0&hl=tr&rclk=1",
    "website_url": "",
    "rating_text": "4,6",
    "stars": null,
    "number_of_reviews": null,
    "price_level": "",
    "open_hours": "",
    "extraction_timestamp": "2025-06-07T16:09:01.369Z",
    "source_name": "google",
    "source_query": "Irrigation Equipment",
    "source_country": "IT",
    "country": "Italy",
    "state": "Emilia-Romagna",
    "city": "San Lazzaro"
  },
  {
    "source_id": "ChIJCXuseTHTf0cRzptQ0pGelFU",
    "name": "Alpe Hydraulic Systems Water Meters",
    "category": "Alpe Hydraulic Systems Water Meters",
    "formatted_address": "Su Hizmeti Sağlayıcısı · Via del Gomito, 23+39 051 326854",
    "phone_number": "+39051326854",
    "source_url": "https://www.google.com/maps/place/Alpe+Hydraulic+Systems+Water+Meters/data=!4m7!3m6!1s0x477fd33179ac7b09:0x55949e91d2509bce!8m2!3d44.531701!4d11.3753288!16s%2Fg%2F1tjt0slq!19sChIJCXuseTHTf0cRzptQ0pGelFU?authuser=0&hl=tr&rclk=1",
    "website_url": "",
    "rating_text": "",
    "stars": null,
    "number_of_reviews": null,
    "price_level": "",
    "open_hours": "",
    "extraction_timestamp": "2025-06-07T16:09:01.370Z",
    "source_name": "google",
    "source_query": "Irrigation Equipment",
    "source_country": "IT",
    "country": "Italy",
    "state": "Emilia-Romagna",
    "city": "San Lazzaro"
  },
  {
    "source_id": "ChIJv-koPCMrfkcRdnAaN3tV4sY",
    "name": "Garden CAP",
    "category": "Garden CAP",
    "formatted_address": "4,4(47)",
    "phone_number": "+39051547662",
    "source_url": "https://www.google.com/maps/place/Garden+CAP/data=!4m7!3m6!1s0x477e2b233c28e9bf:0xc6e2557b371a7076!8m2!3d44.477197!4d11.3799638!16s%2Fg%2F11ckt_7k7c!19sChIJv-koPCMrfkcRdnAaN3tV4sY?authuser=0&hl=tr&rclk=1",
    "website_url": "",
    "rating_text": "4,4",
    "stars": null,
    "number_of_reviews": null,
    "price_level": "",
    "open_hours": "",
    "extraction_timestamp": "2025-06-07T16:09:01.370Z",
    "source_name": "google",
    "source_query": "Irrigation Equipment",
    "source_country": "IT",
    "country": "Italy",
    "state": "Emilia-Romagna",
    "city": "San Lazzaro"
  },
  {
    "source_id": "ChIJlzPN61jTf0cRZhfoBsWgS_o",
    "name": "Idraulica Emiliana S.p.A.",
    "category": "Idraulica Emiliana S.p.A.",
    "formatted_address": "4,3(30)",
    "phone_number": "+390516333548",
    "source_url": "https://www.google.com/maps/place/Idraulica+Emiliana+S.p.A./data=!4m7!3m6!1s0x477fd358ebcd3397:0xfa4ba0c506e81766!8m2!3d44.5092595!4d11.3571117!16s%2Fg%2F11g69g3sh_!19sChIJlzPN61jTf0cRZhfoBsWgS_o?authuser=0&hl=tr&rclk=1",
    "website_url": "",
    "rating_text": "4,3",
    "stars": null,
    "number_of_reviews": null,
    "price_level": "",
    "open_hours": "",
    "extraction_timestamp": "2025-06-07T16:09:01.372Z",
    "source_name": "google",
    "source_query": "Irrigation Equipment",
    "source_country": "IT",
    "country": "Italy",
    "state": "Emilia-Romagna",
    "city": "San Lazzaro"
  },
  {
    "source_id": "ChIJoUdjxvcrfkcRNBRxZxbabWs",
    "name": "Roli D. macchine ed attrezzature per giardinaggio",
    "category": "Roli D. macchine ed attrezzature per giardinaggio",
    "formatted_address": "4,6(27)",
    "phone_number": "+390514842351",
    "source_url": "https://www.google.com/maps/place/Roli+D.+macchine+ed+attrezzature+per+giardinaggio/data=!4m7!3m6!1s0x477e2bf7c66347a1:0x6b6dda1667711434!8m2!3d44.5028239!4d11.4035209!16s%2Fg%2F11tj6kzpf8!19sChIJoUdjxvcrfkcRNBRxZxbabWs?authuser=0&hl=tr&rclk=1",
    "website_url": "",
    "rating_text": "4,6",
    "stars": null,
    "number_of_reviews": null,
    "price_level": "",
    "open_hours": "",
    "extraction_timestamp": "2025-06-07T16:09:01.373Z",
    "source_name": "google",
    "source_query": "Irrigation Equipment",
    "source_country": "IT",
    "country": "Italy",
    "state": "Emilia-Romagna",
    "city": "San Lazzaro"
  },
  {
    "source_id": "ChIJX9PEla0rfkcRw-DF6jpQFSc",
    "name": "NaturaSì",
    "category": "NaturaSì",
    "formatted_address": "4,3(240)",
    "phone_number": "+390516271807",
    "source_url": "https://www.google.com/maps/place/NaturaS%C3%AC/data=!4m7!3m6!1s0x477e2bad95c4d35f:0x2715503aeac5e0c3!8m2!3d44.4676348!4d11.4152207!16s%2Fg%2F11clzt_xt_!19sChIJX9PEla0rfkcRw-DF6jpQFSc?authuser=0&hl=tr&rclk=1",
    "website_url": "",
    "rating_text": "4,3",
    "stars": null,
    "number_of_reviews": null,
    "price_level": "",
    "open_hours": "",
    "extraction_timestamp": "2025-06-07T16:09:01.373Z",
    "source_name": "google",
    "source_query": "Irrigation Equipment",
    "source_country": "IT",
    "country": "Italy",
    "state": "Emilia-Romagna",
    "city": "San Lazzaro"
  },
  {
    "source_id": "ChIJ7XDKj2HTf0cRxmbaBjcZlt8",
    "name": "Polyter Italia",
    "category": "Polyter Italia",
    "formatted_address": "Gübre Tedarikçisi · Via Giuseppe Massarenti, 46/MKapalı ⋅ Açılış zamanı: Pzt 09:00 · +39 051 468 4641",
    "phone_number": "+390514684641",
    "source_url": "https://www.google.com/maps/place/Polyter+Italia/data=!4m7!3m6!1s0x477fd3618fca70ed:0xdf96193706da66c6!8m2!3d44.4936904!4d11.3594386!16s%2Fg%2F11t3nlqk6f!19sChIJ7XDKj2HTf0cRxmbaBjcZlt8?authuser=0&hl=tr&rclk=1",
    "website_url": "",
    "rating_text": "",
    "stars": null,
    "number_of_reviews": null,
    "price_level": "",
    "open_hours": "",
    "extraction_timestamp": "2025-06-07T16:09:01.374Z",
    "source_name": "google",
    "source_query": "Irrigation Equipment",
    "source_country": "IT",
    "country": "Italy",
    "state": "Emilia-Romagna",
    "city": "San Lazzaro"
  },
  {
    "source_id": "ChIJ8cMqg2otfkcRI5BqbS2Sn_w",
    "name": "Gsgi Gruppo Solo Grossisti Idrotermosanitari",
    "category": "Gsgi Gruppo Solo Grossisti Idrotermosanitari",
    "formatted_address": "5,0(1)",
    "phone_number": "+39051503012",
    "source_url": "https://www.google.com/maps/place/Gsgi+Gruppo+Solo+Grossisti+Idrotermosanitari/data=!4m7!3m6!1s0x477e2d6a832ac3f1:0xfc9f922d6d6a9023!8m2!3d44.5127708!4d11.411996!16s%2Fg%2F11t312l0pl!19sChIJ8cMqg2otfkcRI5BqbS2Sn_w?authuser=0&hl=tr&rclk=1",
    "website_url": "",
    "rating_text": "5,0",
    "stars": null,
    "number_of_reviews": null,
    "price_level": "",
    "open_hours": "",
    "extraction_timestamp": "2025-06-07T16:09:01.375Z",
    "source_name": "google",
    "source_query": "Irrigation Equipment",
    "source_country": "IT",
    "country": "Italy",
    "state": "Emilia-Romagna",
    "city": "San Lazzaro"
  },
  {
    "source_id": "ChIJRYXSHC_Vf0cReH9aSPDFiDE",
    "name": "Savonuzzi Francesco",
    "category": "Savonuzzi Francesco",
    "formatted_address": "Çim Yağmurlama Sistemi Yüklenicisi · Via delle Rose, 24Kapanmak üzere ⋅ 19:00 ⋅ Açılış zamanı: Pzt 09:00 · +39 340 645 6474",
    "phone_number": "+393406456474",
    "source_url": "https://www.google.com/maps/place/Savonuzzi+Francesco/data=!4m7!3m6!1s0x477fd52f1cd28545:0x3188c5f0485a7f78!8m2!3d44.4820324!4d11.3482476!16s%2Fg%2F11h_l9y8lw!19sChIJRYXSHC_Vf0cReH9aSPDFiDE?authuser=0&hl=tr&rclk=1",
    "website_url": "",
    "rating_text": "",
    "stars": null,
    "number_of_reviews": null,
    "price_level": "",
    "open_hours": "",
    "extraction_timestamp": "2025-06-07T16:09:01.376Z",
    "source_name": "google",
    "source_query": "Irrigation Equipment",
    "source_country": "IT",
    "country": "Italy",
    "state": "Emilia-Romagna",
    "city": "San Lazzaro"
  }
]
