[
  {
    "source_id": "ChIJtVDkNgRFgEcRqc6umwWIJuI",
    "name": "Rm Spa",
    "category": "Rm Spa",
    "formatted_address": "4,6(81)",
    "phone_number": "+390521872321",
    "source_url": "https://www.google.com/maps/place/Rm+Spa/data=!4m7!3m6!1s0x4780450436e450b5:0xe22688059baecea9!8m2!3d44.9105406!4d10.2583785!16s%2Fg%2F12hl93byl!19sChIJtVDkNgRFgEcRqc6umwWIJuI?authuser=0&hl=tr&rclk=1",
    "website_url": "http://www.rmirrigation.com/",
    "rating_text": "4,6",
    "stars": null,
    "number_of_reviews": null,
    "price_level": "",
    "open_hours": "",
    "extraction_timestamp": "2025-06-07T16:31:41.889Z",
    "source_name": "google",
    "source_query": "Irrigation Equipment",
    "source_country": "IT",
    "country": "Italy",
    "state": "Emilia-Romagna",
    "city": "San Secondo Parmense"
  },
  {
    "source_id": "ChIJ-Q6rDYVEgEcRAA32ohvlLY0",
    "name": "Agrotecnica Srl",
    "category": "Agrotecnica Srl",
    "formatted_address": "4,8(4)",
    "phone_number": "+390521371218",
    "source_url": "https://www.google.com/maps/place/Agrotecnica+Srl/data=!4m7!3m6!1s0x478044850dab0ef9:0x8d2de51ba2f60d00!8m2!3d44.9265946!4d10.2342621!16s%2Fg%2F1td5v_v1!19sChIJ-Q6rDYVEgEcRAA32ohvlLY0?authuser=0&hl=tr&rclk=1",
    "website_url": "https://www.agrotecnicasrl.com/",
    "rating_text": "4,8",
    "stars": null,
    "number_of_reviews": null,
    "price_level": "",
    "open_hours": "",
    "extraction_timestamp": "2025-06-07T16:31:41.892Z",
    "source_name": "google",
    "source_query": "Irrigation Equipment",
    "source_country": "IT",
    "country": "Italy",
    "state": "Emilia-Romagna",
    "city": "San Secondo Parmense"
  },
  {
    "source_id": "ChIJ60bjq7xEgEcRq8qrcXi6iD8",
    "name": "Esse Market",
    "category": "Esse Market",
    "formatted_address": "4,4(128)",
    "phone_number": "+390521874050",
    "source_url": "https://www.google.com/maps/place/Esse+Market/data=!4m7!3m6!1s0x478044bcabe346eb:0x3f88ba7871abcaab!8m2!3d44.9249114!4d10.2314167!16s%2Fg%2F1tdb33md!19sChIJ60bjq7xEgEcRq8qrcXi6iD8?authuser=0&hl=tr&rclk=1",
    "website_url": "https://essemarket.it/",
    "rating_text": "4,4",
    "stars": null,
    "number_of_reviews": null,
    "price_level": "",
    "open_hours": "",
    "extraction_timestamp": "2025-06-07T16:31:41.894Z",
    "source_name": "google",
    "source_query": "Irrigation Equipment",
    "source_country": "IT",
    "country": "Italy",
    "state": "Emilia-Romagna",
    "city": "San Secondo Parmense"
  },
  {
    "source_id": "ChIJC0Db8PhbgEcRs36Vkv2L8ng",
    "name": "Bolzoni Acque Srl",
    "category": "Bolzoni Acque Srl",
    "formatted_address": "4,3(13)",
    "phone_number": "+390521873521",
    "source_url": "https://www.google.com/maps/place/Bolzoni+Acque+Srl/data=!4m7!3m6!1s0x47805bf8f0db400b:0x78f28bfd92957eb3!8m2!3d44.9259338!4d10.2273788!16s%2Fg%2F11b6h_t27v!19sChIJC0Db8PhbgEcRs36Vkv2L8ng?authuser=0&hl=tr&rclk=1",
    "website_url": "http://www.bolzoniacque.it/",
    "rating_text": "4,3",
    "stars": null,
    "number_of_reviews": null,
    "price_level": "",
    "open_hours": "",
    "extraction_timestamp": "2025-06-07T16:31:41.896Z",
    "source_name": "google",
    "source_query": "Irrigation Equipment",
    "source_country": "IT",
    "country": "Italy",
    "state": "Emilia-Romagna",
    "city": "San Secondo Parmense"
  },
  {
    "source_id": "ChIJX2P7h3ZggEcRIo3TTP0_tuk",
    "name": "Agrigarden snc di Ambroggi",
    "category": "Agrigarden snc di Ambroggi",
    "formatted_address": "4,6(157)",
    "phone_number": "+390524523020",
    "source_url": "https://www.google.com/maps/place/Agrigarden+snc+di+Ambroggi/data=!4m7!3m6!1s0x4780607687fb635f:0xe9b63ffd4cd38d22!8m2!3d44.846688!4d10.0244782!16s%2Fg%2F1hc452qxl!19sChIJX2P7h3ZggEcRIo3TTP0_tuk?authuser=0&hl=tr&rclk=1",
    "website_url": "http://www.agrigardenparma.it/",
    "rating_text": "4,6",
    "stars": null,
    "number_of_reviews": null,
    "price_level": "",
    "open_hours": "",
    "extraction_timestamp": "2025-06-07T16:31:41.898Z",
    "source_name": "google",
    "source_query": "Irrigation Equipment",
    "source_country": "IT",
    "country": "Italy",
    "state": "Emilia-Romagna",
    "city": "San Secondo Parmense"
  },
  {
    "source_id": "ChIJ3ffAufBtgEcRCytqNHDLXR4",
    "name": "Del Frate Srl",
    "category": "Del Frate Srl",
    "formatted_address": "4,8(37)",
    "phone_number": "+390521986971",
    "source_url": "https://www.google.com/maps/place/Del+Frate+Srl/data=!4m7!3m6!1s0x47806df0b9c0f7dd:0x1e5dcb70346a2b0b!8m2!3d44.8108795!4d10.3145985!16s%2Fg%2F119w9gdyl!19sChIJ3ffAufBtgEcRCytqNHDLXR4?authuser=0&hl=tr&rclk=1",
    "website_url": "https://delfrate.it/",
    "rating_text": "4,8",
    "stars": null,
    "number_of_reviews": null,
    "price_level": "",
    "open_hours": "",
    "extraction_timestamp": "2025-06-07T16:31:41.900Z",
    "source_name": "google",
    "source_query": "Irrigation Equipment",
    "source_country": "IT",
    "country": "Italy",
    "state": "Emilia-Romagna",
    "city": "San Secondo Parmense"
  },
  {
    "source_id": "ChIJR0cLXhQkgEcRi9oI9GALzlg",
    "name": "IRRILAND",
    "category": "IRRILAND",
    "formatted_address": "4,0(4)",
    "phone_number": "+390522831544",
    "source_url": "https://www.google.com/maps/place/IRRILAND/data=!4m7!3m6!1s0x478024145e0b4747:0x58ce0b60f408da8b!8m2!3d44.891987!4d10.650983!16s%2Fg%2F1tczjb0h!19sChIJR0cLXhQkgEcRi9oI9GALzlg?authuser=0&hl=tr&rclk=1",
    "website_url": "http://www.irriland.it/",
    "rating_text": "4,0",
    "stars": null,
    "number_of_reviews": null,
    "price_level": "",
    "open_hours": "",
    "extraction_timestamp": "2025-06-07T16:31:41.901Z",
    "source_name": "google",
    "source_query": "Irrigation Equipment",
    "source_country": "IT",
    "country": "Italy",
    "state": "Emilia-Romagna",
    "city": "San Secondo Parmense"
  },
  {
    "source_id": "ChIJh--xIx4VgEcRt2hHhHmvb80",
    "name": "Agrimpianti",
    "category": "Agrimpianti",
    "formatted_address": "5,0(2)",
    "phone_number": "+390521486031",
    "source_url": "https://www.google.com/maps/place/Agrimpianti/data=!4m7!3m6!1s0x4780151e23b1ef87:0xcd6faf79844768b7!8m2!3d44.7896063!4d10.3786833!16s%2Fg%2F1wrtbq88!19sChIJh--xIx4VgEcRt2hHhHmvb80?authuser=0&hl=tr&rclk=1",
    "website_url": "https://www.assibioclima.net/",
    "rating_text": "5,0",
    "stars": null,
    "number_of_reviews": null,
    "price_level": "",
    "open_hours": "",
    "extraction_timestamp": "2025-06-07T16:31:41.903Z",
    "source_name": "google",
    "source_query": "Irrigation Equipment",
    "source_country": "IT",
    "country": "Italy",
    "state": "Emilia-Romagna",
    "city": "San Secondo Parmense"
  },
  {
    "source_id": "ChIJDYwaMKFEgEcR5co7AN0XvBY",
    "name": "Pattini Franco E C. (S.N.C.)",
    "category": "Pattini Franco E C. (S.N.C.)",
    "formatted_address": "4,6(41)",
    "phone_number": "+390521872129",
    "source_url": "https://www.google.com/maps/place/Pattini+Franco+E+C.+%28S.N.C.%29/data=!4m7!3m6!1s0x478044a1301a8c0d:0x16bc17dd003bcae5!8m2!3d44.9185939!4d10.2292937!16s%2Fg%2F1tjdklw8!19sChIJDYwaMKFEgEcR5co7AN0XvBY?authuser=0&hl=tr&rclk=1",
    "website_url": "",
    "rating_text": "4,6",
    "stars": null,
    "number_of_reviews": null,
    "price_level": "",
    "open_hours": "",
    "extraction_timestamp": "2025-06-07T16:31:41.905Z",
    "source_name": "google",
    "source_query": "Irrigation Equipment",
    "source_country": "IT",
    "country": "Italy",
    "state": "Emilia-Romagna",
    "city": "San Secondo Parmense"
  },
  {
    "source_id": "ChIJNVYSOr1EgEcRmPZ3J65M4lE",
    "name": "Tecnosald Srl",
    "category": "Tecnosald Srl",
    "formatted_address": "4,0(2)",
    "phone_number": "+390521873306",
    "source_url": "https://www.google.com/maps/place/Tecnosald+Srl/data=!4m7!3m6!1s0x478044bd3a125635:0x51e24cae2777f698!8m2!3d44.9253508!4d10.2359185!16s%2Fg%2F1td9cm7k!19sChIJNVYSOr1EgEcRmPZ3J65M4lE?authuser=0&hl=tr&rclk=1",
    "website_url": "https://www.tecnosaldparma.com/",
    "rating_text": "4,0",
    "stars": null,
    "number_of_reviews": null,
    "price_level": "",
    "open_hours": "",
    "extraction_timestamp": "2025-06-07T16:31:41.906Z",
    "source_name": "google",
    "source_query": "Irrigation Equipment",
    "source_country": "IT",
    "country": "Italy",
    "state": "Emilia-Romagna",
    "city": "San Secondo Parmense"
  },
  {
    "source_id": "ChIJcafODqREgEcRt-FXXoLLszM",
    "name": "Camorali Nando",
    "category": "Camorali Nando",
    "formatted_address": "4,4(7)",
    "phone_number": "+390521872117",
    "source_url": "https://www.google.com/maps/place/Camorali+Nando/data=!4m7!3m6!1s0x478044a40ecea771:0x33b3cb825e57e1b7!8m2!3d44.9213964!4d10.2289901!16s%2Fg%2F1tdjvwfv!19sChIJcafODqREgEcRt-FXXoLLszM?authuser=0&hl=tr&rclk=1",
    "website_url": "",
    "rating_text": "4,4",
    "stars": null,
    "number_of_reviews": null,
    "price_level": "",
    "open_hours": "",
    "extraction_timestamp": "2025-06-07T16:31:41.908Z",
    "source_name": "google",
    "source_query": "Irrigation Equipment",
    "source_country": "IT",
    "country": "Italy",
    "state": "Emilia-Romagna",
    "city": "San Secondo Parmense"
  },
  {
    "source_id": "ChIJfcxGZexrgEcRMWX-716QAsk",
    "name": "Ce.R'Id",
    "category": "Ce.R'Id",
    "formatted_address": "5,0(6)",
    "phone_number": "+393356047668",
    "source_url": "https://www.google.com/maps/place/Ce.R%27Id/data=!4m7!3m6!1s0x47806bec6546cc7d:0xc902905eeffe6531!8m2!3d44.7749237!4d10.2711479!16s%2Fg%2F1tqpy2qb!19sChIJfcxGZexrgEcRMWX-716QAsk?authuser=0&hl=tr&rclk=1",
    "website_url": "http://www.cerid.it/",
    "rating_text": "5,0",
    "stars": null,
    "number_of_reviews": null,
    "price_level": "",
    "open_hours": "",
    "extraction_timestamp": "2025-06-07T16:31:41.910Z",
    "source_name": "google",
    "source_query": "Irrigation Equipment",
    "source_country": "IT",
    "country": "Italy",
    "state": "Emilia-Romagna",
    "city": "San Secondo Parmense"
  },
  {
    "source_id": "ChIJiclS6FNDgEcRUCWfWnxTjNc",
    "name": "Pesci Stefano",
    "category": "Pesci Stefano",
    "formatted_address": "4,5(2)",
    "phone_number": "+393355245110",
    "source_url": "https://www.google.com/maps/place/Pesci+Stefano/data=!4m7!3m6!1s0x47804353e852c989:0xd78c537c5a9f2550!8m2!3d44.9216281!4d10.2230201!16s%2Fg%2F1tf7fj3x!19sChIJiclS6FNDgEcRUCWfWnxTjNc?authuser=0&hl=tr&rclk=1",
    "website_url": "http://www.pescistefano.it/",
    "rating_text": "4,5",
    "stars": null,
    "number_of_reviews": null,
    "price_level": "",
    "open_hours": "",
    "extraction_timestamp": "2025-06-07T16:31:41.912Z",
    "source_name": "google",
    "source_query": "Irrigation Equipment",
    "source_country": "IT",
    "country": "Italy",
    "state": "Emilia-Romagna",
    "city": "San Secondo Parmense"
  }
]
