[
  {
    "source_id": "ChIJ9eEnzr45fkcR2DIWLxTl2j8",
    "name": "R.A.I.O. srl ricambi e oleodinamica",
    "category": "R.A.I.O. srl ricambi e oleodinamica",
    "formatted_address": "4,4(65)",
    "phone_number": "+390516908413",
    "source_url": "https://www.google.com/maps/place/R.A.I.O.+srl+ricambi+e+oleodinamica/data=!4m7!3m6!1s0x477e39bece27e1f5:0x3fdae5142f1632d8!8m2!3d44.6511565!4d11.6484759!16s%2Fg%2F1vqtfmx6!19sChIJ9eEnzr45fkcR2DIWLxTl2j8?authuser=0&hl=tr&rclk=1",
    "website_url": "https://www.raiosrl.it/",
    "rating_text": "4,4",
    "stars": null,
    "number_of_reviews": null,
    "price_level": "",
    "open_hours": "",
    "extraction_timestamp": "2025-06-07T15:55:52.855Z",
    "source_name": "google",
    "source_query": "Irrigation Equipment",
    "source_country": "IT",
    "country": "Italy",
    "state": "Emilia-Romagna",
    "city": "San Pietro Capofiume"
  },
  {
    "source_id": "ChIJxQ0epiY5fkcR9FnC3vOVjMc",
    "name": "HYDRA SRL",
    "category": "HYDRA SRL",
    "formatted_address": "5,0(2)",
    "phone_number": "+390516908660",
    "source_url": "https://www.google.com/maps/place/HYDRA+SRL/data=!4m7!3m6!1s0x477e3926a61e0dc5:0xc78c95f3dec259f4!8m2!3d44.6459378!4d11.6576281!16s%2Fg%2F11rj3vpkyh!19sChIJxQ0epiY5fkcR9FnC3vOVjMc?authuser=0&hl=tr&rclk=1",
    "website_url": "http://www.hydrahammer.eu/",
    "rating_text": "5,0",
    "stars": null,
    "number_of_reviews": null,
    "price_level": "",
    "open_hours": "",
    "extraction_timestamp": "2025-06-07T15:55:52.856Z",
    "source_name": "google",
    "source_query": "Irrigation Equipment",
    "source_country": "IT",
    "country": "Italy",
    "state": "Emilia-Romagna",
    "city": "San Pietro Capofiume"
  },
  {
    "source_id": "ChIJh3Nd8G0sfkcR_m7VewEmxXM",
    "name": "Irrigarden",
    "category": "Irrigarden",
    "formatted_address": "4,7(158)",
    "phone_number": "+39051782013",
    "source_url": "https://www.google.com/maps/place/Irrigarden/data=!4m7!3m6!1s0x477e2c6df05d7387:0x73c526017bd56efe!8m2!3d44.5096266!4d11.4390897!16s%2Fg%2F1vgw_l7w!19sChIJh3Nd8G0sfkcR_m7VewEmxXM?authuser=0&hl=tr&rclk=1",
    "website_url": "https://www.irrigarden-bo.it/",
    "rating_text": "4,7",
    "stars": null,
    "number_of_reviews": null,
    "price_level": "",
    "open_hours": "",
    "extraction_timestamp": "2025-06-07T15:55:52.857Z",
    "source_name": "google",
    "source_query": "Irrigation Equipment",
    "source_country": "IT",
    "country": "Italy",
    "state": "Emilia-Romagna",
    "city": "San Pietro Capofiume"
  },
  {
    "source_id": "ChIJJ6V6lMDgf0cR1SpFsfjDuHg",
    "name": "Ocmis Irrigazione Spa",
    "category": "Ocmis Irrigazione Spa",
    "formatted_address": "3,5(31)",
    "phone_number": "+39059702150",
    "source_url": "https://www.google.com/maps/place/Ocmis+Irrigazione+Spa/data=!4m7!3m6!1s0x477fe0c0947aa527:0x78b8c3f8b1452ad5!8m2!3d44.530494!4d10.9794578!16s%2Fg%2F1vd3tn19!19sChIJJ6V6lMDgf0cR1SpFsfjDuHg?authuser=0&hl=tr&rclk=1",
    "website_url": "http://www.ocmis-irrigazione.it/",
    "rating_text": "3,5",
    "stars": null,
    "number_of_reviews": null,
    "price_level": "",
    "open_hours": "",
    "extraction_timestamp": "2025-06-07T15:55:52.858Z",
    "source_name": "google",
    "source_query": "Irrigation Equipment",
    "source_country": "IT",
    "country": "Italy",
    "state": "Emilia-Romagna",
    "city": "San Pietro Capofiume"
  },
  {
    "source_id": "ChIJsUlvbAA5fkcR91CqxniYKlY",
    "name": "Depuratore San Pietro Capofiume",
    "category": "Depuratore San Pietro Capofiume",
    "formatted_address": "Su Arıtma Tesisi · Via Guiccioli, 999",
    "phone_number": "",
    "source_url": "https://www.google.com/maps/place/Depuratore+San+Pietro+Capofiume/data=!4m7!3m6!1s0x477e39006c6f49b1:0x562a9878c6aa50f7!8m2!3d44.643728!4d11.657009!16s%2Fg%2F11vs8v9xkx!19sChIJsUlvbAA5fkcR91CqxniYKlY?authuser=0&hl=tr&rclk=1",
    "website_url": "",
    "rating_text": "",
    "stars": null,
    "number_of_reviews": null,
    "price_level": "",
    "open_hours": "",
    "extraction_timestamp": "2025-06-07T15:55:52.859Z",
    "source_name": "google",
    "source_query": "Irrigation Equipment",
    "source_country": "IT",
    "country": "Italy",
    "state": "Emilia-Romagna",
    "city": "San Pietro Capofiume"
  },
  {
    "source_id": "ChIJyXgg68QrfkcRAaJCOMJ3PxY",
    "name": "hidrisistem",
    "category": "hidrisistem",
    "formatted_address": "5,0(1)",
    "phone_number": "+39366448310824",
    "source_url": "https://www.google.com/maps/place/hidrisistem/data=!4m7!3m6!1s0x477e2bc4eb2078c9:0x163f77c23842a201!8m2!3d44.496029!4d11.402638!16s%2Fg%2F11w_zjhjy3!19sChIJyXgg68QrfkcRAaJCOMJ3PxY?authuser=0&hl=tr&rclk=1",
    "website_url": "",
    "rating_text": "5,0",
    "stars": null,
    "number_of_reviews": null,
    "price_level": "",
    "open_hours": "",
    "extraction_timestamp": "2025-06-07T15:55:52.860Z",
    "source_name": "google",
    "source_query": "Irrigation Equipment",
    "source_country": "IT",
    "country": "Italy",
    "state": "Emilia-Romagna",
    "city": "San Pietro Capofiume"
  },
  {
    "source_id": "ChIJ4dd0Gcs5fkcR7MC4uycqh5k",
    "name": "Ferramenta Pizzirani",
    "category": "Ferramenta Pizzirani",
    "formatted_address": "4,9(20)",
    "phone_number": "+390532857017",
    "source_url": "https://www.google.com/maps/place/Ferramenta+Pizzirani/data=!4m7!3m6!1s0x477e39cb1974d7e1:0x99872a27bbb8c0ec!8m2!3d44.664482!4d11.646747!16s%2Fg%2F11hbqlq0n3!19sChIJ4dd0Gcs5fkcR7MC4uycqh5k?authuser=0&hl=tr&rclk=1",
    "website_url": "https://www.facebook.com/Ferramenta-santa-maria-codifiume-105985947932048/",
    "rating_text": "4,9",
    "stars": null,
    "number_of_reviews": null,
    "price_level": "",
    "open_hours": "",
    "extraction_timestamp": "2025-06-07T15:55:52.861Z",
    "source_name": "google",
    "source_query": "Irrigation Equipment",
    "source_country": "IT",
    "country": "Italy",
    "state": "Emilia-Romagna",
    "city": "San Pietro Capofiume"
  },
  {
    "source_id": "ChIJtVDkNgRFgEcRqc6umwWIJuI",
    "name": "Rm Spa",
    "category": "Rm Spa",
    "formatted_address": "4,6(81)",
    "phone_number": "+390521872321",
    "source_url": "https://www.google.com/maps/place/Rm+Spa/data=!4m7!3m6!1s0x4780450436e450b5:0xe22688059baecea9!8m2!3d44.9105406!4d10.2583785!16s%2Fg%2F12hl93byl!19sChIJtVDkNgRFgEcRqc6umwWIJuI?authuser=0&hl=tr&rclk=1",
    "website_url": "http://www.rmirrigation.com/",
    "rating_text": "4,6",
    "stars": null,
    "number_of_reviews": null,
    "price_level": "",
    "open_hours": "",
    "extraction_timestamp": "2025-06-07T15:55:52.862Z",
    "source_name": "google",
    "source_query": "Irrigation Equipment",
    "source_country": "IT",
    "country": "Italy",
    "state": "Emilia-Romagna",
    "city": "San Pietro Capofiume"
  },
  {
    "source_id": "ChIJSSMzGN4pfkcRxNrEMhpqts8",
    "name": "Hydro Ware srl",
    "category": "Hydro Ware srl",
    "formatted_address": "4,5(2)",
    "phone_number": "+390510404329",
    "source_url": "https://www.google.com/maps/place/Hydro+Ware+srl/data=!4m7!3m6!1s0x477e29de18332349:0xcfb66a1a32c4dac4!8m2!3d44.4442053!4d11.4850842!16s%2Fg%2F11h55y8w7d!19sChIJSSMzGN4pfkcRxNrEMhpqts8?authuser=0&hl=tr&rclk=1",
    "website_url": "http://www.hydroware.it/it/",
    "rating_text": "4,5",
    "stars": null,
    "number_of_reviews": null,
    "price_level": "",
    "open_hours": "",
    "extraction_timestamp": "2025-06-07T15:55:52.864Z",
    "source_name": "google",
    "source_query": "Irrigation Equipment",
    "source_country": "IT",
    "country": "Italy",
    "state": "Emilia-Romagna",
    "city": "San Pietro Capofiume"
  },
  {
    "source_id": "ChIJOVoYwcXvf0cRi3QVtRk6KRU",
    "name": "Caprari",
    "category": "Caprari",
    "formatted_address": "4,4(40)",
    "phone_number": "+39059897611",
    "source_url": "https://www.google.com/maps/place/Caprari/data=!4m7!3m6!1s0x477fefc5c1185a39:0x15293a19b515748b!8m2!3d44.6573831!4d10.880122!16s%2Fg%2F11b6zr3r2w!19sChIJOVoYwcXvf0cRi3QVtRk6KRU?authuser=0&hl=tr&rclk=1",
    "website_url": "http://www.caprari.it/",
    "rating_text": "4,4",
    "stars": null,
    "number_of_reviews": null,
    "price_level": "",
    "open_hours": "",
    "extraction_timestamp": "2025-06-07T15:55:52.865Z",
    "source_name": "google",
    "source_query": "Irrigation Equipment",
    "source_country": "IT",
    "country": "Italy",
    "state": "Emilia-Romagna",
    "city": "San Pietro Capofiume"
  },
  {
    "source_id": "ChIJCf5GXp9ywgwRjOaHi3EuOyk",
    "name": "T.R.I. italia srl irrigazione",
    "category": "T.R.I. italia srl irrigazione",
    "formatted_address": "",
    "phone_number": "+393492227322",
    "source_url": "https://www.google.com/maps/place/T.R.I.+italia+srl+irrigazione/data=!4m7!3m6!1s0xcc2729f5e46fe09:0x293b2e718b87e68c!8m2!3d41.29085!4d12.71216!16s%2Fg%2F11wqp9bx1c!19sChIJCf5GXp9ywgwRjOaHi3EuOyk?authuser=0&hl=tr&rclk=1",
    "website_url": "",
    "rating_text": "",
    "stars": null,
    "number_of_reviews": null,
    "price_level": "",
    "open_hours": "",
    "extraction_timestamp": "2025-06-07T15:55:52.866Z",
    "source_name": "google",
    "source_query": "Irrigation Equipment",
    "source_country": "IT",
    "country": "Italy",
    "state": "Emilia-Romagna",
    "city": "San Pietro Capofiume"
  }
]
