[
  {
    "source_id": "ChIJJbw7jKrNf0cR-Jb9f_5Wjms",
    "name": "Z.P. Motori Elettrici e Elettropompe",
    "category": "Z.P. Motori Elettrici e Elettropompe",
    "formatted_address": "4,7(19)",
    "phone_number": "+390516650012",
    "source_url": "https://www.google.com/maps/place/Z.P.+Motori+Elettrici+e+Elettropompe/data=!4m7!3m6!1s0x477fcdaa8c3bbc25:0x6b8e56fe7ffd96f8!8m2!3d44.6168604!4d11.3681876!16s%2Fg%2F1tdxd3pt!19sChIJJbw7jKrNf0cR-Jb9f_5Wjms?authuser=0&hl=tr&rclk=1",
    "website_url": "http://www.zpzanardi.com/",
    "rating_text": "4,7",
    "stars": null,
    "number_of_reviews": null,
    "price_level": "",
    "open_hours": "",
    "extraction_timestamp": "2025-06-07T16:16:43.141Z",
    "source_name": "google",
    "source_query": "Irrigation Equipment",
    "source_country": "IT",
    "country": "Italy",
    "state": "Emilia-Romagna",
    "city": "San Giorgio di Piano"
  },
  {
    "source_id": "ChIJE_3jOnMtfkcRkxtTFj3Ym9E",
    "name": "Irrigation Scarabelli Srl",
    "category": "Irrigation Scarabelli Srl",
    "formatted_address": "4,5(23)",
    "phone_number": "+39051763363",
    "source_url": "https://www.google.com/maps/place/Irrigation+Scarabelli+Srl/data=!4m7!3m6!1s0x477e2d733ae3fd13:0xd19bd83d16531b93!8m2!3d44.5426053!4d11.4189136!16s%2Fg%2F11gzdz6vf!19sChIJE_3jOnMtfkcRkxtTFj3Ym9E?authuser=0&hl=tr&rclk=1",
    "website_url": "",
    "rating_text": "4,5",
    "stars": null,
    "number_of_reviews": null,
    "price_level": "",
    "open_hours": "",
    "extraction_timestamp": "2025-06-07T16:16:43.142Z",
    "source_name": "google",
    "source_query": "Irrigation Equipment",
    "source_country": "IT",
    "country": "Italy",
    "state": "Emilia-Romagna",
    "city": "San Giorgio di Piano"
  },
  {
    "source_id": "ChIJp2R3w7_Qf0cRHlt9J4ovm_o",
    "name": "Irritec S.p.A. - Stabilimento F",
    "category": "Irritec S.p.A. - Stabilimento F",
    "formatted_address": "5,0(2)",
    "phone_number": "+390516508020",
    "source_url": "https://www.google.com/maps/place/Irritec+S.p.A.+-+Stabilimento+F/data=!4m7!3m6!1s0x477fd0bfc37764a7:0xfa9b2f8a277d5b1e!8m2!3d44.6210254!4d11.3703614!16s%2Fg%2F1xpwhmq4!19sChIJp2R3w7_Qf0cRHlt9J4ovm_o?authuser=0&hl=tr&rclk=1",
    "website_url": "http://www.irritec.com/",
    "rating_text": "5,0",
    "stars": null,
    "number_of_reviews": null,
    "price_level": "",
    "open_hours": "",
    "extraction_timestamp": "2025-06-07T16:16:43.142Z",
    "source_name": "google",
    "source_query": "Irrigation Equipment",
    "source_country": "IT",
    "country": "Italy",
    "state": "Emilia-Romagna",
    "city": "San Giorgio di Piano"
  },
  {
    "source_id": "ChIJh3Nd8G0sfkcR_m7VewEmxXM",
    "name": "Irrigarden",
    "category": "Irrigarden",
    "formatted_address": "4,7(158)",
    "phone_number": "+39051782013",
    "source_url": "https://www.google.com/maps/place/Irrigarden/data=!4m7!3m6!1s0x477e2c6df05d7387:0x73c526017bd56efe!8m2!3d44.5096266!4d11.4390897!16s%2Fg%2F1vgw_l7w!19sChIJh3Nd8G0sfkcR_m7VewEmxXM?authuser=0&hl=tr&rclk=1",
    "website_url": "https://www.irrigarden-bo.it/",
    "rating_text": "4,7",
    "stars": null,
    "number_of_reviews": null,
    "price_level": "",
    "open_hours": "",
    "extraction_timestamp": "2025-06-07T16:16:43.143Z",
    "source_name": "google",
    "source_query": "Irrigation Equipment",
    "source_country": "IT",
    "country": "Italy",
    "state": "Emilia-Romagna",
    "city": "San Giorgio di Piano"
  },
  {
    "source_id": "ChIJ8RQdvXzMf0cRZP-PN20TgRU",
    "name": "Ferramenta Rapparini Pietro snc",
    "category": "Ferramenta Rapparini Pietro snc",
    "formatted_address": "4,6(227)",
    "phone_number": "+39051893719",
    "source_url": "https://www.google.com/maps/place/Ferramenta+Rapparini+Pietro+snc/data=!4m7!3m6!1s0x477fcc7cbd1d14f1:0x1581136d378fff64!8m2!3d44.6475517!4d11.3762855!16s%2Fg%2F1wv_r1sg!19sChIJ8RQdvXzMf0cRZP-PN20TgRU?authuser=0&hl=tr&rclk=1",
    "website_url": "https://comune.san-giorgio-di-piano.bo.it/incentro-attivita-commerciali/ferramenta-e-casalinghi/ferramenta-rapparini-pietro/",
    "rating_text": "4,6",
    "stars": null,
    "number_of_reviews": null,
    "price_level": "",
    "open_hours": "",
    "extraction_timestamp": "2025-06-07T16:16:43.143Z",
    "source_name": "google",
    "source_query": "Irrigation Equipment",
    "source_country": "IT",
    "country": "Italy",
    "state": "Emilia-Romagna",
    "city": "San Giorgio di Piano"
  },
  {
    "source_id": "ChIJ4_YpdarNf0cRwEV-edqpubg",
    "name": "Idroconsult S.r.l.",
    "category": "Idroconsult S.r.l.",
    "formatted_address": "5,0(3)",
    "phone_number": "+39051862350",
    "source_url": "https://www.google.com/maps/place/Idroconsult+S.r.l./data=!4m7!3m6!1s0x477fcdaa7529f6e3:0xb8b9a9da797e45c0!8m2!3d44.615567!4d11.3678686!16s%2Fg%2F1tmz5srm!19sChIJ4_YpdarNf0cRwEV-edqpubg?authuser=0&hl=tr&rclk=1",
    "website_url": "https://www.idroconsult.com/",
    "rating_text": "5,0",
    "stars": null,
    "number_of_reviews": null,
    "price_level": "",
    "open_hours": "",
    "extraction_timestamp": "2025-06-07T16:16:43.144Z",
    "source_name": "google",
    "source_query": "Irrigation Equipment",
    "source_country": "IT",
    "country": "Italy",
    "state": "Emilia-Romagna",
    "city": "San Giorgio di Piano"
  },
  {
    "source_id": "ChIJcwNQpDvNf0cR1uP9cMFpPmE",
    "name": "Action San Giorgio di Piano",
    "category": "Action San Giorgio di Piano",
    "formatted_address": "3,9(59)",
    "phone_number": "",
    "source_url": "https://www.google.com/maps/place/Action+San+Giorgio+di+Piano/data=!4m7!3m6!1s0x477fcd3ba4500373:0x613e69c170fde3d6!8m2!3d44.6454267!4d11.3780572!16s%2Fg%2F11lm_7n_z0!19sChIJcwNQpDvNf0cR1uP9cMFpPmE?authuser=0&hl=tr&rclk=1",
    "website_url": "https://www.action.com/it-it/?utm_campaign=localbusiness&utm_source=google&utm_medium=organic&utm_content=D104",
    "rating_text": "3,9",
    "stars": null,
    "number_of_reviews": null,
    "price_level": "",
    "open_hours": "",
    "extraction_timestamp": "2025-06-07T16:16:43.144Z",
    "source_name": "google",
    "source_query": "Irrigation Equipment",
    "source_country": "IT",
    "country": "Italy",
    "state": "Emilia-Romagna",
    "city": "San Giorgio di Piano"
  },
  {
    "source_id": "ChIJ_SYf2IMsfkcRVw9xVhrnjyI",
    "name": "Irrigazione Bragaglia",
    "category": "Irrigazione Bragaglia",
    "formatted_address": "4,7(30)",
    "phone_number": "+39051534865",
    "source_url": "https://www.google.com/maps/place/Irrigazione+Bragaglia/data=!4m7!3m6!1s0x477e2c83d81f26fd:0x228fe71a56710f57!8m2!3d44.5053735!4d11.412403!16s%2Fg%2F1vp6z0gf!19sChIJ_SYf2IMsfkcRVw9xVhrnjyI?authuser=0&hl=tr&rclk=1",
    "website_url": "http://www.irrigazionebragaglia.it/",
    "rating_text": "4,7",
    "stars": null,
    "number_of_reviews": null,
    "price_level": "",
    "open_hours": "",
    "extraction_timestamp": "2025-06-07T16:16:43.145Z",
    "source_name": "google",
    "source_query": "Irrigation Equipment",
    "source_country": "IT",
    "country": "Italy",
    "state": "Emilia-Romagna",
    "city": "San Giorgio di Piano"
  },
  {
    "source_id": "ChIJyXgg68QrfkcRAaJCOMJ3PxY",
    "name": "hidrisistem",
    "category": "hidrisistem",
    "formatted_address": "5,0(1)",
    "phone_number": "+39366448310824",
    "source_url": "https://www.google.com/maps/place/hidrisistem/data=!4m7!3m6!1s0x477e2bc4eb2078c9:0x163f77c23842a201!8m2!3d44.496029!4d11.402638!16s%2Fg%2F11w_zjhjy3!19sChIJyXgg68QrfkcRAaJCOMJ3PxY?authuser=0&hl=tr&rclk=1",
    "website_url": "",
    "rating_text": "5,0",
    "stars": null,
    "number_of_reviews": null,
    "price_level": "",
    "open_hours": "",
    "extraction_timestamp": "2025-06-07T16:16:43.145Z",
    "source_name": "google",
    "source_query": "Irrigation Equipment",
    "source_country": "IT",
    "country": "Italy",
    "state": "Emilia-Romagna",
    "city": "San Giorgio di Piano"
  },
  {
    "source_id": "ChIJDSUGK2PMf0cRb6iO54wwtZk",
    "name": "Orthosanitaria Bernardini Snc",
    "category": "Orthosanitaria Bernardini Snc",
    "formatted_address": "4,5(23)",
    "phone_number": "+390516630941",
    "source_url": "https://www.google.com/maps/place/Orthosanitaria+Bernardini+Snc/data=!4m7!3m6!1s0x477fcc632b06250d:0x99b5308ce78ea86f!8m2!3d44.6457229!4d11.3768272!16s%2Fg%2F11g6xwkl7_!19sChIJDSUGK2PMf0cRb6iO54wwtZk?authuser=0&hl=tr&rclk=1",
    "website_url": "https://www.orthosanitariabernardini.it/",
    "rating_text": "4,5",
    "stars": null,
    "number_of_reviews": null,
    "price_level": "",
    "open_hours": "",
    "extraction_timestamp": "2025-06-07T16:16:43.146Z",
    "source_name": "google",
    "source_query": "Irrigation Equipment",
    "source_country": "IT",
    "country": "Italy",
    "state": "Emilia-Romagna",
    "city": "San Giorgio di Piano"
  },
  {
    "source_id": "ChIJqW7_XF_Kf0cRf4g_14vQ7aM",
    "name": "Eurofins Agroscience Services Srl",
    "category": "Eurofins Agroscience Services Srl",
    "formatted_address": "3,0(1)",
    "phone_number": "+390516650637",
    "source_url": "https://www.google.com/maps/place/Eurofins+Agroscience+Services+Srl/data=!4m7!3m6!1s0x477fca5f5cff6ea9:0xa3edd08bd73f887f!8m2!3d44.619572!4d11.3681744!16s%2Fg%2F1td2lb1w!19sChIJqW7_XF_Kf0cRf4g_14vQ7aM?authuser=0&hl=tr&rclk=1",
    "website_url": "http://www.eurofins.com/agroscienceservices.aspx",
    "rating_text": "3,0",
    "stars": null,
    "number_of_reviews": null,
    "price_level": "",
    "open_hours": "",
    "extraction_timestamp": "2025-06-07T16:16:43.146Z",
    "source_name": "google",
    "source_query": "Irrigation Equipment",
    "source_country": "IT",
    "country": "Italy",
    "state": "Emilia-Romagna",
    "city": "San Giorgio di Piano"
  },
  {
    "source_id": "ChIJF4KTUDbNf0cRzEjoozAvRCk",
    "name": "Hydro Tecnique",
    "category": "Hydro Tecnique",
    "formatted_address": "Isıtma Sistemleri · Via Provinciale, Strada provinciale 4 Galliera Sud, 26/2Kapalı ⋅ Açılış zamanı: Pzt 08:30 · +39 335 836 9249",
    "phone_number": "+393358369249",
    "source_url": "https://www.google.com/maps/place/Hydro+Tecnique/data=!4m7!3m6!1s0x477fcd3650938217:0x29442f30a3e848cc!8m2!3d44.620423!4d11.3719177!16s%2Fg%2F11sgj0q0kw!19sChIJF4KTUDbNf0cRzEjoozAvRCk?authuser=0&hl=tr&rclk=1",
    "website_url": "https://www.hydrotecnique.it/",
    "rating_text": "",
    "stars": null,
    "number_of_reviews": null,
    "price_level": "",
    "open_hours": "",
    "extraction_timestamp": "2025-06-07T16:16:43.147Z",
    "source_name": "google",
    "source_query": "Irrigation Equipment",
    "source_country": "IT",
    "country": "Italy",
    "state": "Emilia-Romagna",
    "city": "San Giorgio di Piano"
  }
]
