[
  {
    "source_id": "ChIJPw4AWQ52fkcRVW38zARNhjs",
    "name": "Idros.art & Bozzola Group S.p.A.",
    "category": "Idros.art & Bozzola Group S.p.A.",
    "formatted_address": "3,6(7)",
    "phone_number": "+390533382704",
    "source_url": "https://www.google.com/maps/place/Idros.art+%26+Bozzola+Group+S.p.A./data=!4m7!3m6!1s0x477e760e59000e3f:0x3b864d04ccfc6d55!8m2!3d44.7258787!4d12.2139747!16s%2Fg%2F1pt_bbxch!19sChIJPw4AWQ52fkcRVW38zARNhjs?authuser=0&hl=tr&rclk=1",
    "website_url": "http://www.idrosart-bozzola.it/",
    "rating_text": "3,6",
    "stars": null,
    "number_of_reviews": null,
    "price_level": "",
    "open_hours": "",
    "extraction_timestamp": "2025-06-07T16:50:52.627Z",
    "source_name": "google",
    "source_query": "Irrigation Equipment",
    "source_country": "IT",
    "country": "Italy",
    "state": "Emilia-Romagna",
    "city": "San Giuseppe"
  },
  {
    "source_id": "ChIJ9dMVo_l1fkcRHNWz0dkP_y0",
    "name": "Cila Ciicai • Magazzino San Giuseppe di Comacchio",
    "category": "Cila Ciicai • Magazzino San Giuseppe di Comacchio",
    "formatted_address": "4,3(24)",
    "phone_number": "+390533380306",
    "source_url": "https://www.google.com/maps/place/Cila+Ciicai+%E2%80%A2+Magazzino+San+Giuseppe+di+Comacchio/data=!4m7!3m6!1s0x477e75f9a315d3f5:0x2dff0fd9d1b3d51c!8m2!3d44.7108264!4d12.2180716!16s%2Fg%2F11f4psm5rr!19sChIJ9dMVo_l1fkcRHNWz0dkP_y0?authuser=0&hl=tr&rclk=1",
    "website_url": "https://www.cilaciicai.it/",
    "rating_text": "4,3",
    "stars": null,
    "number_of_reviews": null,
    "price_level": "",
    "open_hours": "",
    "extraction_timestamp": "2025-06-07T16:50:52.627Z",
    "source_name": "google",
    "source_query": "Irrigation Equipment",
    "source_country": "IT",
    "country": "Italy",
    "state": "Emilia-Romagna",
    "city": "San Giuseppe"
  },
  {
    "source_id": "ChIJE_3jOnMtfkcRkxtTFj3Ym9E",
    "name": "Irrigation Scarabelli Srl",
    "category": "Irrigation Scarabelli Srl",
    "formatted_address": "4,5(23)",
    "phone_number": "+39051763363",
    "source_url": "https://www.google.com/maps/place/Irrigation+Scarabelli+Srl/data=!4m7!3m6!1s0x477e2d733ae3fd13:0xd19bd83d16531b93!8m2!3d44.5426053!4d11.4189136!16s%2Fg%2F11gzdz6vf!19sChIJE_3jOnMtfkcRkxtTFj3Ym9E?authuser=0&hl=tr&rclk=1",
    "website_url": "",
    "rating_text": "4,5",
    "stars": null,
    "number_of_reviews": null,
    "price_level": "",
    "open_hours": "",
    "extraction_timestamp": "2025-06-07T16:50:52.628Z",
    "source_name": "google",
    "source_query": "Irrigation Equipment",
    "source_country": "IT",
    "country": "Italy",
    "state": "Emilia-Romagna",
    "city": "San Giuseppe"
  },
  {
    "source_id": "ChIJcQG6ul7df0cR3VxKiu5OPBs",
    "name": "Scova Impianti Srl",
    "category": "Scova Impianti Srl",
    "formatted_address": "4,5(64)",
    "phone_number": "+39059923202",
    "source_url": "https://www.google.com/maps/place/Scova+Impianti+Srl/data=!4m7!3m6!1s0x477fdd5ebaba0171:0x1b3c4eee8a4a5cdd!8m2!3d44.6018135!4d11.032294!16s%2Fg%2F1tfzwbfb!19sChIJcQG6ul7df0cR3VxKiu5OPBs?authuser=0&hl=tr&rclk=1",
    "website_url": "https://www.scovaimpianti.com/",
    "rating_text": "4,5",
    "stars": null,
    "number_of_reviews": null,
    "price_level": "",
    "open_hours": "",
    "extraction_timestamp": "2025-06-07T16:50:52.628Z",
    "source_name": "google",
    "source_query": "Irrigation Equipment",
    "source_country": "IT",
    "country": "Italy",
    "state": "Emilia-Romagna",
    "city": "San Giuseppe"
  },
  {
    "source_id": "ChIJ57hCOgF2fkcRx7gO6SabZtU",
    "name": "MGclima Riscaldamento e Condizionamento",
    "category": "MGclima Riscaldamento e Condizionamento",
    "formatted_address": "4,8(19)",
    "phone_number": "+390533380931",
    "source_url": "https://www.google.com/maps/place/MGclima+Riscaldamento+e+Condizionamento/data=!4m7!3m6!1s0x477e76013a42b8e7:0xd5669b26e90eb8c7!8m2!3d44.7207374!4d12.2220443!16s%2Fg%2F12hyszl74!19sChIJ57hCOgF2fkcRx7gO6SabZtU?authuser=0&hl=tr&rclk=1",
    "website_url": "http://www.mgclima.it/",
    "rating_text": "4,8",
    "stars": null,
    "number_of_reviews": null,
    "price_level": "",
    "open_hours": "",
    "extraction_timestamp": "2025-06-07T16:50:52.639Z",
    "source_name": "google",
    "source_query": "Irrigation Equipment",
    "source_country": "IT",
    "country": "Italy",
    "state": "Emilia-Romagna",
    "city": "San Giuseppe"
  },
  {
    "source_id": "ChIJg5Xa0gZ2fkcRGhFbvHfM8fA",
    "name": "Fogli Ferramenta",
    "category": "Fogli Ferramenta",
    "formatted_address": "4,4(208)",
    "phone_number": "+390533380666",
    "source_url": "https://www.google.com/maps/place/Fogli+Ferramenta/data=!4m7!3m6!1s0x477e7606d2da9583:0xf0f1cc77bc5b111a!8m2!3d44.7207374!4d12.2216949!16s%2Fg%2F1tlmm4y5!19sChIJg5Xa0gZ2fkcRGhFbvHfM8fA?authuser=0&hl=tr&rclk=1",
    "website_url": "https://m.facebook.com/fogliferramenta",
    "rating_text": "4,4",
    "stars": null,
    "number_of_reviews": null,
    "price_level": "",
    "open_hours": "",
    "extraction_timestamp": "2025-06-07T16:50:52.640Z",
    "source_name": "google",
    "source_query": "Irrigation Equipment",
    "source_country": "IT",
    "country": "Italy",
    "state": "Emilia-Romagna",
    "city": "San Giuseppe"
  },
  {
    "source_id": "ChIJAQaBFTV3fkcRHVpxQacxv4U",
    "name": "Idraulica Cariani",
    "category": "Idraulica Cariani",
    "formatted_address": "3,7(3)",
    "phone_number": "+393385427990",
    "source_url": "https://www.google.com/maps/place/Idraulica+Cariani/data=!4m7!3m6!1s0x477e773515810601:0x85bf31a741715a1d!8m2!3d44.7229456!4d12.2248669!16s%2Fg%2F11j2nl_hl5!19sChIJAQaBFTV3fkcRHVpxQacxv4U?authuser=0&hl=tr&rclk=1",
    "website_url": "",
    "rating_text": "3,7",
    "stars": null,
    "number_of_reviews": null,
    "price_level": "",
    "open_hours": "",
    "extraction_timestamp": "2025-06-07T16:50:52.642Z",
    "source_name": "google",
    "source_query": "Irrigation Equipment",
    "source_country": "IT",
    "country": "Italy",
    "state": "Emilia-Romagna",
    "city": "San Giuseppe"
  }
]
