[
  {
    "source_id": "ChIJy4AVn9C-LBMRn6nsnuZl82A",
    "name": "Ramilli Irrigazioni S.R.L.",
    "category": "Ramilli Irrigazioni S.R.L.",
    "formatted_address": "4,3(52)",
    "phone_number": "+390541945335",
    "source_url": "https://www.google.com/maps/place/Ramilli+Irrigazioni+S.R.L./data=!4m7!3m6!1s0x132cbed09f1580cb:0x60f365e69eeca99f!8m2!3d44.0923156!4d12.3843691!16s%2Fg%2F1ts2ls1r!19sChIJy4AVn9C-LBMRn6nsnuZl82A?authuser=0&hl=tr&rclk=1",
    "website_url": "",
    "rating_text": "4,3",
    "stars": null,
    "number_of_reviews": null,
    "price_level": "",
    "open_hours": "",
    "extraction_timestamp": "2025-06-07T16:52:05.555Z",
    "source_name": "google",
    "source_query": "Irrigation Equipment",
    "source_country": "IT",
    "country": "Italy",
    "state": "Emilia-Romagna",
    "city": "San Mauro Pascoli"
  },
  {
    "source_id": "ChIJxwyfbMW-LBMR82ivWDKLyak",
    "name": "Campedelli srl",
    "category": "Campedelli srl",
    "formatted_address": "4,3(20)",
    "phone_number": "+390541945180",
    "source_url": "https://www.google.com/maps/place/Campedelli+srl/data=!4m7!3m6!1s0x132cbec56c9f0cc7:0xa9c98b3258af68f3!8m2!3d44.0913771!4d12.3790216!16s%2Fg%2F1td55wfn!19sChIJxwyfbMW-LBMR82ivWDKLyak?authuser=0&hl=tr&rclk=1",
    "website_url": "",
    "rating_text": "4,3",
    "stars": null,
    "number_of_reviews": null,
    "price_level": "",
    "open_hours": "",
    "extraction_timestamp": "2025-06-07T16:52:05.556Z",
    "source_name": "google",
    "source_query": "Irrigation Equipment",
    "source_country": "IT",
    "country": "Italy",
    "state": "Emilia-Romagna",
    "city": "San Mauro Pascoli"
  },
  {
    "source_id": "ChIJtRiATny5LBMRg7dg9SqvjDg",
    "name": "Brico io SAN MAURO PASCOLI",
    "category": "Brico io SAN MAURO PASCOLI",
    "formatted_address": "3,8(30)",
    "phone_number": "+3905411781445",
    "source_url": "https://www.google.com/maps/place/Brico+io+SAN+MAURO+PASCOLI/data=!4m7!3m6!1s0x132cb97c4e8018b5:0x388caf2af560b783!8m2!3d44.1005488!4d12.4211328!16s%2Fg%2F11vkhnyc16!19sChIJtRiATny5LBMRg7dg9SqvjDg?authuser=0&hl=tr&rclk=1",
    "website_url": "",
    "rating_text": "3,8",
    "stars": null,
    "number_of_reviews": null,
    "price_level": "",
    "open_hours": "",
    "extraction_timestamp": "2025-06-07T16:52:05.559Z",
    "source_name": "google",
    "source_query": "Irrigation Equipment",
    "source_country": "IT",
    "country": "Italy",
    "state": "Emilia-Romagna",
    "city": "San Mauro Pascoli"
  },
  {
    "source_id": "ChIJD9a2mC-5LBMRdkK8F-D22Ao",
    "name": "Alfatex S.r.l.s.",
    "category": "Alfatex S.r.l.s.",
    "formatted_address": "5,0(6)",
    "phone_number": "+390541394871",
    "source_url": "https://www.google.com/maps/place/Alfatex+S.r.l.s./data=!4m7!3m6!1s0x132cb92f98b6d60f:0xad8f6e017bc4276!8m2!3d44.1047313!4d12.4175018!16s%2Fg%2F11vwtd53rr!19sChIJD9a2mC-5LBMRdkK8F-D22Ao?authuser=0&hl=tr&rclk=1",
    "website_url": "",
    "rating_text": "5,0",
    "stars": null,
    "number_of_reviews": null,
    "price_level": "",
    "open_hours": "",
    "extraction_timestamp": "2025-06-07T16:52:05.560Z",
    "source_name": "google",
    "source_query": "Irrigation Equipment",
    "source_country": "IT",
    "country": "Italy",
    "state": "Emilia-Romagna",
    "city": "San Mauro Pascoli"
  },
  {
    "source_id": "ChIJwYXdEbi4LBMRNfpgmsinmII",
    "name": "IQOS PREMIUM PARTNER S. MAURO PASCOLI",
    "category": "IQOS PREMIUM PARTNER S. MAURO PASCOLI",
    "formatted_address": "4,8(54)",
    "phone_number": "+390541932328",
    "source_url": "https://www.google.com/maps/place/IQOS+PREMIUM+PARTNER+S.+MAURO+PASCOLI/data=!4m7!3m6!1s0x132cb8b811dd85c1:0x8298a7c89a60fa35!8m2!3d44.107773!4d12.415901!16s%2Fg%2F1v9d4ps9!19sChIJwYXdEbi4LBMRNfpgmsinmII?authuser=0&hl=tr&rclk=1",
    "website_url": "",
    "rating_text": "4,8",
    "stars": null,
    "number_of_reviews": null,
    "price_level": "",
    "open_hours": "",
    "extraction_timestamp": "2025-06-07T16:52:05.563Z",
    "source_name": "google",
    "source_query": "Irrigation Equipment",
    "source_country": "IT",
    "country": "Italy",
    "state": "Emilia-Romagna",
    "city": "San Mauro Pascoli"
  },
  {
    "source_id": "ChIJ5eusBbm4LBMRqdtqUSW7ww0",
    "name": "La Ferramenta di Neri Tiziano & C.",
    "category": "La Ferramenta di Neri Tiziano & C.",
    "formatted_address": "4,6(145)",
    "phone_number": "+390541932567",
    "source_url": "https://www.google.com/maps/place/La+Ferramenta+di+Neri+Tiziano+%26+C./data=!4m7!3m6!1s0x132cb8b905acebe5:0xdc3bb25516adba9!8m2!3d44.1097223!4d12.4183763!16s%2Fg%2F1tfd92fr!19sChIJ5eusBbm4LBMRqdtqUSW7ww0?authuser=0&hl=tr&rclk=1",
    "website_url": "",
    "rating_text": "4,6",
    "stars": null,
    "number_of_reviews": null,
    "price_level": "",
    "open_hours": "",
    "extraction_timestamp": "2025-06-07T16:52:05.565Z",
    "source_name": "google",
    "source_query": "Irrigation Equipment",
    "source_country": "IT",
    "country": "Italy",
    "state": "Emilia-Romagna",
    "city": "San Mauro Pascoli"
  },
  {
    "source_id": "ChIJgb9zCcu4LBMRxtZTzrVE8rg",
    "name": "Com-Tec S.N.C. di Martini Gabrio & C.",
    "category": "Com-Tec S.N.C. di Martini Gabrio & C.",
    "formatted_address": "4,0(4)",
    "phone_number": "+390541930022",
    "source_url": "https://www.google.com/maps/place/Com-Tec+S.N.C.+di+Martini+Gabrio+%26+C./data=!4m7!3m6!1s0x132cb8cb0973bf81:0xb8f244b5ce53d6c6!8m2!3d44.1158416!4d12.4165066!16s%2Fg%2F1hc84h_wl!19sChIJgb9zCcu4LBMRxtZTzrVE8rg?authuser=0&hl=tr&rclk=1",
    "website_url": "",
    "rating_text": "4,0",
    "stars": null,
    "number_of_reviews": null,
    "price_level": "",
    "open_hours": "",
    "extraction_timestamp": "2025-06-07T16:52:05.566Z",
    "source_name": "google",
    "source_query": "Irrigation Equipment",
    "source_country": "IT",
    "country": "Italy",
    "state": "Emilia-Romagna",
    "city": "San Mauro Pascoli"
  },
  {
    "source_id": "ChIJx2FM2re4LBMRkn1S9NN5qVg",
    "name": "Ferramenta Fercasa",
    "category": "Ferramenta Fercasa",
    "formatted_address": "4,8(44)",
    "phone_number": "+390541931227",
    "source_url": "https://www.google.com/maps/place/Ferramenta+Fercasa/data=!4m7!3m6!1s0x132cb8b7da4c61c7:0x58a979d3f4527d92!8m2!3d44.1057146!4d12.4157619!16s%2Fg%2F11b6hy03vw!19sChIJx2FM2re4LBMRkn1S9NN5qVg?authuser=0&hl=tr&rclk=1",
    "website_url": "",
    "rating_text": "4,8",
    "stars": null,
    "number_of_reviews": null,
    "price_level": "",
    "open_hours": "",
    "extraction_timestamp": "2025-06-07T16:52:05.569Z",
    "source_name": "google",
    "source_query": "Irrigation Equipment",
    "source_country": "IT",
    "country": "Italy",
    "state": "Emilia-Romagna",
    "city": "San Mauro Pascoli"
  },
  {
    "source_id": "ChIJoa2kRby4LBMRBLWQCNEEQ6s",
    "name": "Termoidraulica Di Bianchi Fausto",
    "category": "Termoidraulica Di Bianchi Fausto",
    "formatted_address": "4,1(10)",
    "phone_number": "+393395750202",
    "source_url": "https://www.google.com/maps/place/Termoidraulica+Di+Bianchi+Fausto/data=!4m7!3m6!1s0x132cb8bc45a4ada1:0xab4304d10890b504!8m2!3d44.1125288!4d12.4238424!16s%2Fg%2F12hv508s1!19sChIJoa2kRby4LBMRBLWQCNEEQ6s?authuser=0&hl=tr&rclk=1",
    "website_url": "",
    "rating_text": "4,1",
    "stars": null,
    "number_of_reviews": null,
    "price_level": "",
    "open_hours": "",
    "extraction_timestamp": "2025-06-07T16:52:05.570Z",
    "source_name": "google",
    "source_query": "Irrigation Equipment",
    "source_country": "IT",
    "country": "Italy",
    "state": "Emilia-Romagna",
    "city": "San Mauro Pascoli"
  },
  {
    "source_id": "ChIJKb3qwAq9LBMRUcJUgWGEt0U",
    "name": "Casali Irrigazione",
    "category": "Casali Irrigazione",
    "formatted_address": "3,0(1)",
    "phone_number": "+393346424587",
    "source_url": "https://www.google.com/maps/place/Casali+Irrigazione/data=!4m7!3m6!1s0x132cbd0ac0eabd29:0x45b784618154c251!8m2!3d44.08289!4d12.27084!16s%2Fg%2F1tdr5fdj!19sChIJKb3qwAq9LBMRUcJUgWGEt0U?authuser=0&hl=tr&rclk=1",
    "website_url": "",
    "rating_text": "3,0",
    "stars": null,
    "number_of_reviews": null,
    "price_level": "",
    "open_hours": "",
    "extraction_timestamp": "2025-06-07T16:52:05.572Z",
    "source_name": "google",
    "source_query": "Irrigation Equipment",
    "source_country": "IT",
    "country": "Italy",
    "state": "Emilia-Romagna",
    "city": "San Mauro Pascoli"
  },
  {
    "source_id": "ChIJwb4JcgW4LBMR8IIOzqneApA",
    "name": "Elettromeccanica Veneta",
    "category": "Elettromeccanica Veneta",
    "formatted_address": "4,6(237)",
    "phone_number": "+390547680599",
    "source_url": "https://www.google.com/maps/place/Elettromeccanica+Veneta/data=!4m7!3m6!1s0x132cb8057209bec1:0x9002dea9ce0e82f0!8m2!3d44.1628684!4d12.4287451!16s%2Fg%2F11c5b131z9!19sChIJwb4JcgW4LBMR8IIOzqneApA?authuser=0&hl=tr&rclk=1",
    "website_url": "",
    "rating_text": "4,6",
    "stars": null,
    "number_of_reviews": null,
    "price_level": "",
    "open_hours": "",
    "extraction_timestamp": "2025-06-07T16:52:05.574Z",
    "source_name": "google",
    "source_query": "Irrigation Equipment",
    "source_country": "IT",
    "country": "Italy",
    "state": "Emilia-Romagna",
    "city": "San Mauro Pascoli"
  },
  {
    "source_id": "ChIJyXaABgm4LBMRTn0VGVjargo",
    "name": "Decathlon Savignano",
    "category": "Decathlon Savignano",
    "formatted_address": "4,3(2.231)",
    "phone_number": "+390541341327",
    "source_url": "https://www.google.com/maps/place/Decathlon+Savignano/data=!4m7!3m6!1s0x132cb809068076c9:0xaaeda5819157d4e!8m2!3d44.1582494!4d12.434803!16s%2Fg%2F11fx8c1wn0!19sChIJyXaABgm4LBMRTn0VGVjargo?authuser=0&hl=tr&rclk=1",
    "website_url": "",
    "rating_text": "4,3",
    "stars": null,
    "number_of_reviews": null,
    "price_level": "",
    "open_hours": "",
    "extraction_timestamp": "2025-06-07T16:52:05.576Z",
    "source_name": "google",
    "source_query": "Irrigation Equipment",
    "source_country": "IT",
    "country": "Italy",
    "state": "Emilia-Romagna",
    "city": "San Mauro Pascoli"
  },
  {
    "source_id": "ChIJR0pDRPzHLBMR3-2b760uDUM",
    "name": "Bagno Fido Beach 11 - Grandi Spiagge San Mauro Mare",
    "category": "Bagno Fido Beach 11 - Grandi Spiagge San Mauro Mare",
    "formatted_address": "4,6(214)",
    "phone_number": "+393347834746",
    "source_url": "https://www.google.com/maps/place/Bagno+Fido+Beach+11+-+Grandi+Spiagge+San+Mauro+Mare/data=!4m7!3m6!1s0x132cc7fc44434a47:0x430d2eadef9beddf!8m2!3d44.1662811!4d12.4457207!16s%2Fg%2F11hb5208gc!19sChIJR0pDRPzHLBMR3-2b760uDUM?authuser=0&hl=tr&rclk=1",
    "website_url": "",
    "rating_text": "4,6",
    "stars": null,
    "number_of_reviews": null,
    "price_level": "",
    "open_hours": "",
    "extraction_timestamp": "2025-06-07T16:52:05.578Z",
    "source_name": "google",
    "source_query": "Irrigation Equipment",
    "source_country": "IT",
    "country": "Italy",
    "state": "Emilia-Romagna",
    "city": "San Mauro Pascoli"
  },
  {
    "source_id": "ChIJh7Widue4LBMR8Pa9eNLPHh8",
    "name": "Adriatica Acque Srl",
    "category": "Adriatica Acque Srl",
    "formatted_address": "3,6(23)",
    "phone_number": "+39800323800",
    "source_url": "https://www.google.com/maps/place/Adriatica+Acque+Srl/data=!4m7!3m6!1s0x132cb8e776a2b587:0x1f1ecfd278bdf6f0!8m2!3d44.1120403!4d12.4016461!16s%2Fg%2F1ptz6htsp!19sChIJh7Widue4LBMR8Pa9eNLPHh8?authuser=0&hl=tr&rclk=1",
    "website_url": "",
    "rating_text": "3,6",
    "stars": null,
    "number_of_reviews": null,
    "price_level": "",
    "open_hours": "",
    "extraction_timestamp": "2025-06-07T16:52:05.580Z",
    "source_name": "google",
    "source_query": "Irrigation Equipment",
    "source_country": "IT",
    "country": "Italy",
    "state": "Emilia-Romagna",
    "city": "San Mauro Pascoli"
  },
  {
    "source_id": "ChIJPdQSPQm4LBMRcaURXgN0Sn8",
    "name": "Leroy Merlin",
    "category": "Leroy Merlin",
    "formatted_address": "4,3(8.510)",
    "phone_number": "+3905411742340",
    "source_url": "https://www.google.com/maps/place/Leroy+Merlin/data=!4m7!3m6!1s0x132cb8093d12d43d:0x7f4a74035e11a571!8m2!3d44.1573105!4d12.4337902!16s%2Fg%2F1tflv3x_!19sChIJPdQSPQm4LBMRcaURXgN0Sn8?authuser=0&hl=tr&rclk=1",
    "website_url": "",
    "rating_text": "4,3",
    "stars": null,
    "number_of_reviews": null,
    "price_level": "",
    "open_hours": "",
    "extraction_timestamp": "2025-06-07T16:52:05.582Z",
    "source_name": "google",
    "source_query": "Irrigation Equipment",
    "source_country": "IT",
    "country": "Italy",
    "state": "Emilia-Romagna",
    "city": "San Mauro Pascoli"
  }
]
