[
  {
    "source_id": "ChIJcQG6ul7df0cR3VxKiu5OPBs",
    "name": "Scova Impianti Srl",
    "category": "Scova Impianti Srl",
    "formatted_address": "4,5(64)",
    "phone_number": "+39059923202",
    "source_url": "https://www.google.com/maps/place/Scova+Impianti+Srl/data=!4m7!3m6!1s0x477fdd5ebaba0171:0x1b3c4eee8a4a5cdd!8m2!3d44.6018135!4d11.032294!16s%2Fg%2F1tfzwbfb!19sChIJcQG6ul7df0cR3VxKiu5OPBs?authuser=0&hl=tr&rclk=1",
    "website_url": "https://www.scovaimpianti.com/",
    "rating_text": "4,5",
    "stars": null,
    "number_of_reviews": null,
    "price_level": "",
    "open_hours": "",
    "extraction_timestamp": "2025-06-07T16:19:10.674Z",
    "source_name": "google",
    "source_query": "Irrigation Equipment",
    "source_country": "IT",
    "country": "Italy",
    "state": "Emilia-Romagna",
    "city": "San Michele dei Mucchietti"
  },
  {
    "source_id": "ChIJJ6V6lMDgf0cR1SpFsfjDuHg",
    "name": "Ocmis Irrigazione Spa",
    "category": "Ocmis Irrigazione Spa",
    "formatted_address": "3,5(31)",
    "phone_number": "+39059702150",
    "source_url": "https://www.google.com/maps/place/Ocmis+Irrigazione+Spa/data=!4m7!3m6!1s0x477fe0c0947aa527:0x78b8c3f8b1452ad5!8m2!3d44.530494!4d10.9794578!16s%2Fg%2F1vd3tn19!19sChIJJ6V6lMDgf0cR1SpFsfjDuHg?authuser=0&hl=tr&rclk=1",
    "website_url": "http://www.ocmis-irrigazione.it/",
    "rating_text": "3,5",
    "stars": null,
    "number_of_reviews": null,
    "price_level": "",
    "open_hours": "",
    "extraction_timestamp": "2025-06-07T16:19:10.675Z",
    "source_name": "google",
    "source_query": "Irrigation Equipment",
    "source_country": "IT",
    "country": "Italy",
    "state": "Emilia-Romagna",
    "city": "San Michele dei Mucchietti"
  },
  {
    "source_id": "ChIJtVDkNgRFgEcRqc6umwWIJuI",
    "name": "Rm Spa",
    "category": "Rm Spa",
    "formatted_address": "4,6(81)",
    "phone_number": "+390521872321",
    "source_url": "https://www.google.com/maps/place/Rm+Spa/data=!4m7!3m6!1s0x4780450436e450b5:0xe22688059baecea9!8m2!3d44.9105406!4d10.2583785!16s%2Fg%2F12hl93byl!19sChIJtVDkNgRFgEcRqc6umwWIJuI?authuser=0&hl=tr&rclk=1",
    "website_url": "http://www.rmirrigation.com/",
    "rating_text": "4,6",
    "stars": null,
    "number_of_reviews": null,
    "price_level": "",
    "open_hours": "",
    "extraction_timestamp": "2025-06-07T16:19:10.676Z",
    "source_name": "google",
    "source_query": "Irrigation Equipment",
    "source_country": "IT",
    "country": "Italy",
    "state": "Emilia-Romagna",
    "city": "San Michele dei Mucchietti"
  },
  {
    "source_id": "ChIJq5e6TTv0f0cRe0lfkBwyQVE",
    "name": "Aqua Industrial Group",
    "category": "Aqua Industrial Group",
    "formatted_address": "3,5(10)",
    "phone_number": "+390522695805",
    "source_url": "https://www.google.com/maps/place/Aqua+Industrial+Group/data=!4m7!3m6!1s0x477ff43b4dba97ab:0x5141321c905f497b!8m2!3d44.7252141!4d10.7656823!16s%2Fg%2F1hc61vd63!19sChIJq5e6TTv0f0cRe0lfkBwyQVE?authuser=0&hl=tr&rclk=1",
    "website_url": "http://www.aqua.it/",
    "rating_text": "3,5",
    "stars": null,
    "number_of_reviews": null,
    "price_level": "",
    "open_hours": "",
    "extraction_timestamp": "2025-06-07T16:19:10.677Z",
    "source_name": "google",
    "source_query": "Irrigation Equipment",
    "source_country": "IT",
    "country": "Italy",
    "state": "Emilia-Romagna",
    "city": "San Michele dei Mucchietti"
  },
  {
    "source_id": "ChIJqdtsqMTaf0cRFSqvzNBB5Tw",
    "name": "Ricchetti Irrigazione Snc Di Alberghini Paolo E C.",
    "category": "Ricchetti Irrigazione Snc Di Alberghini Paolo E C.",
    "formatted_address": "4,9(31)",
    "phone_number": "+39051950115",
    "source_url": "https://www.google.com/maps/place/Ricchetti+Irrigazione+Snc+Di+Alberghini+Paolo+E+C./data=!4m7!3m6!1s0x477fdac4a86cdba9:0x3ce541d0ccaf2a15!8m2!3d44.5883369!4d11.1803569!16s%2Fg%2F1vfn5hgh!19sChIJqdtsqMTaf0cRFSqvzNBB5Tw?authuser=0&hl=tr&rclk=1",
    "website_url": "http://www.ricchetti-irrigatori.it/",
    "rating_text": "4,9",
    "stars": null,
    "number_of_reviews": null,
    "price_level": "",
    "open_hours": "",
    "extraction_timestamp": "2025-06-07T16:19:10.678Z",
    "source_name": "google",
    "source_query": "Irrigation Equipment",
    "source_country": "IT",
    "country": "Italy",
    "state": "Emilia-Romagna",
    "city": "San Michele dei Mucchietti"
  },
  {
    "source_id": "ChIJtzLXV34mgEcR9sDfnfgzOxg",
    "name": "Sime Idromeccanica S.R.L.",
    "category": "Sime Idromeccanica S.R.L.",
    "formatted_address": "4,8(22)",
    "phone_number": "+390522824724",
    "source_url": "https://www.google.com/maps/place/Sime+Idromeccanica+S.R.L./data=!4m7!3m6!1s0x4780267e57d732b7:0x183b33f89ddfc0f6!8m2!3d44.8931121!4d10.6571392!16s%2Fg%2F1tx1s13m!19sChIJtzLXV34mgEcR9sDfnfgzOxg?authuser=0&hl=tr&rclk=1",
    "website_url": "",
    "rating_text": "4,8",
    "stars": null,
    "number_of_reviews": null,
    "price_level": "",
    "open_hours": "",
    "extraction_timestamp": "2025-06-07T16:19:10.680Z",
    "source_name": "google",
    "source_query": "Irrigation Equipment",
    "source_country": "IT",
    "country": "Italy",
    "state": "Emilia-Romagna",
    "city": "San Michele dei Mucchietti"
  },
  {
    "source_id": "ChIJtdJC5j6Zf0cRmmVcuMyNEW0",
    "name": "Tadei | Impianti irrigazione | Robot tagliaerba | Barbecue | Outdoor",
    "category": "Tadei | Impianti irrigazione | Robot tagliaerba | Barbecue | Outdoor",
    "formatted_address": "4,6(69)",
    "phone_number": "+390386733460",
    "source_url": "https://www.google.com/maps/place/Tadei+%7C+Impianti+irrigazione+%7C+Robot+tagliaerba+%7C+Barbecue+%7C+Outdoor/data=!4m7!3m6!1s0x477f993ee642d2b5:0x6d118dccb85c659a!8m2!3d44.9680645!4d11.1076526!16s%2Fg%2F113dpgnd_!19sChIJtdJC5j6Zf0cRmmVcuMyNEW0?authuser=0&hl=tr&rclk=1",
    "website_url": "https://www.irrigazionetadei.it/",
    "rating_text": "4,6",
    "stars": null,
    "number_of_reviews": null,
    "price_level": "",
    "open_hours": "",
    "extraction_timestamp": "2025-06-07T16:19:10.681Z",
    "source_name": "google",
    "source_query": "Irrigation Equipment",
    "source_country": "IT",
    "country": "Italy",
    "state": "Emilia-Romagna",
    "city": "San Michele dei Mucchietti"
  },
  {
    "source_id": "ChIJiVSvsQIdgEcR0PUcMFDq-Yg",
    "name": "Idrotim",
    "category": "Idrotim",
    "formatted_address": "5,0(5)",
    "phone_number": "+393387675768",
    "source_url": "https://www.google.com/maps/place/Idrotim/data=!4m7!3m6!1s0x47801d02b1af5489:0x88f9ea50301cf5d0!8m2!3d44.642221!4d10.671266!16s%2Fg%2F1tnhx5lh!19sChIJiVSvsQIdgEcR0PUcMFDq-Yg?authuser=0&hl=tr&rclk=1",
    "website_url": "http://www.idrotim.it/",
    "rating_text": "5,0",
    "stars": null,
    "number_of_reviews": null,
    "price_level": "",
    "open_hours": "",
    "extraction_timestamp": "2025-06-07T16:19:10.682Z",
    "source_name": "google",
    "source_query": "Irrigation Equipment",
    "source_country": "IT",
    "country": "Italy",
    "state": "Emilia-Romagna",
    "city": "San Michele dei Mucchietti"
  }
]
