[
  {
    "source_id": "ChIJ9X_DI6LDLBMR84MeChQNUCU",
    "name": "Irriverde - Il Paesaggio S.r.l.",
    "category": "Irriverde - Il Paesaggio S.r.l.",
    "formatted_address": "4,8(15)",
    "phone_number": "+393939275801",
    "source_url": "https://www.google.com/maps/place/Irriverde+-+Il+Paesaggio+S.r.l./data=!4m7!3m6!1s0x132cc3a223c37ff5:0x25500d140a1e83f3!8m2!3d43.982224!4d12.5281091!16s%2Fg%2F1ptz65rjr!19sChIJ9X_DI6LDLBMR84MeChQNUCU?authuser=0&hl=tr&rclk=1",
    "website_url": "http://www.irriverde.it/",
    "rating_text": "4,8",
    "stars": null,
    "number_of_reviews": null,
    "price_level": "",
    "open_hours": "",
    "extraction_timestamp": "2025-06-07T15:52:14.858Z",
    "source_name": "google",
    "source_query": "Irrigation Equipment",
    "source_country": "IT",
    "country": "Italy",
    "state": "Emilia-Romagna",
    "city": "San Giovanni in Marignano"
  },
  {
    "source_id": "ChIJ5YubzCjhLBMRJohV4GFjSWs",
    "name": "Gessi & Carboni (S.N.C.)",
    "category": "Gessi & Carboni (S.N.C.)",
    "formatted_address": "5,0(1)",
    "phone_number": "+390541955551",
    "source_url": "https://www.google.com/maps/place/Gessi+%26+Carboni+%28S.N.C.%29/data=!4m7!3m6!1s0x132ce128cc9b8be5:0x6b496361e0558826!8m2!3d43.9451589!4d12.7243947!16s%2Fg%2F1hc34ltwx!19sChIJ5YubzCjhLBMRJohV4GFjSWs?authuser=0&hl=tr&rclk=1",
    "website_url": "",
    "rating_text": "5,0",
    "stars": null,
    "number_of_reviews": null,
    "price_level": "",
    "open_hours": "",
    "extraction_timestamp": "2025-06-07T15:52:14.861Z",
    "source_name": "google",
    "source_query": "Irrigation Equipment",
    "source_country": "IT",
    "country": "Italy",
    "state": "Emilia-Romagna",
    "city": "San Giovanni in Marignano"
  },
  {
    "source_id": "ChIJH-eHri7hLBMRT_jsrRJxn6Q",
    "name": "Bricocenter",
    "category": "Bricocenter",
    "formatted_address": "4,1(1.084)",
    "phone_number": "+390541827273",
    "source_url": "https://www.google.com/maps/place/Bricocenter/data=!4m7!3m6!1s0x132ce12eae87e71f:0xa49f7112adecf84f!8m2!3d43.9460181!4d12.7202233!16s%2Fg%2F11b6cp583b!19sChIJH-eHri7hLBMRT_jsrRJxn6Q?authuser=0&hl=tr&rclk=1",
    "website_url": "https://www.bricocenter.it/it/punti-vendita/ep-minisito-punto-vendita/san-giovanni-marignano",
    "rating_text": "4,1",
    "stars": null,
    "number_of_reviews": null,
    "price_level": "",
    "open_hours": "",
    "extraction_timestamp": "2025-06-07T15:52:14.864Z",
    "source_name": "google",
    "source_query": "Irrigation Equipment",
    "source_country": "IT",
    "country": "Italy",
    "state": "Emilia-Romagna",
    "city": "San Giovanni in Marignano"
  },
  {
    "source_id": "ChIJy4AVn9C-LBMRn6nsnuZl82A",
    "name": "Ramilli Irrigazioni S.R.L.",
    "category": "Ramilli Irrigazioni S.R.L.",
    "formatted_address": "4,3(52)",
    "phone_number": "+390541945335",
    "source_url": "https://www.google.com/maps/place/Ramilli+Irrigazioni+S.R.L./data=!4m7!3m6!1s0x132cbed09f1580cb:0x60f365e69eeca99f!8m2!3d44.0923156!4d12.3843691!16s%2Fg%2F1ts2ls1r!19sChIJy4AVn9C-LBMRn6nsnuZl82A?authuser=0&hl=tr&rclk=1",
    "website_url": "https://www.ramilli.it/",
    "rating_text": "4,3",
    "stars": null,
    "number_of_reviews": null,
    "price_level": "",
    "open_hours": "",
    "extraction_timestamp": "2025-06-07T15:52:14.867Z",
    "source_name": "google",
    "source_query": "Irrigation Equipment",
    "source_country": "IT",
    "country": "Italy",
    "state": "Emilia-Romagna",
    "city": "San Giovanni in Marignano"
  },
  {
    "source_id": "ChIJUfge4C3hLBMRZKqP7kVybkg",
    "name": "Tansport - Football Specialist San Giovanni in Marignano (RN)",
    "category": "Tansport - Football Specialist San Giovanni in Marignano (RN)",
    "formatted_address": "4,7(150)",
    "phone_number": "+390541956654",
    "source_url": "https://www.google.com/maps/place/Tansport+-+Football+Specialist+San+Giovanni+in+Marignano+%28RN%29/data=!4m7!3m6!1s0x132ce12de01ef851:0x486e7245ee8faa64!8m2!3d43.9432287!4d12.7180192!16s%2Fg%2F1tvdxpst!19sChIJUfge4C3hLBMRZKqP7kVybkg?authuser=0&hl=tr&rclk=1",
    "website_url": "",
    "rating_text": "4,7",
    "stars": null,
    "number_of_reviews": null,
    "price_level": "",
    "open_hours": "",
    "extraction_timestamp": "2025-06-07T15:52:14.869Z",
    "source_name": "google",
    "source_query": "Irrigation Equipment",
    "source_country": "IT",
    "country": "Italy",
    "state": "Emilia-Romagna",
    "city": "San Giovanni in Marignano"
  },
  {
    "source_id": "ChIJ6Sr8LSfhLBMRfEMyumrFJa4",
    "name": "Water And Wind Di Roberto Fabbri",
    "category": "Water And Wind Di Roberto Fabbri",
    "formatted_address": "4,7(15)",
    "phone_number": "+393389914066",
    "source_url": "https://www.google.com/maps/place/Water+And+Wind+Di+Roberto+Fabbri/data=!4m7!3m6!1s0x132ce1272dfc2ae9:0xae25c56aba32437c!8m2!3d43.949533!4d12.7312155!16s%2Fg%2F1tjbbfb6!19sChIJ6Sr8LSfhLBMRfEMyumrFJa4?authuser=0&hl=tr&rclk=1",
    "website_url": "",
    "rating_text": "4,7",
    "stars": null,
    "number_of_reviews": null,
    "price_level": "",
    "open_hours": "",
    "extraction_timestamp": "2025-06-07T15:52:14.870Z",
    "source_name": "google",
    "source_query": "Irrigation Equipment",
    "source_country": "IT",
    "country": "Italy",
    "state": "Emilia-Romagna",
    "city": "San Giovanni in Marignano"
  },
  {
    "source_id": "ChIJqdtsqMTaf0cRFSqvzNBB5Tw",
    "name": "Ricchetti Irrigazione Snc Di Alberghini Paolo E C.",
    "category": "Ricchetti Irrigazione Snc Di Alberghini Paolo E C.",
    "formatted_address": "4,9(31)",
    "phone_number": "+39051950115",
    "source_url": "https://www.google.com/maps/place/Ricchetti+Irrigazione+Snc+Di+Alberghini+Paolo+E+C./data=!4m7!3m6!1s0x477fdac4a86cdba9:0x3ce541d0ccaf2a15!8m2!3d44.5883369!4d11.1803569!16s%2Fg%2F1vfn5hgh!19sChIJqdtsqMTaf0cRFSqvzNBB5Tw?authuser=0&hl=tr&rclk=1",
    "website_url": "http://www.ricchetti-irrigatori.it/",
    "rating_text": "4,9",
    "stars": null,
    "number_of_reviews": null,
    "price_level": "",
    "open_hours": "",
    "extraction_timestamp": "2025-06-07T15:52:14.872Z",
    "source_name": "google",
    "source_query": "Irrigation Equipment",
    "source_country": "IT",
    "country": "Italy",
    "state": "Emilia-Romagna",
    "city": "San Giovanni in Marignano"
  },
  {
    "source_id": "ChIJ-XPWVjvqLBMRlThQNFhJ-Lc",
    "name": "Celli S.p.A.",
    "category": "Celli S.p.A.",
    "formatted_address": "3,4(13)",
    "phone_number": "+390541755211",
    "source_url": "https://www.google.com/maps/place/Celli+S.p.A./data=!4m7!3m6!1s0x132cea3b56d673f9:0xb7f8495834503895!8m2!3d43.9447435!4d12.7311753!16s%2Fg%2F1yf4rf7gf!19sChIJ-XPWVjvqLBMRlThQNFhJ-Lc?authuser=0&hl=tr&rclk=1",
    "website_url": "https://www.celli.com/",
    "rating_text": "3,4",
    "stars": null,
    "number_of_reviews": null,
    "price_level": "",
    "open_hours": "",
    "extraction_timestamp": "2025-06-07T15:52:14.873Z",
    "source_name": "google",
    "source_query": "Irrigation Equipment",
    "source_country": "IT",
    "country": "Italy",
    "state": "Emilia-Romagna",
    "city": "San Giovanni in Marignano"
  },
  {
    "source_id": "ChIJa_gbLo3gLBMRoe0EyWZDrNw",
    "name": "Bernabè Group Srl",
    "category": "Bernabè Group Srl",
    "formatted_address": "3,9(40)",
    "phone_number": "+390541962915",
    "source_url": "https://www.google.com/maps/place/Bernab%C3%A8+Group+Srl/data=!4m7!3m6!1s0x132ce08d2e1bf86b:0xdcac4366c904eda1!8m2!3d43.9651008!4d12.7189378!16s%2Fg%2F1hc2l3_nh!19sChIJa_gbLo3gLBMRoe0EyWZDrNw?authuser=0&hl=tr&rclk=1",
    "website_url": "http://www.bernabegroup.it/",
    "rating_text": "3,9",
    "stars": null,
    "number_of_reviews": null,
    "price_level": "",
    "open_hours": "",
    "extraction_timestamp": "2025-06-07T15:52:14.874Z",
    "source_name": "google",
    "source_query": "Irrigation Equipment",
    "source_country": "IT",
    "country": "Italy",
    "state": "Emilia-Romagna",
    "city": "San Giovanni in Marignano"
  },
  {
    "source_id": "ChIJtVDkNgRFgEcRqc6umwWIJuI",
    "name": "Rm Spa",
    "category": "Rm Spa",
    "formatted_address": "4,6(81)",
    "phone_number": "+390521872321",
    "source_url": "https://www.google.com/maps/place/Rm+Spa/data=!4m7!3m6!1s0x4780450436e450b5:0xe22688059baecea9!8m2!3d44.9105406!4d10.2583785!16s%2Fg%2F12hl93byl!19sChIJtVDkNgRFgEcRqc6umwWIJuI?authuser=0&hl=tr&rclk=1",
    "website_url": "http://www.rmirrigation.com/",
    "rating_text": "4,6",
    "stars": null,
    "number_of_reviews": null,
    "price_level": "",
    "open_hours": "",
    "extraction_timestamp": "2025-06-07T15:52:14.876Z",
    "source_name": "google",
    "source_query": "Irrigation Equipment",
    "source_country": "IT",
    "country": "Italy",
    "state": "Emilia-Romagna",
    "city": "San Giovanni in Marignano"
  },
  {
    "source_id": "ChIJ4QkZTTPhLBMRGXxkXNIy5dc",
    "name": "Gaia Guglielmo & C. snc",
    "category": "Gaia Guglielmo & C. snc",
    "formatted_address": "4,7(135)",
    "phone_number": "+390541956154",
    "source_url": "https://www.google.com/maps/place/Gaia+Guglielmo+%26+C.+snc/data=!4m7!3m6!1s0x132ce1334d1909e1:0xd7e532d25c647c19!8m2!3d43.9385435!4d12.71388!16s%2Fg%2F1td82n5_!19sChIJ4QkZTTPhLBMRGXxkXNIy5dc?authuser=0&hl=tr&rclk=1",
    "website_url": "http://www.gaiaguglielmo.com/",
    "rating_text": "4,7",
    "stars": null,
    "number_of_reviews": null,
    "price_level": "",
    "open_hours": "",
    "extraction_timestamp": "2025-06-07T15:52:14.877Z",
    "source_name": "google",
    "source_query": "Irrigation Equipment",
    "source_country": "IT",
    "country": "Italy",
    "state": "Emilia-Romagna",
    "city": "San Giovanni in Marignano"
  },
  {
    "source_id": "ChIJx8wnLkrhLBMRcm2ZyiASjJ4",
    "name": "APN FISHKEEPING NEGOZIO DI ACQUARI E PESCI TROPICALI",
    "category": "APN FISHKEEPING NEGOZIO DI ACQUARI E PESCI TROPICALI",
    "formatted_address": "Akvaryum Mağazası · Via della Resistenza, 45Açık ⋅ Kapanış saati: 20:00 · +39 331 396 1482",
    "phone_number": "+393313961482",
    "source_url": "https://www.google.com/maps/place/APN+FISHKEEPING+NEGOZIO+DI+ACQUARI+E+PESCI+TROPICALI/data=!4m7!3m6!1s0x132ce14a2e27ccc7:0x9e8c1220ca996d72!8m2!3d43.9368885!4d12.714747!16s%2Fg%2F11l2cnblwg!19sChIJx8wnLkrhLBMRcm2ZyiASjJ4?authuser=0&hl=tr&rclk=1",
    "website_url": "https://www.apnfishkeeping.com/",
    "rating_text": "",
    "stars": null,
    "number_of_reviews": null,
    "price_level": "",
    "open_hours": "",
    "extraction_timestamp": "2025-06-07T15:52:14.878Z",
    "source_name": "google",
    "source_query": "Irrigation Equipment",
    "source_country": "IT",
    "country": "Italy",
    "state": "Emilia-Romagna",
    "city": "San Giovanni in Marignano"
  },
  {
    "source_id": "ChIJ_57YMPjmLBMR53SE-w69kgc",
    "name": "Termoidroclimasol di O. Abbinante",
    "category": "Termoidroclimasol di O. Abbinante",
    "formatted_address": "4,5(8)",
    "phone_number": "+390541615471",
    "source_url": "https://www.google.com/maps/place/Termoidroclimasol+di+O.+Abbinante/data=!4m7!3m6!1s0x132ce6f830d89eff:0x792bd0efb8474e7!8m2!3d43.9648968!4d12.6795101!16s%2Fg%2F11g6xwtsn0!19sChIJ_57YMPjmLBMR53SE-w69kgc?authuser=0&hl=tr&rclk=1",
    "website_url": "https://termoidroclimasol.com/",
    "rating_text": "4,5",
    "stars": null,
    "number_of_reviews": null,
    "price_level": "",
    "open_hours": "",
    "extraction_timestamp": "2025-06-07T15:52:14.880Z",
    "source_name": "google",
    "source_query": "Irrigation Equipment",
    "source_country": "IT",
    "country": "Italy",
    "state": "Emilia-Romagna",
    "city": "San Giovanni in Marignano"
  },
  {
    "source_id": "ChIJzcwu6cXgLBMRTq6p_64Coac",
    "name": "Cambielli S.p.A.",
    "category": "Cambielli S.p.A.",
    "formatted_address": "4,8(9)",
    "phone_number": "+390541831711",
    "source_url": "https://www.google.com/maps/place/Cambielli+S.p.A./data=!4m7!3m6!1s0x132ce0c5e92ecccd:0xa7a102aeffa9ae4e!8m2!3d43.9636766!4d12.7172452!16s%2Fg%2F11b6jh19bc!19sChIJzcwu6cXgLBMRTq6p_64Coac?authuser=0&hl=tr&rclk=1",
    "website_url": "https://www.cambielli.it/",
    "rating_text": "4,8",
    "stars": null,
    "number_of_reviews": null,
    "price_level": "",
    "open_hours": "",
    "extraction_timestamp": "2025-06-07T15:52:14.881Z",
    "source_name": "google",
    "source_query": "Irrigation Equipment",
    "source_country": "IT",
    "country": "Italy",
    "state": "Emilia-Romagna",
    "city": "San Giovanni in Marignano"
  },
  {
    "source_id": "ChIJcQG6ul7df0cR3VxKiu5OPBs",
    "name": "Scova Impianti Srl",
    "category": "Scova Impianti Srl",
    "formatted_address": "4,5(64)",
    "phone_number": "+39059923202",
    "source_url": "https://www.google.com/maps/place/Scova+Impianti+Srl/data=!4m7!3m6!1s0x477fdd5ebaba0171:0x1b3c4eee8a4a5cdd!8m2!3d44.6018135!4d11.032294!16s%2Fg%2F1tfzwbfb!19sChIJcQG6ul7df0cR3VxKiu5OPBs?authuser=0&hl=tr&rclk=1",
    "website_url": "https://www.scovaimpianti.com/",
    "rating_text": "4,5",
    "stars": null,
    "number_of_reviews": null,
    "price_level": "",
    "open_hours": "",
    "extraction_timestamp": "2025-06-07T15:52:14.882Z",
    "source_name": "google",
    "source_query": "Irrigation Equipment",
    "source_country": "IT",
    "country": "Italy",
    "state": "Emilia-Romagna",
    "city": "San Giovanni in Marignano"
  },
  {
    "source_id": "ChIJg8-rM3bhLBMRlC0jRvd_IDo",
    "name": "Clima 3000",
    "category": "Clima 3000",
    "formatted_address": "5,0(2)",
    "phone_number": "+393333646682",
    "source_url": "https://www.google.com/maps/place/Clima+3000/data=!4m7!3m6!1s0x132ce17633abcf83:0x3a207ff746232d94!8m2!3d43.9394963!4d12.7145218!16s%2Fg%2F11r_ts7jvf!19sChIJg8-rM3bhLBMRlC0jRvd_IDo?authuser=0&hl=tr&rclk=1",
    "website_url": "",
    "rating_text": "5,0",
    "stars": null,
    "number_of_reviews": null,
    "price_level": "",
    "open_hours": "",
    "extraction_timestamp": "2025-06-07T15:52:14.884Z",
    "source_name": "google",
    "source_query": "Irrigation Equipment",
    "source_country": "IT",
    "country": "Italy",
    "state": "Emilia-Romagna",
    "city": "San Giovanni in Marignano"
  },
  {
    "source_id": "ChIJFTAuC6nnLBMRiMdoUTgpW_Y",
    "name": "Infinity Water Italia",
    "category": "Infinity Water Italia",
    "formatted_address": "",
    "phone_number": "+393496479118",
    "source_url": "https://www.google.com/maps/place/Infinity+Water+Italia/data=!4m7!3m6!1s0x132ce7a90b2e3015:0xf65b29385168c788!8m2!3d44.683763!4d11.2072882!16s%2Fg%2F11h6dyq236!19sChIJFTAuC6nnLBMRiMdoUTgpW_Y?authuser=0&hl=tr&rclk=1",
    "website_url": "",
    "rating_text": "",
    "stars": null,
    "number_of_reviews": null,
    "price_level": "",
    "open_hours": "",
    "extraction_timestamp": "2025-06-07T15:52:14.885Z",
    "source_name": "google",
    "source_query": "Irrigation Equipment",
    "source_country": "IT",
    "country": "Italy",
    "state": "Emilia-Romagna",
    "city": "San Giovanni in Marignano"
  },
  {
    "source_id": "ChIJjZQxzC3hLBMRrRJ_VIFs0CM",
    "name": "RESINOFACILE",
    "category": "RESINOFACILE",
    "formatted_address": "İnşaat Ekipmanı Tedarikçisi ·  · Via al Mare, 20+39 0541 827276",
    "phone_number": "+390541827276",
    "source_url": "https://www.google.com/maps/place/RESINOFACILE/data=!4m7!3m6!1s0x132ce12dcc31948d:0x23d06c81547f12ad!8m2!3d43.9442633!4d12.7184785!16s%2Fg%2F11gb3pvz97!19sChIJjZQxzC3hLBMRrRJ_VIFs0CM?authuser=0&hl=tr&rclk=1",
    "website_url": "http://www.resinofacile.com/",
    "rating_text": "",
    "stars": null,
    "number_of_reviews": null,
    "price_level": "",
    "open_hours": "",
    "extraction_timestamp": "2025-06-07T15:52:14.886Z",
    "source_name": "google",
    "source_query": "Irrigation Equipment",
    "source_country": "IT",
    "country": "Italy",
    "state": "Emilia-Romagna",
    "city": "San Giovanni in Marignano"
  },
  {
    "source_id": "ChIJO2MmnMrgLBMRLPL9cXpv1vk",
    "name": "MTO Nautica - Vendita Attrezzature e Articoli per la Nautica",
    "category": "MTO Nautica - Vendita Attrezzature e Articoli per la Nautica",
    "formatted_address": "4,7(82)",
    "phone_number": "+390541613760",
    "source_url": "https://www.google.com/maps/place/MTO+Nautica+-+Vendita+Attrezzature+e+Articoli+per+la+Nautica/data=!4m7!3m6!1s0x132ce0ca9c26633b:0xf9d66f7a71fdf22c!8m2!3d43.9484802!4d12.7406182!16s%2Fg%2F1q62h6k9s!19sChIJO2MmnMrgLBMRLPL9cXpv1vk?authuser=0&hl=tr&rclk=1",
    "website_url": "http://www.mtonauticastore.it/",
    "rating_text": "4,7",
    "stars": null,
    "number_of_reviews": null,
    "price_level": "",
    "open_hours": "",
    "extraction_timestamp": "2025-06-07T15:52:14.887Z",
    "source_name": "google",
    "source_query": "Irrigation Equipment",
    "source_country": "IT",
    "country": "Italy",
    "state": "Emilia-Romagna",
    "city": "San Giovanni in Marignano"
  },
  {
    "source_id": "ChIJn8TfN5LhLBMREz2gudbH8Dk",
    "name": "Würth Store & MODYF San Giovanni in Marignano / Cattolica",
    "category": "Würth Store & MODYF San Giovanni in Marignano / Cattolica",
    "formatted_address": "Nalbur ·  · Via Mincio, 42Kapalı ⋅ Açılış zamanı: Pzt 08:00 · +39 0471 827948",
    "phone_number": "+390471827948",
    "source_url": "https://www.google.com/maps/place/W%C3%BCrth+Store+%26+MODYF+San+Giovanni+in+Marignano+%2F+Cattolica/data=!4m7!3m6!1s0x132ce19237dfc49f:0x39f0c7d6b9a03d13!8m2!3d43.9449229!4d12.7176833!16s%2Fg%2F11sghn41t6!19sChIJn8TfN5LhLBMREz2gudbH8Dk?authuser=0&hl=tr&rclk=1",
    "website_url": "https://www.wuerth.it/negozi/promo-offerte/?utm_source=gmb&utm_medium=social&utm_campaign=gmb_pv_cattolica",
    "rating_text": "",
    "stars": null,
    "number_of_reviews": null,
    "price_level": "",
    "open_hours": "",
    "extraction_timestamp": "2025-06-07T15:52:14.889Z",
    "source_name": "google",
    "source_query": "Irrigation Equipment",
    "source_country": "IT",
    "country": "Italy",
    "state": "Emilia-Romagna",
    "city": "San Giovanni in Marignano"
  }
]
