[
  {
    "source_id": "ChIJK8wpNvZ7KxMRhbpTG_Inc4E",
    "name": "Ferramenta Tecno Sampierana",
    "category": "Ferramenta Tecno Sampierana",
    "formatted_address": "4,5(46)",
    "phone_number": "+390543903699",
    "source_url": "https://www.google.com/maps/place/Ferramenta+Tecno+Sampierana/data=!4m7!3m6!1s0x132b7bf63629cc2b:0x817327f21b53ba85!8m2!3d43.8561477!4d11.9786552!16s%2Fg%2F1tfkyft3!19sChIJK8wpNvZ7KxMRhbpTG_Inc4E?authuser=0&hl=tr&rclk=1",
    "website_url": "",
    "rating_text": "4,5",
    "stars": null,
    "number_of_reviews": null,
    "price_level": "",
    "open_hours": "",
    "extraction_timestamp": "2025-06-07T16:03:04.219Z",
    "source_name": "google",
    "source_query": "Irrigation Equipment",
    "source_country": "IT",
    "country": "Italy",
    "state": "Emilia-Romagna",
    "city": "San Piero in Bagno"
  },
  {
    "source_id": "ChIJK-MDTPR7KxMRpVXp6l4_zNA",
    "name": "Ferramenta F.Lli Silvani",
    "category": "Ferramenta F.Lli Silvani",
    "formatted_address": "4,8(34)",
    "phone_number": "+390543917213",
    "source_url": "https://www.google.com/maps/place/Ferramenta+F.Lli+Silvani/data=!4m7!3m6!1s0x132b7bf44c03e32b:0xd0cc3f5eeae955a5!8m2!3d43.8603034!4d11.9774735!16s%2Fg%2F1tftt6dr!19sChIJK-MDTPR7KxMRpVXp6l4_zNA?authuser=0&hl=tr&rclk=1",
    "website_url": "",
    "rating_text": "4,8",
    "stars": null,
    "number_of_reviews": null,
    "price_level": "",
    "open_hours": "",
    "extraction_timestamp": "2025-06-07T16:03:04.221Z",
    "source_name": "google",
    "source_query": "Irrigation Equipment",
    "source_country": "IT",
    "country": "Italy",
    "state": "Emilia-Romagna",
    "city": "San Piero in Bagno"
  },
  {
    "source_id": "ChIJ0YWLSvZ7KxMRahTjqe9_vlk",
    "name": "NUTI SAS DI NUTI MICHELE & C.",
    "category": "NUTI SAS DI NUTI MICHELE & C.",
    "formatted_address": "4,0(5)",
    "phone_number": "+390543918703",
    "source_url": "https://www.google.com/maps/place/NUTI+SAS+DI+NUTI+MICHELE+%26+C./data=!4m7!3m6!1s0x132b7bf64a8b85d1:0x59be7fefa9e3146a!8m2!3d43.8562568!4d11.9792091!16s%2Fg%2F11c1qsqm3f!19sChIJ0YWLSvZ7KxMRahTjqe9_vlk?authuser=0&hl=tr&rclk=1",
    "website_url": "http://www.nuti-impianti.it/",
    "rating_text": "4,0",
    "stars": null,
    "number_of_reviews": null,
    "price_level": "",
    "open_hours": "",
    "extraction_timestamp": "2025-06-07T16:03:04.224Z",
    "source_name": "google",
    "source_query": "Irrigation Equipment",
    "source_country": "IT",
    "country": "Italy",
    "state": "Emilia-Romagna",
    "city": "San Piero in Bagno"
  },
  {
    "source_id": "ChIJy4AVn9C-LBMRn6nsnuZl82A",
    "name": "Ramilli Irrigazioni S.R.L.",
    "category": "Ramilli Irrigazioni S.R.L.",
    "formatted_address": "4,3(52)",
    "phone_number": "+390541945335",
    "source_url": "https://www.google.com/maps/place/Ramilli+Irrigazioni+S.R.L./data=!4m7!3m6!1s0x132cbed09f1580cb:0x60f365e69eeca99f!8m2!3d44.0923156!4d12.3843691!16s%2Fg%2F1ts2ls1r!19sChIJy4AVn9C-LBMRn6nsnuZl82A?authuser=0&hl=tr&rclk=1",
    "website_url": "https://www.ramilli.it/",
    "rating_text": "4,3",
    "stars": null,
    "number_of_reviews": null,
    "price_level": "",
    "open_hours": "",
    "extraction_timestamp": "2025-06-07T16:03:04.225Z",
    "source_name": "google",
    "source_query": "Irrigation Equipment",
    "source_country": "IT",
    "country": "Italy",
    "state": "Emilia-Romagna",
    "city": "San Piero in Bagno"
  },
  {
    "source_id": "ChIJxwyfbMW-LBMR82ivWDKLyak",
    "name": "Campedelli srl",
    "category": "Campedelli srl",
    "formatted_address": "4,3(20)",
    "phone_number": "+390541945180",
    "source_url": "https://www.google.com/maps/place/Campedelli+srl/data=!4m7!3m6!1s0x132cbec56c9f0cc7:0xa9c98b3258af68f3!8m2!3d44.0913771!4d12.3790216!16s%2Fg%2F1td55wfn!19sChIJxwyfbMW-LBMR82ivWDKLyak?authuser=0&hl=tr&rclk=1",
    "website_url": "https://www.facebook.com/pg/campedellisrl.savignanosulrubicone/community/",
    "rating_text": "4,3",
    "stars": null,
    "number_of_reviews": null,
    "price_level": "",
    "open_hours": "",
    "extraction_timestamp": "2025-06-07T16:03:04.227Z",
    "source_name": "google",
    "source_query": "Irrigation Equipment",
    "source_country": "IT",
    "country": "Italy",
    "state": "Emilia-Romagna",
    "city": "San Piero in Bagno"
  },
  {
    "source_id": "ChIJUSrSOgB7KxMRedEJhDYICFs",
    "name": "Familiu Store",
    "category": "Familiu Store",
    "formatted_address": "5,0(1)",
    "phone_number": "+390543034762",
    "source_url": "https://www.google.com/maps/place/Familiu+Store/data=!4m7!3m6!1s0x132b7b003ad22a51:0x5b0808368409d179!8m2!3d43.8597531!4d11.9769309!16s%2Fg%2F11y7c9dsj2!19sChIJUSrSOgB7KxMRedEJhDYICFs?authuser=0&hl=tr&rclk=1",
    "website_url": "http://www.familiustore.it/",
    "rating_text": "5,0",
    "stars": null,
    "number_of_reviews": null,
    "price_level": "",
    "open_hours": "",
    "extraction_timestamp": "2025-06-07T16:03:04.229Z",
    "source_name": "google",
    "source_query": "Irrigation Equipment",
    "source_country": "IT",
    "country": "Italy",
    "state": "Emilia-Romagna",
    "city": "San Piero in Bagno"
  },
  {
    "source_id": "ChIJCfGZUN1bKhMRf4-QhnWZoPs",
    "name": "Del Taglia Irrigazione",
    "category": "Del Taglia Irrigazione",
    "formatted_address": "4,5(10)",
    "phone_number": "+390558736611",
    "source_url": "https://www.google.com/maps/place/Del+Taglia+Irrigazione/data=!4m7!3m6!1s0x132a5bdd5099f109:0xfba0997586908f7f!8m2!3d43.7938708!4d11.1035784!16s%2Fg%2F11b6hz8try!19sChIJCfGZUN1bKhMRf4-QhnWZoPs?authuser=0&hl=tr&rclk=1",
    "website_url": "http://www.dti.it/",
    "rating_text": "4,5",
    "stars": null,
    "number_of_reviews": null,
    "price_level": "",
    "open_hours": "",
    "extraction_timestamp": "2025-06-07T16:03:04.230Z",
    "source_name": "google",
    "source_query": "Irrigation Equipment",
    "source_country": "IT",
    "country": "Italy",
    "state": "Emilia-Romagna",
    "city": "San Piero in Bagno"
  },
  {
    "source_id": "ChIJGbqQNil7KxMRp1Qff2BEXUc",
    "name": "IDEA&CREATIVE",
    "category": "IDEA&CREATIVE",
    "formatted_address": "Asya Ev Eşyaları Mağazası · Piazza S. Allende, 58Açık ⋅ Kapanış saati: 20:00",
    "phone_number": "",
    "source_url": "https://www.google.com/maps/place/IDEA%26CREATIVE/data=!4m7!3m6!1s0x132b7b293690ba19:0x475d44607f1f54a7!8m2!3d43.858417!4d11.9759587!16s%2Fg%2F11lf5060xb!19sChIJGbqQNil7KxMRp1Qff2BEXUc?authuser=0&hl=tr&rclk=1",
    "website_url": "",
    "rating_text": "",
    "stars": null,
    "number_of_reviews": null,
    "price_level": "",
    "open_hours": "",
    "extraction_timestamp": "2025-06-07T16:03:04.232Z",
    "source_name": "google",
    "source_query": "Irrigation Equipment",
    "source_country": "IT",
    "country": "Italy",
    "state": "Emilia-Romagna",
    "city": "San Piero in Bagno"
  },
  {
    "source_id": "ChIJ85cgpku6LBMRfX081ZX-wQQ",
    "name": "Idroget Atomizzatori Di Bianchi Carlo E C. (S.N.C.)",
    "category": "Idroget Atomizzatori Di Bianchi Carlo E C. (S.N.C.)",
    "formatted_address": "4,7(10)",
    "phone_number": "+390547300163",
    "source_url": "https://www.google.com/maps/place/Idroget+Atomizzatori+Di+Bianchi+Carlo+E+C.+%28S.N.C.%29/data=!4m7!3m6!1s0x132cba4ba62097f3:0x4c1fe95d53c7d7d!8m2!3d44.1418046!4d12.3078685!16s%2Fg%2F11b6j8p8p3!19sChIJ85cgpku6LBMRfX081ZX-wQQ?authuser=0&hl=tr&rclk=1",
    "website_url": "http://www.idroget.it/",
    "rating_text": "4,7",
    "stars": null,
    "number_of_reviews": null,
    "price_level": "",
    "open_hours": "",
    "extraction_timestamp": "2025-06-07T16:03:04.234Z",
    "source_name": "google",
    "source_query": "Irrigation Equipment",
    "source_country": "IT",
    "country": "Italy",
    "state": "Emilia-Romagna",
    "city": "San Piero in Bagno"
  },
  {
    "source_id": "ChIJFW3XPJejLBMRDpQWGwmYqU4",
    "name": "Raggini Irrigazioni e Robot Tosaerba",
    "category": "Raggini Irrigazioni e Robot Tosaerba",
    "formatted_address": "5,0(1)",
    "phone_number": "+393926808947",
    "source_url": "https://www.google.com/maps/place/Raggini+Irrigazioni+e+Robot+Tosaerba/data=!4m7!3m6!1s0x132ca3973cd76d15:0x4ea998091b16940e!8m2!3d44.36369!4d11.8460774!16s%2Fg%2F11dz0bbs9t!19sChIJFW3XPJejLBMRDpQWGwmYqU4?authuser=0&hl=tr&rclk=1",
    "website_url": "",
    "rating_text": "5,0",
    "stars": null,
    "number_of_reviews": null,
    "price_level": "",
    "open_hours": "",
    "extraction_timestamp": "2025-06-07T16:03:04.236Z",
    "source_name": "google",
    "source_query": "Irrigation Equipment",
    "source_country": "IT",
    "country": "Italy",
    "state": "Emilia-Romagna",
    "city": "San Piero in Bagno"
  }
]
