[
  {
    "source_id": "ChIJy4AVn9C-LBMRn6nsnuZl82A",
    "name": "Ramilli Irrigazioni S.R.L.",
    "category": "Ramilli Irrigazioni S.R.L.",
    "formatted_address": "4,3(52)",
    "phone_number": "+390541945335",
    "source_url": "https://www.google.com/maps/place/Ramilli+Irrigazioni+S.R.L./data=!4m7!3m6!1s0x132cbed09f1580cb:0x60f365e69eeca99f!8m2!3d44.0923156!4d12.3843691!16s%2Fg%2F1ts2ls1r!19sChIJy4AVn9C-LBMRn6nsnuZl82A?authuser=0&hl=tr&rclk=1",
    "website_url": "https://www.ramilli.it/",
    "rating_text": "4,3",
    "stars": null,
    "number_of_reviews": null,
    "price_level": "",
    "open_hours": "",
    "extraction_timestamp": "2025-06-07T15:52:58.021Z",
    "source_name": "google",
    "source_query": "Irrigation Equipment",
    "source_country": "IT",
    "country": "Italy",
    "state": "Emilia-Romagna",
    "city": "San Mauro a Mare"
  },
  {
    "source_id": "ChIJ9X_DI6LDLBMR84MeChQNUCU",
    "name": "Irriverde - Il Paesaggio S.r.l.",
    "category": "Irriverde - Il Paesaggio S.r.l.",
    "formatted_address": "4,8(15)",
    "phone_number": "+393939275801",
    "source_url": "https://www.google.com/maps/place/Irriverde+-+Il+Paesaggio+S.r.l./data=!4m7!3m6!1s0x132cc3a223c37ff5:0x25500d140a1e83f3!8m2!3d43.982224!4d12.5281091!16s%2Fg%2F1ptz65rjr!19sChIJ9X_DI6LDLBMR84MeChQNUCU?authuser=0&hl=tr&rclk=1",
    "website_url": "http://www.irriverde.it/",
    "rating_text": "4,8",
    "stars": null,
    "number_of_reviews": null,
    "price_level": "",
    "open_hours": "",
    "extraction_timestamp": "2025-06-07T15:52:58.022Z",
    "source_name": "google",
    "source_query": "Irrigation Equipment",
    "source_country": "IT",
    "country": "Italy",
    "state": "Emilia-Romagna",
    "city": "San Mauro a Mare"
  },
  {
    "source_id": "ChIJR0pDRPzHLBMR3-2b760uDUM",
    "name": "Bagno Fido Beach 11 - Grandi Spiagge San Mauro Mare",
    "category": "Bagno Fido Beach 11 - Grandi Spiagge San Mauro Mare",
    "formatted_address": "4,6(214)",
    "phone_number": "+393347834746",
    "source_url": "https://www.google.com/maps/place/Bagno+Fido+Beach+11+-+Grandi+Spiagge+San+Mauro+Mare/data=!4m7!3m6!1s0x132cc7fc44434a47:0x430d2eadef9beddf!8m2!3d44.1662811!4d12.4457207!16s%2Fg%2F11hb5208gc!19sChIJR0pDRPzHLBMR3-2b760uDUM?authuser=0&hl=tr&rclk=1",
    "website_url": "http://www.grandispiagge.it/",
    "rating_text": "4,6",
    "stars": null,
    "number_of_reviews": null,
    "price_level": "",
    "open_hours": "",
    "extraction_timestamp": "2025-06-07T15:52:58.022Z",
    "source_name": "google",
    "source_query": "Irrigation Equipment",
    "source_country": "IT",
    "country": "Italy",
    "state": "Emilia-Romagna",
    "city": "San Mauro a Mare"
  },
  {
    "source_id": "ChIJyXaABgm4LBMRTn0VGVjargo",
    "name": "Decathlon Savignano",
    "category": "Decathlon Savignano",
    "formatted_address": "4,3(2.231)",
    "phone_number": "+390541341327",
    "source_url": "https://www.google.com/maps/place/Decathlon+Savignano/data=!4m7!3m6!1s0x132cb809068076c9:0xaaeda5819157d4e!8m2!3d44.1582494!4d12.434803!16s%2Fg%2F11fx8c1wn0!19sChIJyXaABgm4LBMRTn0VGVjargo?authuser=0&hl=tr&rclk=1",
    "website_url": "https://www.decathlon.it/store-view/negozio-sport-savignano-sul-rubicone-rimini-0070016400164",
    "rating_text": "4,3",
    "stars": null,
    "number_of_reviews": null,
    "price_level": "",
    "open_hours": "",
    "extraction_timestamp": "2025-06-07T15:52:58.023Z",
    "source_name": "google",
    "source_query": "Irrigation Equipment",
    "source_country": "IT",
    "country": "Italy",
    "state": "Emilia-Romagna",
    "city": "San Mauro a Mare"
  },
  {
    "source_id": "ChIJKb3qwAq9LBMRUcJUgWGEt0U",
    "name": "Casali Irrigazione",
    "category": "Casali Irrigazione",
    "formatted_address": "3,0(1)",
    "phone_number": "+393346424587",
    "source_url": "https://www.google.com/maps/place/Casali+Irrigazione/data=!4m7!3m6!1s0x132cbd0ac0eabd29:0x45b784618154c251!8m2!3d44.08289!4d12.27084!16s%2Fg%2F1tdr5fdj!19sChIJKb3qwAq9LBMRUcJUgWGEt0U?authuser=0&hl=tr&rclk=1",
    "website_url": "",
    "rating_text": "3,0",
    "stars": null,
    "number_of_reviews": null,
    "price_level": "",
    "open_hours": "",
    "extraction_timestamp": "2025-06-07T15:52:58.023Z",
    "source_name": "google",
    "source_query": "Irrigation Equipment",
    "source_country": "IT",
    "country": "Italy",
    "state": "Emilia-Romagna",
    "city": "San Mauro a Mare"
  },
  {
    "source_id": "ChIJPdQSPQm4LBMRcaURXgN0Sn8",
    "name": "Leroy Merlin",
    "category": "Leroy Merlin",
    "formatted_address": "4,3(8.509)",
    "phone_number": "+3905411742340",
    "source_url": "https://www.google.com/maps/place/Leroy+Merlin/data=!4m7!3m6!1s0x132cb8093d12d43d:0x7f4a74035e11a571!8m2!3d44.1573105!4d12.4337902!16s%2Fg%2F1tflv3x_!19sChIJPdQSPQm4LBMRcaURXgN0Sn8?authuser=0&hl=tr&rclk=1",
    "website_url": "https://www.leroymerlin.it/negozi/rimini.html",
    "rating_text": "4,3",
    "stars": null,
    "number_of_reviews": null,
    "price_level": "",
    "open_hours": "",
    "extraction_timestamp": "2025-06-07T15:52:58.024Z",
    "source_name": "google",
    "source_query": "Irrigation Equipment",
    "source_country": "IT",
    "country": "Italy",
    "state": "Emilia-Romagna",
    "city": "San Mauro a Mare"
  },
  {
    "source_id": "ChIJL6ITevvHLBMRk6FDg38ywBk",
    "name": "Svelto A&O",
    "category": "Svelto A&O",
    "formatted_address": "4,2(46)",
    "phone_number": "+390541344756",
    "source_url": "https://www.google.com/maps/place/Svelto+A%26O/data=!4m7!3m6!1s0x132cc7fb7a13a22f:0x19c0327f8343a193!8m2!3d44.1640673!4d12.4470478!16s%2Fg%2F11c5_5xbb3!19sChIJL6ITevvHLBMRk6FDg38ywBk?authuser=0&hl=tr&rclk=1",
    "website_url": "https://www.aeo.it/punti-vendita/Emilia%20Romagna/svelto-aeo-s-mauro-mare",
    "rating_text": "4,2",
    "stars": null,
    "number_of_reviews": null,
    "price_level": "",
    "open_hours": "",
    "extraction_timestamp": "2025-06-07T15:52:58.024Z",
    "source_name": "google",
    "source_query": "Irrigation Equipment",
    "source_country": "IT",
    "country": "Italy",
    "state": "Emilia-Romagna",
    "city": "San Mauro a Mare"
  },
  {
    "source_id": "ChIJFW3XPJejLBMRDpQWGwmYqU4",
    "name": "Raggini Irrigazioni e Robot Tosaerba",
    "category": "Raggini Irrigazioni e Robot Tosaerba",
    "formatted_address": "5,0(1)",
    "phone_number": "+393926808947",
    "source_url": "https://www.google.com/maps/place/Raggini+Irrigazioni+e+Robot+Tosaerba/data=!4m7!3m6!1s0x132ca3973cd76d15:0x4ea998091b16940e!8m2!3d44.36369!4d11.8460774!16s%2Fg%2F11dz0bbs9t!19sChIJFW3XPJejLBMRDpQWGwmYqU4?authuser=0&hl=tr&rclk=1",
    "website_url": "",
    "rating_text": "5,0",
    "stars": null,
    "number_of_reviews": null,
    "price_level": "",
    "open_hours": "",
    "extraction_timestamp": "2025-06-07T15:52:58.025Z",
    "source_name": "google",
    "source_query": "Irrigation Equipment",
    "source_country": "IT",
    "country": "Italy",
    "state": "Emilia-Romagna",
    "city": "San Mauro a Mare"
  }
]
