[
  {
    "source_id": "ChIJ25S9Nf4OgEcRegpk5nG8Rc0",
    "name": "Onda Impianti S.R.L.",
    "category": "Onda Impianti S.R.L.",
    "formatted_address": "Üretici ·  · Via Caduti del Lavoro, 3+39 0522 874626",
    "phone_number": "+390522874626",
    "source_url": "https://www.google.com/maps/place/Onda+Impianti+S.R.L./data=!4m7!3m6!1s0x47800efe35bd94db:0xcd45bc71e6640a7a!8m2!3d44.6320188!4d10.432658!16s%2Fg%2F1tj3jxxb!19sChIJ25S9Nf4OgEcRegpk5nG8Rc0?authuser=0&hl=tr&rclk=1",
    "website_url": "http://www.ondaimpianti.it/",
    "rating_text": "",
    "stars": null,
    "number_of_reviews": null,
    "price_level": "",
    "open_hours": "",
    "extraction_timestamp": "2025-06-07T16:34:18.875Z",
    "source_name": "google",
    "source_query": "Irrigation Equipment",
    "source_country": "IT",
    "country": "Italy",
    "state": "Emilia-Romagna",
    "city": "San Polo d'Enza"
  },
  {
    "source_id": "ChIJhZ5GiakPgEcROK_RuwjV4Ys",
    "name": "Rinaldi Walter & C. Snc Di Morini Guido",
    "category": "Rinaldi Walter & C. Snc Di Morini Guido",
    "formatted_address": "4,6(114)",
    "phone_number": "+390522873225",
    "source_url": "https://www.google.com/maps/place/Rinaldi+Walter+%26+C.+Snc+Di+Morini+Guido/data=!4m7!3m6!1s0x47800fa989469e85:0x8be1d508bbd1af38!8m2!3d44.6342093!4d10.4373679!16s%2Fg%2F12hlxv48n!19sChIJhZ5GiakPgEcROK_RuwjV4Ys?authuser=0&hl=tr&rclk=1",
    "website_url": "",
    "rating_text": "4,6",
    "stars": null,
    "number_of_reviews": null,
    "price_level": "",
    "open_hours": "",
    "extraction_timestamp": "2025-06-07T16:34:18.875Z",
    "source_name": "google",
    "source_query": "Irrigation Equipment",
    "source_country": "IT",
    "country": "Italy",
    "state": "Emilia-Romagna",
    "city": "San Polo d'Enza"
  },
  {
    "source_id": "ChIJb_1M2XMPgEcRhyWMPeqW6uw",
    "name": "Emilia-Piscine",
    "category": "Emilia-Piscine",
    "formatted_address": "5,0(5)",
    "phone_number": "+3905221963387",
    "source_url": "https://www.google.com/maps/place/Emilia-Piscine/data=!4m7!3m6!1s0x47800f73d94cfd6f:0xecea96ea3d8c2587!8m2!3d44.6255786!4d10.4253051!16s%2Fg%2F11sx75f1zp!19sChIJb_1M2XMPgEcRhyWMPeqW6uw?authuser=0&hl=tr&rclk=1",
    "website_url": "http://www.emilia-piscine.it/",
    "rating_text": "5,0",
    "stars": null,
    "number_of_reviews": null,
    "price_level": "",
    "open_hours": "",
    "extraction_timestamp": "2025-06-07T16:34:18.876Z",
    "source_name": "google",
    "source_query": "Irrigation Equipment",
    "source_country": "IT",
    "country": "Italy",
    "state": "Emilia-Romagna",
    "city": "San Polo d'Enza"
  },
  {
    "source_id": "ChIJtVDkNgRFgEcRqc6umwWIJuI",
    "name": "Rm Spa",
    "category": "Rm Spa",
    "formatted_address": "4,6(81)",
    "phone_number": "+390521872321",
    "source_url": "https://www.google.com/maps/place/Rm+Spa/data=!4m7!3m6!1s0x4780450436e450b5:0xe22688059baecea9!8m2!3d44.9105406!4d10.2583785!16s%2Fg%2F12hl93byl!19sChIJtVDkNgRFgEcRqc6umwWIJuI?authuser=0&hl=tr&rclk=1",
    "website_url": "http://www.rmirrigation.com/",
    "rating_text": "4,6",
    "stars": null,
    "number_of_reviews": null,
    "price_level": "",
    "open_hours": "",
    "extraction_timestamp": "2025-06-07T16:34:18.876Z",
    "source_name": "google",
    "source_query": "Irrigation Equipment",
    "source_country": "IT",
    "country": "Italy",
    "state": "Emilia-Romagna",
    "city": "San Polo d'Enza"
  },
  {
    "source_id": "ChIJ8wPeMSAPgEcRapXn7767G4Q",
    "name": "Prénatal",
    "category": "Prénatal",
    "formatted_address": "4,2(39)",
    "phone_number": "+390522873195",
    "source_url": "https://www.google.com/maps/place/Pr%C3%A9natal/data=!4m7!3m6!1s0x47800f2031de03f3:0x841bbbbeefe7956a!8m2!3d44.6161247!4d10.4154852!16s%2Fg%2F1tf2r1_0!19sChIJ8wPeMSAPgEcRapXn7767G4Q?authuser=0&hl=tr&rclk=1",
    "website_url": "https://www.prenatal.com/",
    "rating_text": "4,2",
    "stars": null,
    "number_of_reviews": null,
    "price_level": "",
    "open_hours": "",
    "extraction_timestamp": "2025-06-07T16:34:18.877Z",
    "source_name": "google",
    "source_query": "Irrigation Equipment",
    "source_country": "IT",
    "country": "Italy",
    "state": "Emilia-Romagna",
    "city": "San Polo d'Enza"
  },
  {
    "source_id": "ChIJkRgXJaEPgEcRga_Gg2QXttM",
    "name": "PIZZARELLI IMPIANTI S.N.C.",
    "category": "PIZZARELLI IMPIANTI S.N.C.",
    "formatted_address": "4,0(1)",
    "phone_number": "+393534559185",
    "source_url": "https://www.google.com/maps/place/PIZZARELLI+IMPIANTI+S.N.C./data=!4m7!3m6!1s0x47800fa125171891:0xd3b6176483c6af81!8m2!3d44.6196409!4d10.4153088!16s%2Fg%2F11v3vw62fd!19sChIJkRgXJaEPgEcRga_Gg2QXttM?authuser=0&hl=tr&rclk=1",
    "website_url": "https://pizzarelli-impianti.it/",
    "rating_text": "4,0",
    "stars": null,
    "number_of_reviews": null,
    "price_level": "",
    "open_hours": "",
    "extraction_timestamp": "2025-06-07T16:34:18.877Z",
    "source_name": "google",
    "source_query": "Irrigation Equipment",
    "source_country": "IT",
    "country": "Italy",
    "state": "Emilia-Romagna",
    "city": "San Polo d'Enza"
  },
  {
    "source_id": "ChIJTdc49AEPgEcRDXSruhpqooI",
    "name": "Agripoint di Le figlie di Giuseppe SNC di Bertini Monica & c.",
    "category": "Agripoint di Le figlie di Giuseppe SNC di Bertini Monica & c.",
    "formatted_address": "4,5(173)",
    "phone_number": "+390522874671",
    "source_url": "https://www.google.com/maps/place/Agripoint+di+Le+figlie+di+Giuseppe+SNC+di+Bertini+Monica+%26+c./data=!4m7!3m6!1s0x47800f01f438d74d:0x82a26a1abaab740d!8m2!3d44.6297506!4d10.433768!16s%2Fg%2F1tfmb2f3!19sChIJTdc49AEPgEcRDXSruhpqooI?authuser=0&hl=tr&rclk=1",
    "website_url": "",
    "rating_text": "4,5",
    "stars": null,
    "number_of_reviews": null,
    "price_level": "",
    "open_hours": "",
    "extraction_timestamp": "2025-06-07T16:34:18.877Z",
    "source_name": "google",
    "source_query": "Irrigation Equipment",
    "source_country": "IT",
    "country": "Italy",
    "state": "Emilia-Romagna",
    "city": "San Polo d'Enza"
  },
  {
    "source_id": "ChIJ26fqzsIOgEcRljz5TQ-IGTk",
    "name": "Tecnoimpianti S.n.c. di Corradi - di Palma e Ughetti",
    "category": "Tecnoimpianti S.n.c. di Corradi - di Palma e Ughetti",
    "formatted_address": "5,0(1)",
    "phone_number": "+390522874744",
    "source_url": "https://www.google.com/maps/place/Tecnoimpianti+S.n.c.+di+Corradi+-+di+Palma+e+Ughetti/data=!4m7!3m6!1s0x47800ec2ceeaa7db:0x3919880f4df93c96!8m2!3d44.6122353!4d10.4131907!16s%2Fg%2F1tj44rt4!19sChIJ26fqzsIOgEcRljz5TQ-IGTk?authuser=0&hl=tr&rclk=1",
    "website_url": "",
    "rating_text": "5,0",
    "stars": null,
    "number_of_reviews": null,
    "price_level": "",
    "open_hours": "",
    "extraction_timestamp": "2025-06-07T16:34:18.878Z",
    "source_name": "google",
    "source_query": "Irrigation Equipment",
    "source_country": "IT",
    "country": "Italy",
    "state": "Emilia-Romagna",
    "city": "San Polo d'Enza"
  },
  {
    "source_id": "ChIJcQG6ul7df0cR3VxKiu5OPBs",
    "name": "Scova Impianti Srl",
    "category": "Scova Impianti Srl",
    "formatted_address": "4,5(64)",
    "phone_number": "+39059923202",
    "source_url": "https://www.google.com/maps/place/Scova+Impianti+Srl/data=!4m7!3m6!1s0x477fdd5ebaba0171:0x1b3c4eee8a4a5cdd!8m2!3d44.6018135!4d11.032294!16s%2Fg%2F1tfzwbfb!19sChIJcQG6ul7df0cR3VxKiu5OPBs?authuser=0&hl=tr&rclk=1",
    "website_url": "https://www.scovaimpianti.com/",
    "rating_text": "4,5",
    "stars": null,
    "number_of_reviews": null,
    "price_level": "",
    "open_hours": "",
    "extraction_timestamp": "2025-06-07T16:34:18.878Z",
    "source_name": "google",
    "source_query": "Irrigation Equipment",
    "source_country": "IT",
    "country": "Italy",
    "state": "Emilia-Romagna",
    "city": "San Polo d'Enza"
  },
  {
    "source_id": "ChIJveAeFroEgEcRZfa9xqlB6vM",
    "name": "Morelli Irrigazioni",
    "category": "Morelli Irrigazioni",
    "formatted_address": "1,0(1)",
    "phone_number": "+393480042122",
    "source_url": "https://www.google.com/maps/place/Morelli+Irrigazioni/data=!4m7!3m6!1s0x478004ba161ee0bd:0xf3ea41a9c6bdf665!8m2!3d44.649256!4d10.5636837!16s%2Fg%2F11gy01p0bd!19sChIJveAeFroEgEcRZfa9xqlB6vM?authuser=0&hl=tr&rclk=1",
    "website_url": "http://irrigazionimorelli.it/",
    "rating_text": "1,0",
    "stars": null,
    "number_of_reviews": null,
    "price_level": "",
    "open_hours": "",
    "extraction_timestamp": "2025-06-07T16:34:18.878Z",
    "source_name": "google",
    "source_query": "Irrigation Equipment",
    "source_country": "IT",
    "country": "Italy",
    "state": "Emilia-Romagna",
    "city": "San Polo d'Enza"
  }
]
