[
  {
    "source_id": "ChIJIa5T76yRf0cRzC7LVOy18Mw",
    "name": "Nuova Omag srl",
    "category": "Nuova Omag srl",
    "formatted_address": "4,0(4)",
    "phone_number": "+39053539855",
    "source_url": "https://www.google.com/maps/place/Nuova+Omag+srl/data=!4m7!3m6!1s0x477f91acef53ae21:0xccf0b5ec54cb2ecc!8m2!3d44.8818969!4d10.9907894!16s%2Fg%2F1hc2kcs0y!19sChIJIa5T76yRf0cRzC7LVOy18Mw?authuser=0&hl=tr&rclk=1",
    "website_url": "http://nuovaomagmodena.it/",
    "rating_text": "4,0",
    "stars": null,
    "number_of_reviews": null,
    "price_level": "",
    "open_hours": "",
    "extraction_timestamp": "2025-06-07T17:08:00.745Z",
    "source_name": "google",
    "source_query": "Irrigation Equipment",
    "source_country": "IT",
    "country": "Italy",
    "state": "Emilia-Romagna",
    "city": "San Possidonio"
  },
  {
    "source_id": "ChIJR6fjYFKQf0cRuASHOYqKppI",
    "name": "Gran Garden Di Grana Luca",
    "category": "Gran Garden Di Grana Luca",
    "formatted_address": "4,7(41)",
    "phone_number": "+39053539273",
    "source_url": "https://www.google.com/maps/place/Gran+Garden+Di+Grana+Luca/data=!4m7!3m6!1s0x477f905260e3a747:0x92a68a8a398704b8!8m2!3d44.8850815!4d10.9897825!16s%2Fg%2F1tl9lf8b!19sChIJR6fjYFKQf0cRuASHOYqKppI?authuser=0&hl=tr&rclk=1",
    "website_url": "https://www.grangarden.it/",
    "rating_text": "4,7",
    "stars": null,
    "number_of_reviews": null,
    "price_level": "",
    "open_hours": "",
    "extraction_timestamp": "2025-06-07T17:08:00.747Z",
    "source_name": "google",
    "source_query": "Irrigation Equipment",
    "source_country": "IT",
    "country": "Italy",
    "state": "Emilia-Romagna",
    "city": "San Possidonio"
  },
  {
    "source_id": "ChIJcQG6ul7df0cR3VxKiu5OPBs",
    "name": "Scova Impianti Srl",
    "category": "Scova Impianti Srl",
    "formatted_address": "4,5(64)",
    "phone_number": "+39059923202",
    "source_url": "https://www.google.com/maps/place/Scova+Impianti+Srl/data=!4m7!3m6!1s0x477fdd5ebaba0171:0x1b3c4eee8a4a5cdd!8m2!3d44.6018135!4d11.032294!16s%2Fg%2F1tfzwbfb!19sChIJcQG6ul7df0cR3VxKiu5OPBs?authuser=0&hl=tr&rclk=1",
    "website_url": "https://www.scovaimpianti.com/",
    "rating_text": "4,5",
    "stars": null,
    "number_of_reviews": null,
    "price_level": "",
    "open_hours": "",
    "extraction_timestamp": "2025-06-07T17:08:00.750Z",
    "source_name": "google",
    "source_query": "Irrigation Equipment",
    "source_country": "IT",
    "country": "Italy",
    "state": "Emilia-Romagna",
    "city": "San Possidonio"
  },
  {
    "source_id": "ChIJP2y04bGRf0cR93mE4utcwdA",
    "name": "Termoidraulica Belloni Willy Srl",
    "category": "Termoidraulica Belloni Willy Srl",
    "formatted_address": "4,2(22)",
    "phone_number": "+39053536002",
    "source_url": "https://www.google.com/maps/place/Termoidraulica+Belloni+Willy+Srl/data=!4m7!3m6!1s0x477f91b1e1b46c3f:0xd0c15cebe28479f7!8m2!3d44.881438!4d10.991312!16s%2Fg%2F12jsdw8v_!19sChIJP2y04bGRf0cR93mE4utcwdA?authuser=0&hl=tr&rclk=1",
    "website_url": "",
    "rating_text": "4,2",
    "stars": null,
    "number_of_reviews": null,
    "price_level": "",
    "open_hours": "",
    "extraction_timestamp": "2025-06-07T17:08:00.751Z",
    "source_name": "google",
    "source_query": "Irrigation Equipment",
    "source_country": "IT",
    "country": "Italy",
    "state": "Emilia-Romagna",
    "city": "San Possidonio"
  },
  {
    "source_id": "ChIJ862uD_mTf0cRxsUDQ0yggAU",
    "name": "DB Fluid S.r.l.| Vendita, riparazione e revisione componenti oleodinamici | Modena | Mirandola",
    "category": "DB Fluid S.r.l.| Vendita, riparazione e revisione componenti oleodinamici | Modena | Mirandola",
    "formatted_address": "DB Fluid S.r.l.| Vendita, riparazione e revisione componenti oleodinamici | Modena | Mirandola",
    "phone_number": "+393240923663",
    "source_url": "https://www.google.com/maps/place/DB+Fluid+S.r.l.%7C+Vendita,+riparazione+e+revisione+componenti+oleodinamici+%7C+Modena+%7C+Mirandola/data=!4m7!3m6!1s0x477f93f90faeadf3:0x580a04c4303c5c6!8m2!3d44.8934608!4d11.0870412!16s%2Fg%2F11cs1sb3q6!19sChIJ862uD_mTf0cRxsUDQ0yggAU?authuser=0&hl=tr&rclk=1",
    "website_url": "http://www.dbfluid.com/",
    "rating_text": "4,7",
    "stars": null,
    "number_of_reviews": null,
    "price_level": "",
    "open_hours": "",
    "extraction_timestamp": "2025-06-07T17:08:00.753Z",
    "source_name": "google",
    "source_query": "Irrigation Equipment",
    "source_country": "IT",
    "country": "Italy",
    "state": "Emilia-Romagna",
    "city": "San Possidonio"
  },
  {
    "source_id": "ChIJJ6V6lMDgf0cR1SpFsfjDuHg",
    "name": "Ocmis Irrigazione Spa",
    "category": "Ocmis Irrigazione Spa",
    "formatted_address": "3,5(31)",
    "phone_number": "+39059702150",
    "source_url": "https://www.google.com/maps/place/Ocmis+Irrigazione+Spa/data=!4m7!3m6!1s0x477fe0c0947aa527:0x78b8c3f8b1452ad5!8m2!3d44.530494!4d10.9794578!16s%2Fg%2F1vd3tn19!19sChIJJ6V6lMDgf0cR1SpFsfjDuHg?authuser=0&hl=tr&rclk=1",
    "website_url": "http://www.ocmis-irrigazione.it/",
    "rating_text": "3,5",
    "stars": null,
    "number_of_reviews": null,
    "price_level": "",
    "open_hours": "",
    "extraction_timestamp": "2025-06-07T17:08:00.754Z",
    "source_name": "google",
    "source_query": "Irrigation Equipment",
    "source_country": "IT",
    "country": "Italy",
    "state": "Emilia-Romagna",
    "city": "San Possidonio"
  },
  {
    "source_id": "ChIJtdJC5j6Zf0cRmmVcuMyNEW0",
    "name": "Tadei | Impianti irrigazione | Robot tagliaerba | Barbecue | Outdoor",
    "category": "Tadei | Impianti irrigazione | Robot tagliaerba | Barbecue | Outdoor",
    "formatted_address": "4,6(69)",
    "phone_number": "+390386733460",
    "source_url": "https://www.google.com/maps/place/Tadei+%7C+Impianti+irrigazione+%7C+Robot+tagliaerba+%7C+Barbecue+%7C+Outdoor/data=!4m7!3m6!1s0x477f993ee642d2b5:0x6d118dccb85c659a!8m2!3d44.9680645!4d11.1076526!16s%2Fg%2F113dpgnd_!19sChIJtdJC5j6Zf0cRmmVcuMyNEW0?authuser=0&hl=tr&rclk=1",
    "website_url": "https://www.irrigazionetadei.it/",
    "rating_text": "4,6",
    "stars": null,
    "number_of_reviews": null,
    "price_level": "",
    "open_hours": "",
    "extraction_timestamp": "2025-06-07T17:08:00.755Z",
    "source_name": "google",
    "source_query": "Irrigation Equipment",
    "source_country": "IT",
    "country": "Italy",
    "state": "Emilia-Romagna",
    "city": "San Possidonio"
  },
  {
    "source_id": "ChIJN4RK2A-Rf0cRvWikLVVkMiI",
    "name": "TECHNOVERDE di Casari Andrea",
    "category": "TECHNOVERDE di Casari Andrea",
    "formatted_address": "Bahçıvan · Don Sturzo, 16Kapalı ⋅ Açılış zamanı: Pzt 08:00 · +39 320 958 8360",
    "phone_number": "+393209588360",
    "source_url": "https://www.google.com/maps/place/TECHNOVERDE+di+Casari+Andrea/data=!4m7!3m6!1s0x477f910fd84a8437:0x223264552da468bd!8m2!3d44.8801778!4d10.9904108!16s%2Fg%2F11vz5jxmtp!19sChIJN4RK2A-Rf0cRvWikLVVkMiI?authuser=0&hl=tr&rclk=1",
    "website_url": "",
    "rating_text": "",
    "stars": null,
    "number_of_reviews": null,
    "price_level": "",
    "open_hours": "",
    "extraction_timestamp": "2025-06-07T17:08:00.757Z",
    "source_name": "google",
    "source_query": "Irrigation Equipment",
    "source_country": "IT",
    "country": "Italy",
    "state": "Emilia-Romagna",
    "city": "San Possidonio"
  },
  {
    "source_id": "ChIJP7UJkmyXf0cRVW34e66bU2I",
    "name": "S. I. R. I. A. Spa",
    "category": "S. I. R. I. A. Spa",
    "formatted_address": "4,7(15)",
    "phone_number": "+39053521907",
    "source_url": "https://www.google.com/maps/place/S.+I.+R.+I.+A.+Spa/data=!4m7!3m6!1s0x477f976c9209b53f:0x62539bae7bf86d55!8m2!3d44.8938563!4d11.0818842!16s%2Fg%2F1t_hxv98!19sChIJP7UJkmyXf0cRVW34e66bU2I?authuser=0&hl=tr&rclk=1",
    "website_url": "http://www.siriapiscine.it/",
    "rating_text": "4,7",
    "stars": null,
    "number_of_reviews": null,
    "price_level": "",
    "open_hours": "",
    "extraction_timestamp": "2025-06-07T17:08:00.758Z",
    "source_name": "google",
    "source_query": "Irrigation Equipment",
    "source_country": "IT",
    "country": "Italy",
    "state": "Emilia-Romagna",
    "city": "San Possidonio"
  },
  {
    "source_id": "ChIJh3Nd8G0sfkcR_m7VewEmxXM",
    "name": "Irrigarden",
    "category": "Irrigarden",
    "formatted_address": "4,7(158)",
    "phone_number": "+39051782013",
    "source_url": "https://www.google.com/maps/place/Irrigarden/data=!4m7!3m6!1s0x477e2c6df05d7387:0x73c526017bd56efe!8m2!3d44.5096266!4d11.4390897!16s%2Fg%2F1vgw_l7w!19sChIJh3Nd8G0sfkcR_m7VewEmxXM?authuser=0&hl=tr&rclk=1",
    "website_url": "https://www.irrigarden-bo.it/",
    "rating_text": "4,7",
    "stars": null,
    "number_of_reviews": null,
    "price_level": "",
    "open_hours": "",
    "extraction_timestamp": "2025-06-07T17:08:00.759Z",
    "source_name": "google",
    "source_query": "Irrigation Equipment",
    "source_country": "IT",
    "country": "Italy",
    "state": "Emilia-Romagna",
    "city": "San Possidonio"
  },
  {
    "source_id": "ChIJtVDkNgRFgEcRqc6umwWIJuI",
    "name": "Rm Spa",
    "category": "Rm Spa",
    "formatted_address": "4,6(81)",
    "phone_number": "+390521872321",
    "source_url": "https://www.google.com/maps/place/Rm+Spa/data=!4m7!3m6!1s0x4780450436e450b5:0xe22688059baecea9!8m2!3d44.9105406!4d10.2583785!16s%2Fg%2F12hl93byl!19sChIJtVDkNgRFgEcRqc6umwWIJuI?authuser=0&hl=tr&rclk=1",
    "website_url": "http://www.rmirrigation.com/",
    "rating_text": "4,6",
    "stars": null,
    "number_of_reviews": null,
    "price_level": "",
    "open_hours": "",
    "extraction_timestamp": "2025-06-07T17:08:00.760Z",
    "source_name": "google",
    "source_query": "Irrigation Equipment",
    "source_country": "IT",
    "country": "Italy",
    "state": "Emilia-Romagna",
    "city": "San Possidonio"
  },
  {
    "source_id": "ChIJq5e6TTv0f0cRe0lfkBwyQVE",
    "name": "Aqua Industrial Group",
    "category": "Aqua Industrial Group",
    "formatted_address": "3,5(10)",
    "phone_number": "+390522695805",
    "source_url": "https://www.google.com/maps/place/Aqua+Industrial+Group/data=!4m7!3m6!1s0x477ff43b4dba97ab:0x5141321c905f497b!8m2!3d44.7252141!4d10.7656823!16s%2Fg%2F1hc61vd63!19sChIJq5e6TTv0f0cRe0lfkBwyQVE?authuser=0&hl=tr&rclk=1",
    "website_url": "http://www.aqua.it/",
    "rating_text": "3,5",
    "stars": null,
    "number_of_reviews": null,
    "price_level": "",
    "open_hours": "",
    "extraction_timestamp": "2025-06-07T17:08:00.762Z",
    "source_name": "google",
    "source_query": "Irrigation Equipment",
    "source_country": "IT",
    "country": "Italy",
    "state": "Emilia-Romagna",
    "city": "San Possidonio"
  },
  {
    "source_id": "ChIJ-Z_RHvbnf0cRry0jCm7Q5GQ",
    "name": "Scova Impianti",
    "category": "Scova Impianti",
    "formatted_address": "4,0(4)",
    "phone_number": "+39059925910",
    "source_url": "https://www.google.com/maps/place/Scova+Impianti/data=!4m7!3m6!1s0x477fe7f61ed19ff9:0x64e4d06e0a232daf!8m2!3d44.6018937!4d11.0315223!16s%2Fg%2F1td6wznv!19sChIJ-Z_RHvbnf0cRry0jCm7Q5GQ?authuser=0&hl=tr&rclk=1",
    "website_url": "https://scovaimpianti.com/",
    "rating_text": "4,0",
    "stars": null,
    "number_of_reviews": null,
    "price_level": "",
    "open_hours": "",
    "extraction_timestamp": "2025-06-07T17:08:00.763Z",
    "source_name": "google",
    "source_query": "Irrigation Equipment",
    "source_country": "IT",
    "country": "Italy",
    "state": "Emilia-Romagna",
    "city": "San Possidonio"
  },
  {
    "source_id": "ChIJ0Y22BtHof0cRxdEa76rKEzw",
    "name": "M.M. srl",
    "category": "M.M. srl",
    "formatted_address": "4,1(12)",
    "phone_number": "+39059251654",
    "source_url": "https://www.google.com/maps/place/M.M.+srl/data=!4m7!3m6!1s0x477fe8d106b68dd1:0x3c13caaaef1ad1c5!8m2!3d44.6523664!4d10.966215!16s%2Fg%2F1hc17l52x!19sChIJ0Y22BtHof0cRxdEa76rKEzw?authuser=0&hl=tr&rclk=1",
    "website_url": "http://www.mmspray.it/",
    "rating_text": "4,1",
    "stars": null,
    "number_of_reviews": null,
    "price_level": "",
    "open_hours": "",
    "extraction_timestamp": "2025-06-07T17:08:00.764Z",
    "source_name": "google",
    "source_query": "Irrigation Equipment",
    "source_country": "IT",
    "country": "Italy",
    "state": "Emilia-Romagna",
    "city": "San Possidonio"
  },
  {
    "source_id": "ChIJg-dleqyRf0cRp2PjQkZUMts",
    "name": "Supermercato Pam (Daniele 4 srl)",
    "category": "Supermercato Pam (Daniele 4 srl)",
    "formatted_address": "3,1(37)",
    "phone_number": "",
    "source_url": "https://www.google.com/maps/place/Supermercato+Pam+%28Daniele+4+srl%29/data=!4m7!3m6!1s0x477f91ac7a65e783:0xdb32544642e363a7!8m2!3d44.8788679!4d10.9914619!16s%2Fg%2F11b6mgfq4j!19sChIJg-dleqyRf0cRp2PjQkZUMts?authuser=0&hl=tr&rclk=1",
    "website_url": "",
    "rating_text": "3,1",
    "stars": null,
    "number_of_reviews": null,
    "price_level": "",
    "open_hours": "",
    "extraction_timestamp": "2025-06-07T17:08:00.765Z",
    "source_name": "google",
    "source_query": "Irrigation Equipment",
    "source_country": "IT",
    "country": "Italy",
    "state": "Emilia-Romagna",
    "city": "San Possidonio"
  },
  {
    "source_id": "ChIJZTestbaRf0cR9bZIp1rE5KE",
    "name": "FOTOVOLTAICO CON 40% A FONDO PERDUTO",
    "category": "FOTOVOLTAICO CON 40% A FONDO PERDUTO",
    "formatted_address": "FOTOVOLTAICO CON 40% A FONDO PERDUTO",
    "phone_number": "+393388922464",
    "source_url": "https://www.google.com/maps/place/FOTOVOLTAICO+CON+40%25+A+FONDO+PERDUTO/data=!4m7!3m6!1s0x477f91b6b5ac3765:0xa1e4c45aa748b6f5!8m2!3d44.4355116!4d10.9767761!16s%2Fg%2F11ft80r90r!19sChIJZTestbaRf0cR9bZIp1rE5KE?authuser=0&hl=tr&rclk=1",
    "website_url": "https://agenziaborsari.it/fotovoltaico-con-40-a-fondo-perduto/",
    "rating_text": "",
    "stars": null,
    "number_of_reviews": null,
    "price_level": "",
    "open_hours": "",
    "extraction_timestamp": "2025-06-07T17:08:00.767Z",
    "source_name": "google",
    "source_query": "Irrigation Equipment",
    "source_country": "IT",
    "country": "Italy",
    "state": "Emilia-Romagna",
    "city": "San Possidonio"
  }
]
