[
  {
    "source_id": "ChIJcQG6ul7df0cR3VxKiu5OPBs",
    "name": "Scova Impianti Srl",
    "category": "Scova Impianti Srl",
    "formatted_address": "4,5(64)",
    "phone_number": "+39059923202",
    "source_url": "https://www.google.com/maps/place/Scova+Impianti+Srl/data=!4m7!3m6!1s0x477fdd5ebaba0171:0x1b3c4eee8a4a5cdd!8m2!3d44.6018135!4d11.032294!16s%2Fg%2F1tfzwbfb!19sChIJcQG6ul7df0cR3VxKiu5OPBs?authuser=0&hl=tr&rclk=1",
    "website_url": "https://www.scovaimpianti.com/",
    "rating_text": "4,5",
    "stars": null,
    "number_of_reviews": null,
    "price_level": "",
    "open_hours": "",
    "extraction_timestamp": "2025-06-07T15:54:19.120Z",
    "source_name": "google",
    "source_query": "Irrigation Equipment",
    "source_country": "IT",
    "country": "Italy",
    "state": "Emilia-Romagna",
    "city": "San Felice sul Panaro"
  },
  {
    "source_id": "ChIJq2kjfgGWf0cRHZZeuE9gBM4",
    "name": "Sanfeliciana S.R.L.",
    "category": "Sanfeliciana S.R.L.",
    "formatted_address": "4,4(76)",
    "phone_number": "+39053584903",
    "source_url": "https://www.google.com/maps/place/Sanfeliciana+S.R.L./data=!4m7!3m6!1s0x477f96017e2369ab:0xce04604fb85e961d!8m2!3d44.8362068!4d11.1195809!16s%2Fg%2F1tt0pzm7!19sChIJq2kjfgGWf0cRHZZeuE9gBM4?authuser=0&hl=tr&rclk=1",
    "website_url": "https://www.ferramentasanfeliciana.it/",
    "rating_text": "4,4",
    "stars": null,
    "number_of_reviews": null,
    "price_level": "",
    "open_hours": "",
    "extraction_timestamp": "2025-06-07T15:54:19.121Z",
    "source_name": "google",
    "source_query": "Irrigation Equipment",
    "source_country": "IT",
    "country": "Italy",
    "state": "Emilia-Romagna",
    "city": "San Felice sul Panaro"
  },
  {
    "source_id": "ChIJY9a0yW2_f0cRTwUROOlLOVw",
    "name": "Ricerca Perdite Acqua Modena",
    "category": "Ricerca Perdite Acqua Modena",
    "formatted_address": "5,0(3)",
    "phone_number": "+390598630982",
    "source_url": "https://www.google.com/maps/place/Ricerca+Perdite+Acqua+Modena/data=!4m7!3m6!1s0x477fbf6dc9b4d663:0x5c394be93811054f!8m2!3d44.5388154!4d10.9193608!16s%2Fg%2F11hp_7khqb!19sChIJY9a0yW2_f0cRTwUROOlLOVw?authuser=0&hl=tr&rclk=1",
    "website_url": "https://www.ricercaperditeacqua24.it/ricerca-perdite-acqua-modena/",
    "rating_text": "5,0",
    "stars": null,
    "number_of_reviews": null,
    "price_level": "",
    "open_hours": "",
    "extraction_timestamp": "2025-06-07T15:54:19.123Z",
    "source_name": "google",
    "source_query": "Irrigation Equipment",
    "source_country": "IT",
    "country": "Italy",
    "state": "Emilia-Romagna",
    "city": "San Felice sul Panaro"
  },
  {
    "source_id": "ChIJJ6V6lMDgf0cR1SpFsfjDuHg",
    "name": "Ocmis Irrigazione Spa",
    "category": "Ocmis Irrigazione Spa",
    "formatted_address": "3,5(31)",
    "phone_number": "+39059702150",
    "source_url": "https://www.google.com/maps/place/Ocmis+Irrigazione+Spa/data=!4m7!3m6!1s0x477fe0c0947aa527:0x78b8c3f8b1452ad5!8m2!3d44.530494!4d10.9794578!16s%2Fg%2F1vd3tn19!19sChIJJ6V6lMDgf0cR1SpFsfjDuHg?authuser=0&hl=tr&rclk=1",
    "website_url": "http://www.ocmis-irrigazione.it/",
    "rating_text": "3,5",
    "stars": null,
    "number_of_reviews": null,
    "price_level": "",
    "open_hours": "",
    "extraction_timestamp": "2025-06-07T15:54:19.124Z",
    "source_name": "google",
    "source_query": "Irrigation Equipment",
    "source_country": "IT",
    "country": "Italy",
    "state": "Emilia-Romagna",
    "city": "San Felice sul Panaro"
  },
  {
    "source_id": "ChIJhT-kpAXff0cRKJQqKYwIulA",
    "name": "Irrigo",
    "category": "Irrigo",
    "formatted_address": "4,7(36)",
    "phone_number": "+393473096499",
    "source_url": "https://www.google.com/maps/place/Irrigo/data=!4m7!3m6!1s0x477fdf05a4a43f85:0x50ba088c292a9428!8m2!3d44.5018172!4d11.005272!16s%2Fg%2F11hdjcp5pk!19sChIJhT-kpAXff0cRKJQqKYwIulA?authuser=0&hl=tr&rclk=1",
    "website_url": "https://www.irrigovignola.it/",
    "rating_text": "4,7",
    "stars": null,
    "number_of_reviews": null,
    "price_level": "",
    "open_hours": "",
    "extraction_timestamp": "2025-06-07T15:54:19.125Z",
    "source_name": "google",
    "source_query": "Irrigation Equipment",
    "source_country": "IT",
    "country": "Italy",
    "state": "Emilia-Romagna",
    "city": "San Felice sul Panaro"
  },
  {
    "source_id": "ChIJtVDkNgRFgEcRqc6umwWIJuI",
    "name": "Rm Spa",
    "category": "Rm Spa",
    "formatted_address": "4,6(81)",
    "phone_number": "+390521872321",
    "source_url": "https://www.google.com/maps/place/Rm+Spa/data=!4m7!3m6!1s0x4780450436e450b5:0xe22688059baecea9!8m2!3d44.9105406!4d10.2583785!16s%2Fg%2F12hl93byl!19sChIJtVDkNgRFgEcRqc6umwWIJuI?authuser=0&hl=tr&rclk=1",
    "website_url": "http://www.rmirrigation.com/",
    "rating_text": "4,6",
    "stars": null,
    "number_of_reviews": null,
    "price_level": "",
    "open_hours": "",
    "extraction_timestamp": "2025-06-07T15:54:19.126Z",
    "source_name": "google",
    "source_query": "Irrigation Equipment",
    "source_country": "IT",
    "country": "Italy",
    "state": "Emilia-Romagna",
    "city": "San Felice sul Panaro"
  },
  {
    "source_id": "ChIJ_SYf2IMsfkcRVw9xVhrnjyI",
    "name": "Irrigazione Bragaglia",
    "category": "Irrigazione Bragaglia",
    "formatted_address": "4,7(30)",
    "phone_number": "+39051534865",
    "source_url": "https://www.google.com/maps/place/Irrigazione+Bragaglia/data=!4m7!3m6!1s0x477e2c83d81f26fd:0x228fe71a56710f57!8m2!3d44.5053735!4d11.412403!16s%2Fg%2F1vp6z0gf!19sChIJ_SYf2IMsfkcRVw9xVhrnjyI?authuser=0&hl=tr&rclk=1",
    "website_url": "http://www.irrigazionebragaglia.it/",
    "rating_text": "4,7",
    "stars": null,
    "number_of_reviews": null,
    "price_level": "",
    "open_hours": "",
    "extraction_timestamp": "2025-06-07T15:54:19.128Z",
    "source_name": "google",
    "source_query": "Irrigation Equipment",
    "source_country": "IT",
    "country": "Italy",
    "state": "Emilia-Romagna",
    "city": "San Felice sul Panaro"
  },
  {
    "source_id": "ChIJ3_DricS9f0cRb0Ups4HM1xU",
    "name": "Ferramenta Vancini Snc Di Vancini Mirco & C.",
    "category": "Ferramenta Vancini Snc Di Vancini Mirco & C.",
    "formatted_address": "4,6(158)",
    "phone_number": "+39053584364",
    "source_url": "https://www.google.com/maps/place/Ferramenta+Vancini+Snc+Di+Vancini+Mirco+%26+C./data=!4m7!3m6!1s0x477fbdc489ebf0df:0x15d7cc81b329456f!8m2!3d44.8391867!4d11.1476095!16s%2Fg%2F1tsbkzt8!19sChIJ3_DricS9f0cRb0Ups4HM1xU?authuser=0&hl=tr&rclk=1",
    "website_url": "https://ferramentavancini.it/",
    "rating_text": "4,6",
    "stars": null,
    "number_of_reviews": null,
    "price_level": "",
    "open_hours": "",
    "extraction_timestamp": "2025-06-07T15:54:19.129Z",
    "source_name": "google",
    "source_query": "Irrigation Equipment",
    "source_country": "IT",
    "country": "Italy",
    "state": "Emilia-Romagna",
    "city": "San Felice sul Panaro"
  },
  {
    "source_id": "ChIJgVjbdx7df0cRsMjOLRKEzBA",
    "name": "Geocentro",
    "category": "Geocentro",
    "formatted_address": "4,4(87)",
    "phone_number": "+39059926168",
    "source_url": "https://www.google.com/maps/place/Geocentro/data=!4m7!3m6!1s0x477fdd1e77db5881:0x10cc84122dcec8b0!8m2!3d44.5868616!4d11.070717!16s%2Fg%2F11cn3ph0_q!19sChIJgVjbdx7df0cRsMjOLRKEzBA?authuser=0&hl=tr&rclk=1",
    "website_url": "https://www.geocentrosrl.it/",
    "rating_text": "4,4",
    "stars": null,
    "number_of_reviews": null,
    "price_level": "",
    "open_hours": "",
    "extraction_timestamp": "2025-06-07T15:54:19.130Z",
    "source_name": "google",
    "source_query": "Irrigation Equipment",
    "source_country": "IT",
    "country": "Italy",
    "state": "Emilia-Romagna",
    "city": "San Felice sul Panaro"
  },
  {
    "source_id": "ChIJzaBtoeO9f0cRjEtK9qtGczU",
    "name": "Idrotermica Budri",
    "category": "Idrotermica Budri",
    "formatted_address": "3,8(16)",
    "phone_number": "+39053584865",
    "source_url": "https://www.google.com/maps/place/Idrotermica+Budri/data=!4m7!3m6!1s0x477fbde3a16da0cd:0x357346abf64a4b8c!8m2!3d44.8336615!4d11.1359533!16s%2Fg%2F1pv21gpb6!19sChIJzaBtoeO9f0cRjEtK9qtGczU?authuser=0&hl=tr&rclk=1",
    "website_url": "",
    "rating_text": "3,8",
    "stars": null,
    "number_of_reviews": null,
    "price_level": "",
    "open_hours": "",
    "extraction_timestamp": "2025-06-07T15:54:19.131Z",
    "source_name": "google",
    "source_query": "Irrigation Equipment",
    "source_country": "IT",
    "country": "Italy",
    "state": "Emilia-Romagna",
    "city": "San Felice sul Panaro"
  },
  {
    "source_id": "ChIJO2LOSL3df0cRHsln2NGulnI",
    "name": "Idroelettrica S.p.A.",
    "category": "Idroelettrica S.p.A.",
    "formatted_address": "3,8(18)",
    "phone_number": "+39059936911",
    "source_url": "https://www.google.com/maps/place/Idroelettrica+S.p.A./data=!4m7!3m6!1s0x477fddbd48ce623b:0x7296aed1d867c91e!8m2!3d44.5684017!4d11.0424281!16s%2Fg%2F1vf9b68q!19sChIJO2LOSL3df0cRHsln2NGulnI?authuser=0&hl=tr&rclk=1",
    "website_url": "https://www.idro-elettrica.it/",
    "rating_text": "3,8",
    "stars": null,
    "number_of_reviews": null,
    "price_level": "",
    "open_hours": "",
    "extraction_timestamp": "2025-06-07T15:54:19.132Z",
    "source_name": "google",
    "source_query": "Irrigation Equipment",
    "source_country": "IT",
    "country": "Italy",
    "state": "Emilia-Romagna",
    "city": "San Felice sul Panaro"
  },
  {
    "source_id": "ChIJ-Z_RHvbnf0cRry0jCm7Q5GQ",
    "name": "Scova Impianti",
    "category": "Scova Impianti",
    "formatted_address": "4,0(4)",
    "phone_number": "+39059925910",
    "source_url": "https://www.google.com/maps/place/Scova+Impianti/data=!4m7!3m6!1s0x477fe7f61ed19ff9:0x64e4d06e0a232daf!8m2!3d44.6018937!4d11.0315223!16s%2Fg%2F1td6wznv!19sChIJ-Z_RHvbnf0cRry0jCm7Q5GQ?authuser=0&hl=tr&rclk=1",
    "website_url": "https://scovaimpianti.com/",
    "rating_text": "4,0",
    "stars": null,
    "number_of_reviews": null,
    "price_level": "",
    "open_hours": "",
    "extraction_timestamp": "2025-06-07T15:54:19.134Z",
    "source_name": "google",
    "source_query": "Irrigation Equipment",
    "source_country": "IT",
    "country": "Italy",
    "state": "Emilia-Romagna",
    "city": "San Felice sul Panaro"
  },
  {
    "source_id": "ChIJ0Y22BtHof0cRxdEa76rKEzw",
    "name": "M.M. srl",
    "category": "M.M. srl",
    "formatted_address": "4,1(12)",
    "phone_number": "+39059251654",
    "source_url": "https://www.google.com/maps/place/M.M.+srl/data=!4m7!3m6!1s0x477fe8d106b68dd1:0x3c13caaaef1ad1c5!8m2!3d44.6523664!4d10.966215!16s%2Fg%2F1hc17l52x!19sChIJ0Y22BtHof0cRxdEa76rKEzw?authuser=0&hl=tr&rclk=1",
    "website_url": "http://www.mmspray.it/",
    "rating_text": "4,1",
    "stars": null,
    "number_of_reviews": null,
    "price_level": "",
    "open_hours": "",
    "extraction_timestamp": "2025-06-07T15:54:19.134Z",
    "source_name": "google",
    "source_query": "Irrigation Equipment",
    "source_country": "IT",
    "country": "Italy",
    "state": "Emilia-Romagna",
    "city": "San Felice sul Panaro"
  },
  {
    "source_id": "ChIJfbOJ9Km9f0cR3z-PFl7LV1M",
    "name": "TC Security Srl| Sistemi di allarme, impianto di videosorveglianza e allarmi antincendio| Modena| San Felice sul Panaro",
    "category": "TC Security Srl| Sistemi di allarme, impianto di videosorveglianza e allarmi antincendio| Modena| San Felice sul Panaro",
    "formatted_address": "TC Security Srl| Sistemi di allarme, impianto di videosorveglianza e allarmi antincendio| Modena| San Felice sul Panaro",
    "phone_number": "+39053585275",
    "source_url": "https://www.google.com/maps/place/TC+Security+Srl%7C+Sistemi+di+allarme,+impianto+di+videosorveglianza+e+allarmi+antincendio%7C+Modena%7C+San+Felice+sul+Panaro/data=!4m7!3m6!1s0x477fbda9f489b37d:0x5357cb5e168f3fdf!8m2!3d44.8349613!4d11.1390379!16s%2Fg%2F1tfdc9jx!19sChIJfbOJ9Km9f0cR3z-PFl7LV1M?authuser=0&hl=tr&rclk=1",
    "website_url": "http://www.tc-security.net/",
    "rating_text": "4,9",
    "stars": null,
    "number_of_reviews": null,
    "price_level": "",
    "open_hours": "",
    "extraction_timestamp": "2025-06-07T15:54:19.135Z",
    "source_name": "google",
    "source_query": "Irrigation Equipment",
    "source_country": "IT",
    "country": "Italy",
    "state": "Emilia-Romagna",
    "city": "San Felice sul Panaro"
  }
]
