[
  {
    "source_id": "ChIJa0BlgIPALBMRQ4oqeGUXA38",
    "name": "Elettromeccanica Gobbi",
    "category": "Elettromeccanica Gobbi",
    "formatted_address": "3,9(41)",
    "phone_number": "+390541625009",
    "source_url": "https://www.google.com/maps/place/Elettromeccanica+Gobbi/data=!4m7!3m6!1s0x132cc0838065406b:0x7f031765782a8a43!8m2!3d44.0665504!4d12.4369803!16s%2Fg%2F1tfz73kv!19sChIJa0BlgIPALBMRQ4oqeGUXA38?authuser=0&hl=tr&rclk=1",
    "website_url": "",
    "rating_text": "3,9",
    "stars": null,
    "number_of_reviews": null,
    "price_level": "",
    "open_hours": "",
    "extraction_timestamp": "2025-06-07T16:51:30.056Z",
    "source_name": "google",
    "source_query": "Irrigation Equipment",
    "source_country": "IT",
    "country": "Italy",
    "state": "Emilia-Romagna",
    "city": "Santarcangelo"
  },
  {
    "source_id": "ChIJY4wz7GS_LBMRMM0-JS0w9Fo",
    "name": "Edil Impianti2 Srl",
    "category": "Edil Impianti2 Srl",
    "formatted_address": "4,9(13)",
    "phone_number": "+390541626370",
    "source_url": "https://www.google.com/maps/place/Edil+Impianti2+Srl/data=!4m7!3m6!1s0x132cbf64ec338c63:0x5af4302d253ecd30!8m2!3d44.0697815!4d12.4305312!16s%2Fg%2F1tf8hmmm!19sChIJY4wz7GS_LBMRMM0-JS0w9Fo?authuser=0&hl=tr&rclk=1",
    "website_url": "",
    "rating_text": "4,9",
    "stars": null,
    "number_of_reviews": null,
    "price_level": "",
    "open_hours": "",
    "extraction_timestamp": "2025-06-07T16:51:30.058Z",
    "source_name": "google",
    "source_query": "Irrigation Equipment",
    "source_country": "IT",
    "country": "Italy",
    "state": "Emilia-Romagna",
    "city": "Santarcangelo"
  },
  {
    "source_id": "ChIJ5_qyw4TALBMRbaQIpn3aIdc",
    "name": "Prato Vivo Di Garelli P. e Garelli E. snc",
    "category": "Prato Vivo Di Garelli P. e Garelli E. snc",
    "formatted_address": "4,6(204)",
    "phone_number": "+390541626323",
    "source_url": "https://www.google.com/maps/place/Prato+Vivo+Di+Garelli+P.+e+Garelli+E.+snc/data=!4m7!3m6!1s0x132cc084c3b2fae7:0xd721da7da608a46d!8m2!3d44.0654231!4d12.4457501!16s%2Fg%2F11bc7p35hl!19sChIJ5_qyw4TALBMRbaQIpn3aIdc?authuser=0&hl=tr&rclk=1",
    "website_url": "",
    "rating_text": "4,6",
    "stars": null,
    "number_of_reviews": null,
    "price_level": "",
    "open_hours": "",
    "extraction_timestamp": "2025-06-07T16:51:30.059Z",
    "source_name": "google",
    "source_query": "Irrigation Equipment",
    "source_country": "IT",
    "country": "Italy",
    "state": "Emilia-Romagna",
    "city": "Santarcangelo"
  },
  {
    "source_id": "ChIJS6bIGae_LBMRMrPWnAyk180",
    "name": "Centro Agriservizio Srl",
    "category": "Centro Agriservizio Srl",
    "formatted_address": "4,9(38)",
    "phone_number": "+390541627135",
    "source_url": "https://www.google.com/maps/place/Centro+Agriservizio+Srl/data=!4m7!3m6!1s0x132cbfa719c8a64b:0xcdd7a40c9cd6b332!8m2!3d44.0595737!4d12.4081914!16s%2Fg%2F1trphg0x!19sChIJS6bIGae_LBMRMrPWnAyk180?authuser=0&hl=tr&rclk=1",
    "website_url": "",
    "rating_text": "4,9",
    "stars": null,
    "number_of_reviews": null,
    "price_level": "",
    "open_hours": "",
    "extraction_timestamp": "2025-06-07T16:51:30.060Z",
    "source_name": "google",
    "source_query": "Irrigation Equipment",
    "source_country": "IT",
    "country": "Italy",
    "state": "Emilia-Romagna",
    "city": "Santarcangelo"
  },
  {
    "source_id": "ChIJy4AVn9C-LBMRn6nsnuZl82A",
    "name": "Ramilli Irrigazioni S.R.L.",
    "category": "Ramilli Irrigazioni S.R.L.",
    "formatted_address": "4,3(52)",
    "phone_number": "+390541945335",
    "source_url": "https://www.google.com/maps/place/Ramilli+Irrigazioni+S.R.L./data=!4m7!3m6!1s0x132cbed09f1580cb:0x60f365e69eeca99f!8m2!3d44.0923156!4d12.3843691!16s%2Fg%2F1ts2ls1r!19sChIJy4AVn9C-LBMRn6nsnuZl82A?authuser=0&hl=tr&rclk=1",
    "website_url": "",
    "rating_text": "4,3",
    "stars": null,
    "number_of_reviews": null,
    "price_level": "",
    "open_hours": "",
    "extraction_timestamp": "2025-06-07T16:51:30.062Z",
    "source_name": "google",
    "source_query": "Irrigation Equipment",
    "source_country": "IT",
    "country": "Italy",
    "state": "Emilia-Romagna",
    "city": "Santarcangelo"
  },
  {
    "source_id": "ChIJxwyfbMW-LBMR82ivWDKLyak",
    "name": "Campedelli srl",
    "category": "Campedelli srl",
    "formatted_address": "4,3(20)",
    "phone_number": "+390541945180",
    "source_url": "https://www.google.com/maps/place/Campedelli+srl/data=!4m7!3m6!1s0x132cbec56c9f0cc7:0xa9c98b3258af68f3!8m2!3d44.0913771!4d12.3790216!16s%2Fg%2F1td55wfn!19sChIJxwyfbMW-LBMR82ivWDKLyak?authuser=0&hl=tr&rclk=1",
    "website_url": "",
    "rating_text": "4,3",
    "stars": null,
    "number_of_reviews": null,
    "price_level": "",
    "open_hours": "",
    "extraction_timestamp": "2025-06-07T16:51:30.063Z",
    "source_name": "google",
    "source_query": "Irrigation Equipment",
    "source_country": "IT",
    "country": "Italy",
    "state": "Emilia-Romagna",
    "city": "Santarcangelo"
  },
  {
    "source_id": "ChIJobBLISnALBMRNi_B_8oYGc4",
    "name": "WPF SERVICE srl - Rilevamento Perdite",
    "category": "WPF SERVICE srl - Rilevamento Perdite",
    "formatted_address": "4,3(12)",
    "phone_number": "+3905411441148",
    "source_url": "https://www.google.com/maps/place/WPF+SERVICE+srl+-+Rilevamento+Perdite/data=!4m7!3m6!1s0x132cc029214bb0a1:0xce1918caffc12f36!8m2!3d44.0618!4d12.4497608!16s%2Fg%2F11gb3mgf29!19sChIJobBLISnALBMRNi_B_8oYGc4?authuser=0&hl=tr&rclk=1",
    "website_url": "",
    "rating_text": "4,3",
    "stars": null,
    "number_of_reviews": null,
    "price_level": "",
    "open_hours": "",
    "extraction_timestamp": "2025-06-07T16:51:30.064Z",
    "source_name": "google",
    "source_query": "Irrigation Equipment",
    "source_country": "IT",
    "country": "Italy",
    "state": "Emilia-Romagna",
    "city": "Santarcangelo"
  },
  {
    "source_id": "ChIJR-MGnPHALBMRRUzhdVxAF4A",
    "name": "C.I.C.A.I. Societa' Cooperativa Consortile Per Azioni",
    "category": "C.I.C.A.I. Societa' Cooperativa Consortile Per Azioni",
    "formatted_address": "4,3(63)",
    "phone_number": "+390541622903",
    "source_url": "https://www.google.com/maps/place/C.I.C.A.I.+Societa%27+Cooperativa+Consortile+Per+Azioni/data=!4m7!3m6!1s0x132cc0f19c06e347:0x8017405c75e14c45!8m2!3d44.0616579!4d12.4680796!16s%2Fg%2F1vp2y5j8!19sChIJR-MGnPHALBMRRUzhdVxAF4A?authuser=0&hl=tr&rclk=1",
    "website_url": "",
    "rating_text": "4,3",
    "stars": null,
    "number_of_reviews": null,
    "price_level": "",
    "open_hours": "",
    "extraction_timestamp": "2025-06-07T16:51:30.065Z",
    "source_name": "google",
    "source_query": "Irrigation Equipment",
    "source_country": "IT",
    "country": "Italy",
    "state": "Emilia-Romagna",
    "city": "Santarcangelo"
  },
  {
    "source_id": "ChIJScOR6e7ALBMRIiUUrwzTh48",
    "name": "G.F. Europa S.p.A Punto vendita di Rimini",
    "category": "G.F. Europa S.p.A Punto vendita di Rimini",
    "formatted_address": "4,3(62)",
    "phone_number": "+390541623423",
    "source_url": "https://www.google.com/maps/place/G.F.+Europa+S.p.A+Punto+vendita+di+Rimini/data=!4m7!3m6!1s0x132cc0eee991c349:0x8f87d30caf142522!8m2!3d44.0662345!4d12.4682667!16s%2Fg%2F1td9msh9!19sChIJScOR6e7ALBMRIiUUrwzTh48?authuser=0&hl=tr&rclk=1",
    "website_url": "",
    "rating_text": "4,3",
    "stars": null,
    "number_of_reviews": null,
    "price_level": "",
    "open_hours": "",
    "extraction_timestamp": "2025-06-07T16:51:30.067Z",
    "source_name": "google",
    "source_query": "Irrigation Equipment",
    "source_country": "IT",
    "country": "Italy",
    "state": "Emilia-Romagna",
    "city": "Santarcangelo"
  },
  {
    "source_id": "ChIJFTN07I_ALBMRsz2BrpLBtxc",
    "name": "Ferramenta Guidi",
    "category": "Ferramenta Guidi",
    "formatted_address": "4,6(62)",
    "phone_number": "+390541622034",
    "source_url": "https://www.google.com/maps/place/Ferramenta+Guidi/data=!4m7!3m6!1s0x132cc08fec743315:0x17b7c192ae813db3!8m2!3d44.0672372!4d12.4394512!16s%2Fg%2F1vb9g5pt!19sChIJFTN07I_ALBMRsz2BrpLBtxc?authuser=0&hl=tr&rclk=1",
    "website_url": "",
    "rating_text": "4,6",
    "stars": null,
    "number_of_reviews": null,
    "price_level": "",
    "open_hours": "",
    "extraction_timestamp": "2025-06-07T16:51:30.068Z",
    "source_name": "google",
    "source_query": "Irrigation Equipment",
    "source_country": "IT",
    "country": "Italy",
    "state": "Emilia-Romagna",
    "city": "Santarcangelo"
  },
  {
    "source_id": "ChIJ9X_DI6LDLBMR84MeChQNUCU",
    "name": "Irriverde - Il Paesaggio S.r.l.",
    "category": "Irriverde - Il Paesaggio S.r.l.",
    "formatted_address": "4,8(15)",
    "phone_number": "+393939275801",
    "source_url": "https://www.google.com/maps/place/Irriverde+-+Il+Paesaggio+S.r.l./data=!4m7!3m6!1s0x132cc3a223c37ff5:0x25500d140a1e83f3!8m2!3d43.982224!4d12.5281091!16s%2Fg%2F1ptz65rjr!19sChIJ9X_DI6LDLBMR84MeChQNUCU?authuser=0&hl=tr&rclk=1",
    "website_url": "",
    "rating_text": "4,8",
    "stars": null,
    "number_of_reviews": null,
    "price_level": "",
    "open_hours": "",
    "extraction_timestamp": "2025-06-07T16:51:30.069Z",
    "source_name": "google",
    "source_query": "Irrigation Equipment",
    "source_country": "IT",
    "country": "Italy",
    "state": "Emilia-Romagna",
    "city": "Santarcangelo"
  },
  {
    "source_id": "ChIJOwFhJYPALBMRmIplcFwRUgk",
    "name": "F.lli Piscaglia",
    "category": "F.lli Piscaglia",
    "formatted_address": "4,3(34)",
    "phone_number": "+390541326302",
    "source_url": "https://www.google.com/maps/place/F.lli+Piscaglia/data=!4m7!3m6!1s0x132cc0832561013b:0x952115c70658a98!8m2!3d44.0684157!4d12.4341101!16s%2Fg%2F1thjqqsc!19sChIJOwFhJYPALBMRmIplcFwRUgk?authuser=0&hl=tr&rclk=1",
    "website_url": "",
    "rating_text": "4,3",
    "stars": null,
    "number_of_reviews": null,
    "price_level": "",
    "open_hours": "",
    "extraction_timestamp": "2025-06-07T16:51:30.070Z",
    "source_name": "google",
    "source_query": "Irrigation Equipment",
    "source_country": "IT",
    "country": "Italy",
    "state": "Emilia-Romagna",
    "city": "Santarcangelo"
  },
  {
    "source_id": "ChIJLZlJlI_ALBMROBoESV40n0U",
    "name": "SMAI Service S.r.l.",
    "category": "SMAI Service S.r.l.",
    "formatted_address": "3,8(13)",
    "phone_number": "+390541626733",
    "source_url": "https://www.google.com/maps/place/SMAI+Service+S.r.l./data=!4m7!3m6!1s0x132cc08f9449992d:0x459f345e49041a38!8m2!3d44.064484!4d12.4506641!16s%2Fg%2F1vvw_qx1!19sChIJLZlJlI_ALBMROBoESV40n0U?authuser=0&hl=tr&rclk=1",
    "website_url": "",
    "rating_text": "3,8",
    "stars": null,
    "number_of_reviews": null,
    "price_level": "",
    "open_hours": "",
    "extraction_timestamp": "2025-06-07T16:51:30.071Z",
    "source_name": "google",
    "source_query": "Irrigation Equipment",
    "source_country": "IT",
    "country": "Italy",
    "state": "Emilia-Romagna",
    "city": "Santarcangelo"
  },
  {
    "source_id": "ChIJ55A9D_LALBMRNv4ZKOTxjzI",
    "name": "Automation Group",
    "category": "Automation Group",
    "formatted_address": "4,4(5)",
    "phone_number": "+390541621109",
    "source_url": "https://www.google.com/maps/place/Automation+Group/data=!4m7!3m6!1s0x132cc0f20f3d90e7:0x328ff1e42819fe36!8m2!3d44.063054!4d12.4707!16s%2Fg%2F1tcw0vz3!19sChIJ55A9D_LALBMRNv4ZKOTxjzI?authuser=0&hl=tr&rclk=1",
    "website_url": "",
    "rating_text": "4,4",
    "stars": null,
    "number_of_reviews": null,
    "price_level": "",
    "open_hours": "",
    "extraction_timestamp": "2025-06-07T16:51:30.073Z",
    "source_name": "google",
    "source_query": "Irrigation Equipment",
    "source_country": "IT",
    "country": "Italy",
    "state": "Emilia-Romagna",
    "city": "Santarcangelo"
  },
  {
    "source_id": "ChIJVUxX9fHALBMRVdbhD9pOPRg",
    "name": "C S A (S.r.l.)",
    "category": "C S A (S.r.l.)",
    "formatted_address": "4,6(5)",
    "phone_number": "+390541680444",
    "source_url": "https://www.google.com/maps/place/C+S+A+%28S.r.l.%29/data=!4m7!3m6!1s0x132cc0f1f5574c55:0x183d4eda0fe1d655!8m2!3d44.062868!4d12.4671235!16s%2Fg%2F12hkhc2lh!19sChIJVUxX9fHALBMRVdbhD9pOPRg?authuser=0&hl=tr&rclk=1",
    "website_url": "",
    "rating_text": "4,6",
    "stars": null,
    "number_of_reviews": null,
    "price_level": "",
    "open_hours": "",
    "extraction_timestamp": "2025-06-07T16:51:30.074Z",
    "source_name": "google",
    "source_query": "Irrigation Equipment",
    "source_country": "IT",
    "country": "Italy",
    "state": "Emilia-Romagna",
    "city": "Santarcangelo"
  },
  {
    "source_id": "ChIJK7hECu_ALBMR4-jPWBN8yNo",
    "name": "Labora- Ferramenta Utensileria",
    "category": "Labora- Ferramenta Utensileria",
    "formatted_address": "4,7(24)",
    "phone_number": "+390541325411",
    "source_url": "https://www.google.com/maps/place/Labora-+Ferramenta+Utensileria/data=!4m7!3m6!1s0x132cc0ef0a44b82b:0xdac87c1358cfe8e3!8m2!3d44.062669!4d12.4693044!16s%2Fg%2F1pt_3hk9r!19sChIJK7hECu_ALBMR4-jPWBN8yNo?authuser=0&hl=tr&rclk=1",
    "website_url": "",
    "rating_text": "4,7",
    "stars": null,
    "number_of_reviews": null,
    "price_level": "",
    "open_hours": "",
    "extraction_timestamp": "2025-06-07T16:51:30.075Z",
    "source_name": "google",
    "source_query": "Irrigation Equipment",
    "source_country": "IT",
    "country": "Italy",
    "state": "Emilia-Romagna",
    "city": "Santarcangelo"
  },
  {
    "source_id": "ChIJD3zrz43ALBMRPcaQOPfea5c",
    "name": "Tutto Zoo Magasin Santarcangelo",
    "category": "Tutto Zoo Magasin Santarcangelo",
    "formatted_address": "4,5(2.017)",
    "phone_number": "+390541621440",
    "source_url": "https://www.google.com/maps/place/Tutto+Zoo+Magasin+Santarcangelo/data=!4m7!3m6!1s0x132cc08dcfeb7c0f:0x976bdef73890c63d!8m2!3d44.0633964!4d12.4556388!16s%2Fg%2F1wcj__r1!19sChIJD3zrz43ALBMRPcaQOPfea5c?authuser=0&hl=tr&rclk=1",
    "website_url": "",
    "rating_text": "4,5",
    "stars": null,
    "number_of_reviews": null,
    "price_level": "",
    "open_hours": "",
    "extraction_timestamp": "2025-06-07T16:51:30.078Z",
    "source_name": "google",
    "source_query": "Irrigation Equipment",
    "source_country": "IT",
    "country": "Italy",
    "state": "Emilia-Romagna",
    "city": "Santarcangelo"
  },
  {
    "source_id": "ChIJ2b1pwIXALBMR7xmM1VEYXDA",
    "name": "Parafarmacia Salute e Benessere",
    "category": "Parafarmacia Salute e Benessere",
    "formatted_address": "4,9(31)",
    "phone_number": "+390541626596",
    "source_url": "https://www.google.com/maps/place/Parafarmacia+Salute+e+Benessere/data=!4m7!3m6!1s0x132cc085c069bdd9:0x305c1851d58c19ef!8m2!3d44.0628248!4d12.4482411!16s%2Fg%2F1tf12tmt!19sChIJ2b1pwIXALBMR7xmM1VEYXDA?authuser=0&hl=tr&rclk=1",
    "website_url": "",
    "rating_text": "4,9",
    "stars": null,
    "number_of_reviews": null,
    "price_level": "",
    "open_hours": "",
    "extraction_timestamp": "2025-06-07T16:51:30.079Z",
    "source_name": "google",
    "source_query": "Irrigation Equipment",
    "source_country": "IT",
    "country": "Italy",
    "state": "Emilia-Romagna",
    "city": "Santarcangelo"
  },
  {
    "source_id": "ChIJmf-mv4XALBMRlCQC5NUqlN8",
    "name": "Baldinini For Clima Di Baldinini Massimiliano - Impianti Termici",
    "category": "Baldinini For Clima Di Baldinini Massimiliano - Impianti Termici",
    "formatted_address": "4,8(34)",
    "phone_number": "+390541624651",
    "source_url": "https://www.google.com/maps/place/Baldinini+For+Clima+Di+Baldinini+Massimiliano+-+Impianti+Termici/data=!4m7!3m6!1s0x132cc085bfa6ff99:0xdf942ad5e4022494!8m2!3d44.0624264!4d12.4481177!16s%2Fg%2F1tgl64r1!19sChIJmf-mv4XALBMRlCQC5NUqlN8?authuser=0&hl=tr&rclk=1",
    "website_url": "",
    "rating_text": "4,8",
    "stars": null,
    "number_of_reviews": null,
    "price_level": "",
    "open_hours": "",
    "extraction_timestamp": "2025-06-07T16:51:30.080Z",
    "source_name": "google",
    "source_query": "Irrigation Equipment",
    "source_country": "IT",
    "country": "Italy",
    "state": "Emilia-Romagna",
    "city": "Santarcangelo"
  },
  {
    "source_id": "ChIJ1dctBE66LBMRYD-M3IRBi9M",
    "name": "Venturi SAS di Venturi Piero & C.",
    "category": "Venturi SAS di Venturi Piero & C.",
    "formatted_address": "4,3(64)",
    "phone_number": "+390547311136",
    "source_url": "https://www.google.com/maps/place/Venturi+SAS+di+Venturi+Piero+%26+C./data=!4m7!3m6!1s0x132cba4e042dd7d5:0xd38b4184dc8c3f60!8m2!3d44.1516799!4d12.3126239!16s%2Fg%2F11csb23jzd!19sChIJ1dctBE66LBMRYD-M3IRBi9M?authuser=0&hl=tr&rclk=1",
    "website_url": "",
    "rating_text": "4,3",
    "stars": null,
    "number_of_reviews": null,
    "price_level": "",
    "open_hours": "",
    "extraction_timestamp": "2025-06-07T16:51:30.081Z",
    "source_name": "google",
    "source_query": "Irrigation Equipment",
    "source_country": "IT",
    "country": "Italy",
    "state": "Emilia-Romagna",
    "city": "Santarcangelo"
  },
  {
    "source_id": "ChIJCfBRqrbpLBMRYfH7weuFDLo",
    "name": "Centro Agrizoo Rossi prodotti per l'agricoltura",
    "category": "Centro Agrizoo Rossi prodotti per l'agricoltura",
    "formatted_address": "4,5(123)",
    "phone_number": "+390541656040",
    "source_url": "https://www.google.com/maps/place/Centro+Agrizoo+Rossi+prodotti+per+l%27agricoltura/data=!4m7!3m6!1s0x132ce9b6aa51f009:0xba0c85ebc1fbf161!8m2!3d43.9821405!4d12.5698664!16s%2Fg%2F11b6hqm7_t!19sChIJCfBRqrbpLBMRYfH7weuFDLo?authuser=0&hl=tr&rclk=1",
    "website_url": "",
    "rating_text": "4,5",
    "stars": null,
    "number_of_reviews": null,
    "price_level": "",
    "open_hours": "",
    "extraction_timestamp": "2025-06-07T16:51:30.082Z",
    "source_name": "google",
    "source_query": "Irrigation Equipment",
    "source_country": "IT",
    "country": "Italy",
    "state": "Emilia-Romagna",
    "city": "Santarcangelo"
  },
  {
    "source_id": "ChIJ-4ZMln7DLBMRQB82ZjBU0gQ",
    "name": "Tecnomat",
    "category": "Tecnomat",
    "formatted_address": "4,6(1.345)",
    "phone_number": "+390283905463",
    "source_url": "https://www.google.com/maps/place/Tecnomat/data=!4m7!3m6!1s0x132cc37e964c86fb:0x4d2543066361f40!8m2!3d44.037535!4d12.5906277!16s%2Fg%2F11s5mnbpp0!19sChIJ-4ZMln7DLBMRQB82ZjBU0gQ?authuser=0&hl=tr&rclk=1",
    "website_url": "",
    "rating_text": "4,6",
    "stars": null,
    "number_of_reviews": null,
    "price_level": "",
    "open_hours": "",
    "extraction_timestamp": "2025-06-07T16:51:30.084Z",
    "source_name": "google",
    "source_query": "Irrigation Equipment",
    "source_country": "IT",
    "country": "Italy",
    "state": "Emilia-Romagna",
    "city": "Santarcangelo"
  },
  {
    "source_id": "ChIJcaCgKR3DLBMR6aiQJZPonjI",
    "name": "Idro Romagnola Placucci",
    "category": "Idro Romagnola Placucci",
    "formatted_address": "4,5(50)",
    "phone_number": "+390541384209",
    "source_url": "https://www.google.com/maps/place/Idro+Romagnola+Placucci/data=!4m7!3m6!1s0x132cc31d29a0a071:0x329ee8932590a8e9!8m2!3d44.0432772!4d12.5881413!16s%2Fg%2F1tf04lv8!19sChIJcaCgKR3DLBMR6aiQJZPonjI?authuser=0&hl=tr&rclk=1",
    "website_url": "",
    "rating_text": "4,5",
    "stars": null,
    "number_of_reviews": null,
    "price_level": "",
    "open_hours": "",
    "extraction_timestamp": "2025-06-07T16:51:30.085Z",
    "source_name": "google",
    "source_query": "Irrigation Equipment",
    "source_country": "IT",
    "country": "Italy",
    "state": "Emilia-Romagna",
    "city": "Santarcangelo"
  },
  {
    "source_id": "ChIJKwHMRNikLBMREg7DTn3abu8",
    "name": "R.T.N. di Gabriele Parentelli ed Amos Venzi",
    "category": "R.T.N. di Gabriele Parentelli ed Amos Venzi",
    "formatted_address": "4,6(56)",
    "phone_number": "+390547632921",
    "source_url": "https://www.google.com/maps/place/R.T.N.+di+Gabriele+Parentelli+ed+Amos+Venzi/data=!4m7!3m6!1s0x132ca4d844cc012b:0xef6eda7d4ec30e12!8m2!3d44.1527741!4d12.2412461!16s%2Fg%2F11cs2wyglx!19sChIJKwHMRNikLBMREg7DTn3abu8?authuser=0&hl=tr&rclk=1",
    "website_url": "",
    "rating_text": "4,6",
    "stars": null,
    "number_of_reviews": null,
    "price_level": "",
    "open_hours": "",
    "extraction_timestamp": "2025-06-07T16:51:30.086Z",
    "source_name": "google",
    "source_query": "Irrigation Equipment",
    "source_country": "IT",
    "country": "Italy",
    "state": "Emilia-Romagna",
    "city": "Santarcangelo"
  },
  {
    "source_id": "ChIJDUisz43ALBMRmqQ8LlVIr18",
    "name": "Unieuro Censi Santarcangelo",
    "category": "Unieuro Censi Santarcangelo",
    "formatted_address": "4,3(140)",
    "phone_number": "+390541621815",
    "source_url": "https://www.google.com/maps/place/Unieuro+Censi+Santarcangelo/data=!4m7!3m6!1s0x132cc08dcfac480d:0x5faf48552e3ca49a!8m2!3d44.0635665!4d12.4563557!16s%2Fg%2F11bx4d0rdy!19sChIJDUisz43ALBMRmqQ8LlVIr18?authuser=0&hl=tr&rclk=1",
    "website_url": "",
    "rating_text": "4,3",
    "stars": null,
    "number_of_reviews": null,
    "price_level": "",
    "open_hours": "",
    "extraction_timestamp": "2025-06-07T16:51:30.086Z",
    "source_name": "google",
    "source_query": "Irrigation Equipment",
    "source_country": "IT",
    "country": "Italy",
    "state": "Emilia-Romagna",
    "city": "Santarcangelo"
  },
  {
    "source_id": "ChIJX0MXUNe-LBMRqNvjaGSsSN4",
    "name": "Scarpellini s.r.l.",
    "category": "Scarpellini s.r.l.",
    "formatted_address": "4,7(345)",
    "phone_number": "+390541801071",
    "source_url": "https://www.google.com/maps/place/Scarpellini+s.r.l./data=!4m7!3m6!1s0x132cbed75017435f:0xde48ac6468e3dba8!8m2!3d44.0924745!4d12.3870661!16s%2Fg%2F1tfdht9j!19sChIJX0MXUNe-LBMRqNvjaGSsSN4?authuser=0&hl=tr&rclk=1",
    "website_url": "",
    "rating_text": "4,7",
    "stars": null,
    "number_of_reviews": null,
    "price_level": "",
    "open_hours": "",
    "extraction_timestamp": "2025-06-07T16:51:30.087Z",
    "source_name": "google",
    "source_query": "Irrigation Equipment",
    "source_country": "IT",
    "country": "Italy",
    "state": "Emilia-Romagna",
    "city": "Santarcangelo"
  },
  {
    "source_id": "ChIJnZrOXoPALBMR_-OemmVQugg",
    "name": "Ferramenta Paganelli Alfredo Snc",
    "category": "Ferramenta Paganelli Alfredo Snc",
    "formatted_address": "4,6(77)",
    "phone_number": "+390541626049",
    "source_url": "https://www.google.com/maps/place/Ferramenta+Paganelli+Alfredo+Snc/data=!4m7!3m6!1s0x132cc0835ece9a9d:0x8ba50659a9ee3ff!8m2!3d44.065642!4d12.4435642!16s%2Fg%2F1tcyp253!19sChIJnZrOXoPALBMR_-OemmVQugg?authuser=0&hl=tr&rclk=1",
    "website_url": "",
    "rating_text": "4,6",
    "stars": null,
    "number_of_reviews": null,
    "price_level": "",
    "open_hours": "",
    "extraction_timestamp": "2025-06-07T16:51:30.088Z",
    "source_name": "google",
    "source_query": "Irrigation Equipment",
    "source_country": "IT",
    "country": "Italy",
    "state": "Emilia-Romagna",
    "city": "Santarcangelo"
  },
  {
    "source_id": "ChIJHZ9NOh3rLBMRcQqOLLMRDjI",
    "name": "Agrigarden S.r.l.",
    "category": "Agrigarden S.r.l.",
    "formatted_address": "4,5(282)",
    "phone_number": "+390549900123",
    "source_url": "https://www.google.com/maps/place/Agrigarden+S.r.l./data=!4m7!3m6!1s0x132ceb1d3a4d9f1d:0x320e11b32c8e0a71!8m2!3d43.9765878!4d12.46918!16s%2Fg%2F11f4pvddnk!19sChIJHZ9NOh3rLBMRcQqOLLMRDjI?authuser=0&hl=tr&rclk=1",
    "website_url": "",
    "rating_text": "4,5",
    "stars": null,
    "number_of_reviews": null,
    "price_level": "",
    "open_hours": "",
    "extraction_timestamp": "2025-06-07T16:51:30.089Z",
    "source_name": "google",
    "source_query": "Irrigation Equipment",
    "source_country": "IT",
    "country": "Italy",
    "state": "Emilia-Romagna",
    "city": "Santarcangelo"
  },
  {
    "source_id": "ChIJ85cgpku6LBMRfX081ZX-wQQ",
    "name": "Idroget Atomizzatori Di Bianchi Carlo E C. (S.N.C.)",
    "category": "Idroget Atomizzatori Di Bianchi Carlo E C. (S.N.C.)",
    "formatted_address": "4,7(10)",
    "phone_number": "+390547300163",
    "source_url": "https://www.google.com/maps/place/Idroget+Atomizzatori+Di+Bianchi+Carlo+E+C.+%28S.N.C.%29/data=!4m7!3m6!1s0x132cba4ba62097f3:0x4c1fe95d53c7d7d!8m2!3d44.1418046!4d12.3078685!16s%2Fg%2F11b6j8p8p3!19sChIJ85cgpku6LBMRfX081ZX-wQQ?authuser=0&hl=tr&rclk=1",
    "website_url": "",
    "rating_text": "4,7",
    "stars": null,
    "number_of_reviews": null,
    "price_level": "",
    "open_hours": "",
    "extraction_timestamp": "2025-06-07T16:51:30.089Z",
    "source_name": "google",
    "source_query": "Irrigation Equipment",
    "source_country": "IT",
    "country": "Italy",
    "state": "Emilia-Romagna",
    "city": "Santarcangelo"
  },
  {
    "source_id": "ChIJHzloBjmVLBMRe_HUk6PKNWk",
    "name": "Multiservice S.R.L. Di Paradiso Marco E Ravello Omar",
    "category": "Multiservice S.R.L. Di Paradiso Marco E Ravello Omar",
    "formatted_address": "3,9(15)",
    "phone_number": "+390541627343",
    "source_url": "https://www.google.com/maps/place/Multiservice+S.R.L.+Di+Paradiso+Marco+E+Ravello+Omar/data=!4m7!3m6!1s0x132c95390668391f:0x6935caa393d4f17b!8m2!3d44.0485275!4d12.4106325!16s%2Fg%2F1tjzmvd8!19sChIJHzloBjmVLBMRe_HUk6PKNWk?authuser=0&hl=tr&rclk=1",
    "website_url": "",
    "rating_text": "3,9",
    "stars": null,
    "number_of_reviews": null,
    "price_level": "",
    "open_hours": "",
    "extraction_timestamp": "2025-06-07T16:51:30.090Z",
    "source_name": "google",
    "source_query": "Irrigation Equipment",
    "source_country": "IT",
    "country": "Italy",
    "state": "Emilia-Romagna",
    "city": "Santarcangelo"
  },
  {
    "source_id": "ChIJ92ScgIPALBMRhSTWZK1NXNg",
    "name": "Spendibene Santarcangelo",
    "category": "Spendibene Santarcangelo",
    "formatted_address": "4,6(76)",
    "phone_number": "+390541622480",
    "source_url": "https://www.google.com/maps/place/Spendibene+Santarcangelo/data=!4m7!3m6!1s0x132cc083809c64f7:0xd85c4dad64d62485!8m2!3d44.0653152!4d12.4441728!16s%2Fg%2F11b674h05j!19sChIJ92ScgIPALBMRhSTWZK1NXNg?authuser=0&hl=tr&rclk=1",
    "website_url": "",
    "rating_text": "4,6",
    "stars": null,
    "number_of_reviews": null,
    "price_level": "",
    "open_hours": "",
    "extraction_timestamp": "2025-06-07T16:51:30.091Z",
    "source_name": "google",
    "source_query": "Irrigation Equipment",
    "source_country": "IT",
    "country": "Italy",
    "state": "Emilia-Romagna",
    "city": "Santarcangelo"
  }
]
