[
  {
    "source_id": "ChIJxwyfbMW-LBMR82ivWDKLyak",
    "name": "Campedelli srl",
    "category": "Campedelli srl",
    "formatted_address": "4,3(20)",
    "phone_number": "+390541945180",
    "source_url": "https://www.google.com/maps/place/Campedelli+srl/data=!4m7!3m6!1s0x132cbec56c9f0cc7:0xa9c98b3258af68f3!8m2!3d44.0913771!4d12.3790216!16s%2Fg%2F1td55wfn!19sChIJxwyfbMW-LBMR82ivWDKLyak?authuser=0&hl=tr&rclk=1",
    "website_url": "https://www.facebook.com/pg/campedellisrl.savignanosulrubicone/community/",
    "rating_text": "4,3",
    "stars": null,
    "number_of_reviews": null,
    "price_level": "",
    "open_hours": "",
    "extraction_timestamp": "2025-06-07T16:51:11.667Z",
    "source_name": "google",
    "source_query": "Irrigation Equipment",
    "source_country": "IT",
    "country": "Italy",
    "state": "Emilia-Romagna",
    "city": "Sant'Andrea"
  },
  {
    "source_id": "ChIJ9X_DI6LDLBMR84MeChQNUCU",
    "name": "Irriverde - Il Paesaggio S.r.l.",
    "category": "Irriverde - Il Paesaggio S.r.l.",
    "formatted_address": "4,8(15)",
    "phone_number": "+393939275801",
    "source_url": "https://www.google.com/maps/place/Irriverde+-+Il+Paesaggio+S.r.l./data=!4m7!3m6!1s0x132cc3a223c37ff5:0x25500d140a1e83f3!8m2!3d43.982224!4d12.5281091!16s%2Fg%2F1ptz65rjr!19sChIJ9X_DI6LDLBMR84MeChQNUCU?authuser=0&hl=tr&rclk=1",
    "website_url": "http://www.irriverde.it/",
    "rating_text": "4,8",
    "stars": null,
    "number_of_reviews": null,
    "price_level": "",
    "open_hours": "",
    "extraction_timestamp": "2025-06-07T16:51:11.667Z",
    "source_name": "google",
    "source_query": "Irrigation Equipment",
    "source_country": "IT",
    "country": "Italy",
    "state": "Emilia-Romagna",
    "city": "Sant'Andrea"
  },
  {
    "source_id": "ChIJE_3jOnMtfkcRkxtTFj3Ym9E",
    "name": "Irrigation Scarabelli Srl",
    "category": "Irrigation Scarabelli Srl",
    "formatted_address": "4,5(23)",
    "phone_number": "+39051763363",
    "source_url": "https://www.google.com/maps/place/Irrigation+Scarabelli+Srl/data=!4m7!3m6!1s0x477e2d733ae3fd13:0xd19bd83d16531b93!8m2!3d44.5426053!4d11.4189136!16s%2Fg%2F11gzdz6vf!19sChIJE_3jOnMtfkcRkxtTFj3Ym9E?authuser=0&hl=tr&rclk=1",
    "website_url": "",
    "rating_text": "4,5",
    "stars": null,
    "number_of_reviews": null,
    "price_level": "",
    "open_hours": "",
    "extraction_timestamp": "2025-06-07T16:51:11.668Z",
    "source_name": "google",
    "source_query": "Irrigation Equipment",
    "source_country": "IT",
    "country": "Italy",
    "state": "Emilia-Romagna",
    "city": "Sant'Andrea"
  },
  {
    "source_id": "ChIJh3Nd8G0sfkcR_m7VewEmxXM",
    "name": "Irrigarden",
    "category": "Irrigarden",
    "formatted_address": "4,7(158)",
    "phone_number": "+39051782013",
    "source_url": "https://www.google.com/maps/place/Irrigarden/data=!4m7!3m6!1s0x477e2c6df05d7387:0x73c526017bd56efe!8m2!3d44.5096266!4d11.4390897!16s%2Fg%2F1vgw_l7w!19sChIJh3Nd8G0sfkcR_m7VewEmxXM?authuser=0&hl=tr&rclk=1",
    "website_url": "https://www.irrigarden-bo.it/",
    "rating_text": "4,7",
    "stars": null,
    "number_of_reviews": null,
    "price_level": "",
    "open_hours": "",
    "extraction_timestamp": "2025-06-07T16:51:11.668Z",
    "source_name": "google",
    "source_query": "Irrigation Equipment",
    "source_country": "IT",
    "country": "Italy",
    "state": "Emilia-Romagna",
    "city": "Sant'Andrea"
  },
  {
    "source_id": "ChIJJZ6bnCYgfkcRAJlIqmbsRJ0",
    "name": "O.R.M.A. S.r.l.",
    "category": "O.R.M.A. S.r.l.",
    "formatted_address": "4,3(16)",
    "phone_number": "+39054255095",
    "source_url": "https://www.google.com/maps/place/O.R.M.A.+S.r.l./data=!4m7!3m6!1s0x477e20269c9b9e25:0x9d44ec66aa489900!8m2!3d44.4221829!4d11.7101008!16s%2Fg%2F1tjl4rb7!19sChIJJZ6bnCYgfkcRAJlIqmbsRJ0?authuser=0&hl=tr&rclk=1",
    "website_url": "http://www.ormasrl.info/",
    "rating_text": "4,3",
    "stars": null,
    "number_of_reviews": null,
    "price_level": "",
    "open_hours": "",
    "extraction_timestamp": "2025-06-07T16:51:11.669Z",
    "source_name": "google",
    "source_query": "Irrigation Equipment",
    "source_country": "IT",
    "country": "Italy",
    "state": "Emilia-Romagna",
    "city": "Sant'Andrea"
  },
  {
    "source_id": "ChIJcQG6ul7df0cR3VxKiu5OPBs",
    "name": "Scova Impianti Srl",
    "category": "Scova Impianti Srl",
    "formatted_address": "4,5(64)",
    "phone_number": "+39059923202",
    "source_url": "https://www.google.com/maps/place/Scova+Impianti+Srl/data=!4m7!3m6!1s0x477fdd5ebaba0171:0x1b3c4eee8a4a5cdd!8m2!3d44.6018135!4d11.032294!16s%2Fg%2F1tfzwbfb!19sChIJcQG6ul7df0cR3VxKiu5OPBs?authuser=0&hl=tr&rclk=1",
    "website_url": "https://www.scovaimpianti.com/",
    "rating_text": "4,5",
    "stars": null,
    "number_of_reviews": null,
    "price_level": "",
    "open_hours": "",
    "extraction_timestamp": "2025-06-07T16:51:11.669Z",
    "source_name": "google",
    "source_query": "Irrigation Equipment",
    "source_country": "IT",
    "country": "Italy",
    "state": "Emilia-Romagna",
    "city": "Sant'Andrea"
  },
  {
    "source_id": "ChIJ-eLL5ShMfkcRkJZIiiw4RaU",
    "name": "P.M. di Peverati M. srl",
    "category": "P.M. di Peverati M. srl",
    "formatted_address": "4,7(50)",
    "phone_number": "+39053294452",
    "source_url": "https://www.google.com/maps/place/P.M.+di+Peverati+M.+srl/data=!4m7!3m6!1s0x477e4c28e5cbe2f9:0xa545382c8a489690!8m2!3d44.8147477!4d11.5887959!16s%2Fg%2F1thp6v8g!19sChIJ-eLL5ShMfkcRkJZIiiw4RaU?authuser=0&hl=tr&rclk=1",
    "website_url": "http://www.pmpeverati.it/",
    "rating_text": "4,7",
    "stars": null,
    "number_of_reviews": null,
    "price_level": "",
    "open_hours": "",
    "extraction_timestamp": "2025-06-07T16:51:11.669Z",
    "source_name": "google",
    "source_query": "Irrigation Equipment",
    "source_country": "IT",
    "country": "Italy",
    "state": "Emilia-Romagna",
    "city": "Sant'Andrea"
  },
  {
    "source_id": "ChIJ_SYf2IMsfkcRVw9xVhrnjyI",
    "name": "Irrigazione Bragaglia",
    "category": "Irrigazione Bragaglia",
    "formatted_address": "4,7(30)",
    "phone_number": "+39051534865",
    "source_url": "https://www.google.com/maps/place/Irrigazione+Bragaglia/data=!4m7!3m6!1s0x477e2c83d81f26fd:0x228fe71a56710f57!8m2!3d44.5053735!4d11.412403!16s%2Fg%2F1vp6z0gf!19sChIJ_SYf2IMsfkcRVw9xVhrnjyI?authuser=0&hl=tr&rclk=1",
    "website_url": "http://www.irrigazionebragaglia.it/",
    "rating_text": "4,7",
    "stars": null,
    "number_of_reviews": null,
    "price_level": "",
    "open_hours": "",
    "extraction_timestamp": "2025-06-07T16:51:11.670Z",
    "source_name": "google",
    "source_query": "Irrigation Equipment",
    "source_country": "IT",
    "country": "Italy",
    "state": "Emilia-Romagna",
    "city": "Sant'Andrea"
  },
  {
    "source_id": "ChIJqdtsqMTaf0cRFSqvzNBB5Tw",
    "name": "Ricchetti Irrigazione Snc Di Alberghini Paolo E C.",
    "category": "Ricchetti Irrigazione Snc Di Alberghini Paolo E C.",
    "formatted_address": "4,9(31)",
    "phone_number": "+39051950115",
    "source_url": "https://www.google.com/maps/place/Ricchetti+Irrigazione+Snc+Di+Alberghini+Paolo+E+C./data=!4m7!3m6!1s0x477fdac4a86cdba9:0x3ce541d0ccaf2a15!8m2!3d44.5883369!4d11.1803569!16s%2Fg%2F1vfn5hgh!19sChIJqdtsqMTaf0cRFSqvzNBB5Tw?authuser=0&hl=tr&rclk=1",
    "website_url": "http://www.ricchetti-irrigatori.it/",
    "rating_text": "4,9",
    "stars": null,
    "number_of_reviews": null,
    "price_level": "",
    "open_hours": "",
    "extraction_timestamp": "2025-06-07T16:51:11.670Z",
    "source_name": "google",
    "source_query": "Irrigation Equipment",
    "source_country": "IT",
    "country": "Italy",
    "state": "Emilia-Romagna",
    "city": "Sant'Andrea"
  },
  {
    "source_id": "ChIJtVDkNgRFgEcRqc6umwWIJuI",
    "name": "Rm Spa",
    "category": "Rm Spa",
    "formatted_address": "4,6(81)",
    "phone_number": "+390521872321",
    "source_url": "https://www.google.com/maps/place/Rm+Spa/data=!4m7!3m6!1s0x4780450436e450b5:0xe22688059baecea9!8m2!3d44.9105406!4d10.2583785!16s%2Fg%2F12hl93byl!19sChIJtVDkNgRFgEcRqc6umwWIJuI?authuser=0&hl=tr&rclk=1",
    "website_url": "http://www.rmirrigation.com/",
    "rating_text": "4,6",
    "stars": null,
    "number_of_reviews": null,
    "price_level": "",
    "open_hours": "",
    "extraction_timestamp": "2025-06-07T16:51:11.671Z",
    "source_name": "google",
    "source_query": "Irrigation Equipment",
    "source_country": "IT",
    "country": "Italy",
    "state": "Emilia-Romagna",
    "city": "Sant'Andrea"
  },
  {
    "source_id": "ChIJhQBF-GhIfkcRFZ34l9qDsN0",
    "name": "Baraldi Leonardo",
    "category": "Baraldi Leonardo",
    "formatted_address": "5,0(1)",
    "phone_number": "+390532722654",
    "source_url": "https://www.google.com/maps/place/Baraldi+Leonardo/data=!4m7!3m6!1s0x477e4868f8450085:0xddb083da97f89d15!8m2!3d44.73549!4d11.64391!16s%2Fg%2F1hc1pgtmd!19sChIJhQBF-GhIfkcRFZ34l9qDsN0?authuser=0&hl=tr&rclk=1",
    "website_url": "",
    "rating_text": "5,0",
    "stars": null,
    "number_of_reviews": null,
    "price_level": "",
    "open_hours": "",
    "extraction_timestamp": "2025-06-07T16:51:11.671Z",
    "source_name": "google",
    "source_query": "Irrigation Equipment",
    "source_country": "IT",
    "country": "Italy",
    "state": "Emilia-Romagna",
    "city": "Sant'Andrea"
  },
  {
    "source_id": "ChIJ6V_bZG65LBMR6_qD8NNIQ0A",
    "name": "Mazzoni Massimo Srl",
    "category": "Mazzoni Massimo Srl",
    "formatted_address": "4,6(92)",
    "phone_number": "+39054788260",
    "source_url": "https://www.google.com/maps/place/Mazzoni+Massimo+Srl/data=!4m7!3m6!1s0x132cb96e64db5fe9:0x404348d3f083faeb!8m2!3d44.1299616!4d12.3628702!16s%2Fg%2F11c5xv4rdg!19sChIJ6V_bZG65LBMR6_qD8NNIQ0A?authuser=0&hl=tr&rclk=1",
    "website_url": "http://www.mazzoni.org/",
    "rating_text": "4,6",
    "stars": null,
    "number_of_reviews": null,
    "price_level": "",
    "open_hours": "",
    "extraction_timestamp": "2025-06-07T16:51:11.671Z",
    "source_name": "google",
    "source_query": "Irrigation Equipment",
    "source_country": "IT",
    "country": "Italy",
    "state": "Emilia-Romagna",
    "city": "Sant'Andrea"
  },
  {
    "source_id": "ChIJzWyZEf8dgEcRM0sVtbJE3TI",
    "name": "Impiantistica LAVONE",
    "category": "Impiantistica LAVONE",
    "formatted_address": "5,0(3)",
    "phone_number": "+393514759408",
    "source_url": "https://www.google.com/maps/place/Impiantistica+LAVONE/data=!4m7!3m6!1s0x47801dff11996ccd:0x32dd44b2b5154b33!8m2!3d44.7120611!4d10.6241549!16s%2Fg%2F11lp1gdrnd!19sChIJzWyZEf8dgEcRM0sVtbJE3TI?authuser=0&hl=tr&rclk=1",
    "website_url": "",
    "rating_text": "5,0",
    "stars": null,
    "number_of_reviews": null,
    "price_level": "",
    "open_hours": "",
    "extraction_timestamp": "2025-06-07T16:51:11.672Z",
    "source_name": "google",
    "source_query": "Irrigation Equipment",
    "source_country": "IT",
    "country": "Italy",
    "state": "Emilia-Romagna",
    "city": "Sant'Andrea"
  },
  {
    "source_id": "ChIJFW3XPJejLBMRDpQWGwmYqU4",
    "name": "Raggini Irrigazioni e Robot Tosaerba",
    "category": "Raggini Irrigazioni e Robot Tosaerba",
    "formatted_address": "5,0(1)",
    "phone_number": "+393926808947",
    "source_url": "https://www.google.com/maps/place/Raggini+Irrigazioni+e+Robot+Tosaerba/data=!4m7!3m6!1s0x132ca3973cd76d15:0x4ea998091b16940e!8m2!3d44.36369!4d11.8460774!16s%2Fg%2F11dz0bbs9t!19sChIJFW3XPJejLBMRDpQWGwmYqU4?authuser=0&hl=tr&rclk=1",
    "website_url": "",
    "rating_text": "5,0",
    "stars": null,
    "number_of_reviews": null,
    "price_level": "",
    "open_hours": "",
    "extraction_timestamp": "2025-06-07T16:51:11.672Z",
    "source_name": "google",
    "source_query": "Irrigation Equipment",
    "source_country": "IT",
    "country": "Italy",
    "state": "Emilia-Romagna",
    "city": "Sant'Andrea"
  },
  {
    "source_id": "ChIJyXgg68QrfkcRAaJCOMJ3PxY",
    "name": "hidrisistem",
    "category": "hidrisistem",
    "formatted_address": "5,0(1)",
    "phone_number": "+39366448310824",
    "source_url": "https://www.google.com/maps/place/hidrisistem/data=!4m7!3m6!1s0x477e2bc4eb2078c9:0x163f77c23842a201!8m2!3d44.496029!4d11.402638!16s%2Fg%2F11w_zjhjy3!19sChIJyXgg68QrfkcRAaJCOMJ3PxY?authuser=0&hl=tr&rclk=1",
    "website_url": "",
    "rating_text": "5,0",
    "stars": null,
    "number_of_reviews": null,
    "price_level": "",
    "open_hours": "",
    "extraction_timestamp": "2025-06-07T16:51:11.672Z",
    "source_name": "google",
    "source_query": "Irrigation Equipment",
    "source_country": "IT",
    "country": "Italy",
    "state": "Emilia-Romagna",
    "city": "Sant'Andrea"
  },
  {
    "source_id": "ChIJJ6V6lMDgf0cR1SpFsfjDuHg",
    "name": "Ocmis Irrigazione Spa",
    "category": "Ocmis Irrigazione Spa",
    "formatted_address": "3,5(31)",
    "phone_number": "+39059702150",
    "source_url": "https://www.google.com/maps/place/Ocmis+Irrigazione+Spa/data=!4m7!3m6!1s0x477fe0c0947aa527:0x78b8c3f8b1452ad5!8m2!3d44.530494!4d10.9794578!16s%2Fg%2F1vd3tn19!19sChIJJ6V6lMDgf0cR1SpFsfjDuHg?authuser=0&hl=tr&rclk=1",
    "website_url": "http://www.ocmis-irrigazione.it/",
    "rating_text": "3,5",
    "stars": null,
    "number_of_reviews": null,
    "price_level": "",
    "open_hours": "",
    "extraction_timestamp": "2025-06-07T16:51:11.673Z",
    "source_name": "google",
    "source_query": "Irrigation Equipment",
    "source_country": "IT",
    "country": "Italy",
    "state": "Emilia-Romagna",
    "city": "Sant'Andrea"
  },
  {
    "source_id": "ChIJ-ZYke-VfLBMRSl_s0b4UacM",
    "name": "Valducci Web S.r.l.",
    "category": "Valducci Web S.r.l.",
    "formatted_address": "5,0(1)",
    "phone_number": "+393371267358",
    "source_url": "https://www.google.com/maps/place/Valducci+Web+S.r.l./data=!4m7!3m6!1s0x132c5fe57b2496f9:0xc36914bed1ec5f4a!8m2!3d43.6598005!4d12.5231511!16s%2Fg%2F11f66g3g7d!19sChIJ-ZYke-VfLBMRSl_s0b4UacM?authuser=0&hl=tr&rclk=1",
    "website_url": "http://www.irrigationvalducci.com/",
    "rating_text": "5,0",
    "stars": null,
    "number_of_reviews": null,
    "price_level": "",
    "open_hours": "",
    "extraction_timestamp": "2025-06-07T16:51:11.673Z",
    "source_name": "google",
    "source_query": "Irrigation Equipment",
    "source_country": "IT",
    "country": "Italy",
    "state": "Emilia-Romagna",
    "city": "Sant'Andrea"
  },
  {
    "source_id": "ChIJIZ--0Hu7LBMRsAwRWW9yZP8",
    "name": "Irritalia Di Vecchi Andrea & C. S.N.C.",
    "category": "Irritalia Di Vecchi Andrea & C. S.N.C.",
    "formatted_address": "Üretici ·  · Via Archimede, 200Kapalı ⋅ Açılış zamanı: Pzt 08:00 · +39 0547 301569",
    "phone_number": "+390547301569",
    "source_url": "https://www.google.com/maps/place/Irritalia+Di+Vecchi+Andrea+%26+C.+S.N.C./data=!4m7!3m6!1s0x132cbb7bd0be9f21:0xff64726f59110cb0!8m2!3d44.1175203!4d12.2941807!16s%2Fg%2F1th2n8t5!19sChIJIZ--0Hu7LBMRsAwRWW9yZP8?authuser=0&hl=tr&rclk=1",
    "website_url": "http://www.irritalia.com/contatti.php",
    "rating_text": "",
    "stars": null,
    "number_of_reviews": null,
    "price_level": "",
    "open_hours": "",
    "extraction_timestamp": "2025-06-07T16:51:11.673Z",
    "source_name": "google",
    "source_query": "Irrigation Equipment",
    "source_country": "IT",
    "country": "Italy",
    "state": "Emilia-Romagna",
    "city": "Sant'Andrea"
  },
  {
    "source_id": "ChIJvcDem-ikLBMRGr--H_X5Hms",
    "name": "Water Team S.r.l.",
    "category": "Water Team S.r.l.",
    "formatted_address": "5,0(3)",
    "phone_number": "+390547601040",
    "source_url": "https://www.google.com/maps/place/Water+Team+S.r.l./data=!4m7!3m6!1s0x132ca4e89bdec0bd:0x6b1ef9f51fbebf1a!8m2!3d44.1552421!4d12.2123603!16s%2Fg%2F1tfdvh1_!19sChIJvcDem-ikLBMRGr--H_X5Hms?authuser=0&hl=tr&rclk=1",
    "website_url": "https://www.waterteam.it/",
    "rating_text": "5,0",
    "stars": null,
    "number_of_reviews": null,
    "price_level": "",
    "open_hours": "",
    "extraction_timestamp": "2025-06-07T16:51:11.674Z",
    "source_name": "google",
    "source_query": "Irrigation Equipment",
    "source_country": "IT",
    "country": "Italy",
    "state": "Emilia-Romagna",
    "city": "Sant'Andrea"
  },
  {
    "source_id": "ChIJ1dctBE66LBMRYD-M3IRBi9M",
    "name": "Venturi SAS di Venturi Piero & C.",
    "category": "Venturi SAS di Venturi Piero & C.",
    "formatted_address": "4,3(64)",
    "phone_number": "+390547311136",
    "source_url": "https://www.google.com/maps/place/Venturi+SAS+di+Venturi+Piero+%26+C./data=!4m7!3m6!1s0x132cba4e042dd7d5:0xd38b4184dc8c3f60!8m2!3d44.1516799!4d12.3126239!16s%2Fg%2F11csb23jzd!19sChIJ1dctBE66LBMRYD-M3IRBi9M?authuser=0&hl=tr&rclk=1",
    "website_url": "https://www.venturi.fc.it/",
    "rating_text": "4,3",
    "stars": null,
    "number_of_reviews": null,
    "price_level": "",
    "open_hours": "",
    "extraction_timestamp": "2025-06-07T16:51:11.674Z",
    "source_name": "google",
    "source_query": "Irrigation Equipment",
    "source_country": "IT",
    "country": "Italy",
    "state": "Emilia-Romagna",
    "city": "Sant'Andrea"
  },
  {
    "source_id": "ChIJcaCgKR3DLBMR6aiQJZPonjI",
    "name": "Idro Romagnola Placucci",
    "category": "Idro Romagnola Placucci",
    "formatted_address": "4,5(50)",
    "phone_number": "+390541384209",
    "source_url": "https://www.google.com/maps/place/Idro+Romagnola+Placucci/data=!4m7!3m6!1s0x132cc31d29a0a071:0x329ee8932590a8e9!8m2!3d44.0432772!4d12.5881413!16s%2Fg%2F1tf04lv8!19sChIJcaCgKR3DLBMR6aiQJZPonjI?authuser=0&hl=tr&rclk=1",
    "website_url": "http://www.idroromagnola.it/",
    "rating_text": "4,5",
    "stars": null,
    "number_of_reviews": null,
    "price_level": "",
    "open_hours": "",
    "extraction_timestamp": "2025-06-07T16:51:11.674Z",
    "source_name": "google",
    "source_query": "Irrigation Equipment",
    "source_country": "IT",
    "country": "Italy",
    "state": "Emilia-Romagna",
    "city": "Sant'Andrea"
  },
  {
    "source_id": "ChIJKwHMRNikLBMREg7DTn3abu8",
    "name": "R.T.N. di Gabriele Parentelli ed Amos Venzi",
    "category": "R.T.N. di Gabriele Parentelli ed Amos Venzi",
    "formatted_address": "4,6(56)",
    "phone_number": "+390547632921",
    "source_url": "https://www.google.com/maps/place/R.T.N.+di+Gabriele+Parentelli+ed+Amos+Venzi/data=!4m7!3m6!1s0x132ca4d844cc012b:0xef6eda7d4ec30e12!8m2!3d44.1527741!4d12.2412461!16s%2Fg%2F11cs2wyglx!19sChIJKwHMRNikLBMREg7DTn3abu8?authuser=0&hl=tr&rclk=1",
    "website_url": "",
    "rating_text": "4,6",
    "stars": null,
    "number_of_reviews": null,
    "price_level": "",
    "open_hours": "",
    "extraction_timestamp": "2025-06-07T16:51:11.675Z",
    "source_name": "google",
    "source_query": "Irrigation Equipment",
    "source_country": "IT",
    "country": "Italy",
    "state": "Emilia-Romagna",
    "city": "Sant'Andrea"
  },
  {
    "source_id": "ChIJL6a0_CuxLBMR-IBigzDjghs",
    "name": "Idros.art & Bozzola Group S.p.A.",
    "category": "Idros.art & Bozzola Group S.p.A.",
    "formatted_address": "4,1(27)",
    "phone_number": "+390544964596",
    "source_url": "https://www.google.com/maps/place/Idros.art+%26+Bozzola+Group+S.p.A./data=!4m7!3m6!1s0x132cb12bfcb4a62f:0x1b82e330836280f8!8m2!3d44.2219734!4d12.3413686!16s%2Fg%2F1hc68233n!19sChIJL6a0_CuxLBMR-IBigzDjghs?authuser=0&hl=tr&rclk=1",
    "website_url": "http://www.idrosart-bozzola.it/",
    "rating_text": "4,1",
    "stars": null,
    "number_of_reviews": null,
    "price_level": "",
    "open_hours": "",
    "extraction_timestamp": "2025-06-07T16:51:11.675Z",
    "source_name": "google",
    "source_query": "Irrigation Equipment",
    "source_country": "IT",
    "country": "Italy",
    "state": "Emilia-Romagna",
    "city": "Sant'Andrea"
  },
  {
    "source_id": "ChIJ-4ZMln7DLBMRQB82ZjBU0gQ",
    "name": "Tecnomat",
    "category": "Tecnomat",
    "formatted_address": "4,6(1.345)",
    "phone_number": "+390283905463",
    "source_url": "https://www.google.com/maps/place/Tecnomat/data=!4m7!3m6!1s0x132cc37e964c86fb:0x4d2543066361f40!8m2!3d44.037535!4d12.5906277!16s%2Fg%2F11s5mnbpp0!19sChIJ-4ZMln7DLBMRQB82ZjBU0gQ?authuser=0&hl=tr&rclk=1",
    "website_url": "https://www.tecnomat.it/it/n/rimini/?utm_campaign=RIMINI_negozio_GMB&utm_content=sito_web&utm_medium=google_my_business&utm_source=google&utm_term=sito_web_RIMINI_GMB",
    "rating_text": "4,6",
    "stars": null,
    "number_of_reviews": null,
    "price_level": "",
    "open_hours": "",
    "extraction_timestamp": "2025-06-07T16:51:11.676Z",
    "source_name": "google",
    "source_query": "Irrigation Equipment",
    "source_country": "IT",
    "country": "Italy",
    "state": "Emilia-Romagna",
    "city": "Sant'Andrea"
  },
  {
    "source_id": "ChIJzSbOIp1gLBMROAs-0LbJpRs",
    "name": "SAB Spa",
    "category": "SAB Spa",
    "formatted_address": "4,5(84)",
    "phone_number": "+390722810800",
    "source_url": "https://www.google.com/maps/place/SAB+Spa/data=!4m7!3m6!1s0x132c609d22ce26cd:0x1ba5c9b6d03e0b38!8m2!3d43.6709032!4d12.436446!16s%2Fg%2F1td8dq9l!19sChIJzSbOIp1gLBMROAs-0LbJpRs?authuser=0&hl=tr&rclk=1",
    "website_url": "http://www.sabspa.com/",
    "rating_text": "4,5",
    "stars": null,
    "number_of_reviews": null,
    "price_level": "",
    "open_hours": "",
    "extraction_timestamp": "2025-06-07T16:51:11.677Z",
    "source_name": "google",
    "source_query": "Irrigation Equipment",
    "source_country": "IT",
    "country": "Italy",
    "state": "Emilia-Romagna",
    "city": "Sant'Andrea"
  },
  {
    "source_id": "ChIJ9wMJV3IlfkcRWRdzdhVtwlQ",
    "name": "Bilacchi Irrigazione S.A.S. di Bilacchi Simone & C.",
    "category": "Bilacchi Irrigazione S.A.S. di Bilacchi Simone & C.",
    "formatted_address": "4,0(7)",
    "phone_number": "+393397998443",
    "source_url": "https://www.google.com/maps/place/Bilacchi+Irrigazione+S.A.S.+di+Bilacchi+Simone+%26+C./data=!4m7!3m6!1s0x477e2572570903f7:0x54c26d1576731759!8m2!3d44.4799432!4d11.6323261!16s%2Fg%2F11rk4fchy5!19sChIJ9wMJV3IlfkcRWRdzdhVtwlQ?authuser=0&hl=tr&rclk=1",
    "website_url": "https://irrigazionebilacchi.it/",
    "rating_text": "4,0",
    "stars": null,
    "number_of_reviews": null,
    "price_level": "",
    "open_hours": "",
    "extraction_timestamp": "2025-06-07T16:51:11.677Z",
    "source_name": "google",
    "source_query": "Irrigation Equipment",
    "source_country": "IT",
    "country": "Italy",
    "state": "Emilia-Romagna",
    "city": "Sant'Andrea"
  },
  {
    "source_id": "ChIJydY5gV9UfkcRVSULAbLwyzs",
    "name": "Lareter - Gruppo Aliaxis",
    "category": "Lareter - Gruppo Aliaxis",
    "formatted_address": "3,9(60)",
    "phone_number": "+390425745511",
    "source_url": "https://www.google.com/maps/place/Lareter+-+Gruppo+Aliaxis/data=!4m7!3m6!1s0x477e545f8139d6c9:0x3bcbf0b2010b2555!8m2!3d44.9548363!4d11.6015862!16s%2Fg%2F1tcwkdpk!19sChIJydY5gV9UfkcRVSULAbLwyzs?authuser=0&hl=tr&rclk=1",
    "website_url": "https://www.lareter.it/",
    "rating_text": "3,9",
    "stars": null,
    "number_of_reviews": null,
    "price_level": "",
    "open_hours": "",
    "extraction_timestamp": "2025-06-07T16:51:11.677Z",
    "source_name": "google",
    "source_query": "Irrigation Equipment",
    "source_country": "IT",
    "country": "Italy",
    "state": "Emilia-Romagna",
    "city": "Sant'Andrea"
  },
  {
    "source_id": "ChIJj6lqi20sfkcRzOHfxextuA0",
    "name": "La Pioggia",
    "category": "La Pioggia",
    "formatted_address": "4,6(54)",
    "phone_number": "+39051781194",
    "source_url": "https://www.google.com/maps/place/La+Pioggia/data=!4m7!3m6!1s0x477e2c6d8b6aa98f:0xdb86decc5dfe1cc!8m2!3d44.5092215!4d11.4394615!16s%2Fg%2F1tffc0h0!19sChIJj6lqi20sfkcRzOHfxextuA0?authuser=0&hl=tr&rclk=1",
    "website_url": "http://www.lapioggia.it/",
    "rating_text": "4,6",
    "stars": null,
    "number_of_reviews": null,
    "price_level": "",
    "open_hours": "",
    "extraction_timestamp": "2025-06-07T16:51:11.678Z",
    "source_name": "google",
    "source_query": "Irrigation Equipment",
    "source_country": "IT",
    "country": "Italy",
    "state": "Emilia-Romagna",
    "city": "Sant'Andrea"
  },
  {
    "source_id": "ChIJAYXyH7PDLBMR8HxGCqIVtvQ",
    "name": "Elettromeccanica Muccioli",
    "category": "Elettromeccanica Muccioli",
    "formatted_address": "4,6(66)",
    "phone_number": "+390541770283",
    "source_url": "https://www.google.com/maps/place/Elettromeccanica+Muccioli/data=!4m7!3m6!1s0x132cc3b31ff28501:0xf4b615a20a467cf0!8m2!3d44.0454954!4d12.5612467!16s%2Fg%2F11bvv_3dvg!19sChIJAYXyH7PDLBMR8HxGCqIVtvQ?authuser=0&hl=tr&rclk=1",
    "website_url": "https://www.muccioli.it/",
    "rating_text": "4,6",
    "stars": null,
    "number_of_reviews": null,
    "price_level": "",
    "open_hours": "",
    "extraction_timestamp": "2025-06-07T16:51:11.678Z",
    "source_name": "google",
    "source_query": "Irrigation Equipment",
    "source_country": "IT",
    "country": "Italy",
    "state": "Emilia-Romagna",
    "city": "Sant'Andrea"
  },
  {
    "source_id": "ChIJdbi1mvUlfkcRw_VX1yUWxp8",
    "name": "Hydro Italia srl - Trattamento e Depurazione Acque Industriali",
    "category": "Hydro Italia srl - Trattamento e Depurazione Acque Industriali",
    "formatted_address": "4,0(2)",
    "phone_number": "+39051856263",
    "source_url": "https://www.google.com/maps/place/Hydro+Italia+srl+-+Trattamento+e+Depurazione+Acque+Industriali/data=!4m7!3m6!1s0x477e25f59ab5b875:0x9fc61625d757f5c3!8m2!3d44.5025405!4d11.560667!16s%2Fg%2F1tdjp_4w!19sChIJdbi1mvUlfkcRw_VX1yUWxp8?authuser=0&hl=tr&rclk=1",
    "website_url": "https://www.hydroitalia.com/?utm_source=google&utm_medium=mybusiness&utm_campaign=url-sito",
    "rating_text": "4,0",
    "stars": null,
    "number_of_reviews": null,
    "price_level": "",
    "open_hours": "",
    "extraction_timestamp": "2025-06-07T16:51:11.679Z",
    "source_name": "google",
    "source_query": "Irrigation Equipment",
    "source_country": "IT",
    "country": "Italy",
    "state": "Emilia-Romagna",
    "city": "Sant'Andrea"
  },
  {
    "source_id": "ChIJj7p79zMzKxMRxzB_tpcRXKE",
    "name": "F.lli Farne' Srl",
    "category": "F.lli Farne' Srl",
    "formatted_address": "4,7(97)",
    "phone_number": "+39051941145",
    "source_url": "https://www.google.com/maps/place/F.lli+Farne%27+Srl/data=!4m7!3m6!1s0x132b3333f77bba8f:0xa15c1197b67f30c7!8m2!3d44.4060269!4d11.5874732!16s%2Fg%2F1vx88btc!19sChIJj7p79zMzKxMRxzB_tpcRXKE?authuser=0&hl=tr&rclk=1",
    "website_url": "https://fratellifarnesrl.it/",
    "rating_text": "4,7",
    "stars": null,
    "number_of_reviews": null,
    "price_level": "",
    "open_hours": "",
    "extraction_timestamp": "2025-06-07T16:51:11.679Z",
    "source_name": "google",
    "source_query": "Irrigation Equipment",
    "source_country": "IT",
    "country": "Italy",
    "state": "Emilia-Romagna",
    "city": "Sant'Andrea"
  },
  {
    "source_id": "ChIJQyDw8N_0f0cRhE_m36C06SU",
    "name": "Irrigreen",
    "category": "Irrigreen",
    "formatted_address": "4,3(3)",
    "phone_number": "+390522642318",
    "source_url": "https://www.google.com/maps/place/Irrigreen/data=!4m7!3m6!1s0x477ff4dff0f02043:0x25e9b4a0dfe64f84!8m2!3d45.1836109!4d10.6267461!16s%2Fg%2F1tddwm9t!19sChIJQyDw8N_0f0cRhE_m36C06SU?authuser=0&hl=tr&rclk=1",
    "website_url": "http://www.irrigreen.it/",
    "rating_text": "4,3",
    "stars": null,
    "number_of_reviews": null,
    "price_level": "",
    "open_hours": "",
    "extraction_timestamp": "2025-06-07T16:51:11.679Z",
    "source_name": "google",
    "source_query": "Irrigation Equipment",
    "source_country": "IT",
    "country": "Italy",
    "state": "Emilia-Romagna",
    "city": "Sant'Andrea"
  },
  {
    "source_id": "ChIJfVN3C2tXKxMRMz0h-hzaNhA",
    "name": "Non Solo Acqua",
    "category": "Non Solo Acqua",
    "formatted_address": "3,3(9)",
    "phone_number": "+390547632868",
    "source_url": "https://www.google.com/maps/place/Non+Solo+Acqua/data=!4m7!3m6!1s0x132b576b0b77537d:0x1036da1cfa213d33!8m2!3d44.153782!4d12.249529!16s%2Fg%2F11h8mr0byg!19sChIJfVN3C2tXKxMRMz0h-hzaNhA?authuser=0&hl=tr&rclk=1",
    "website_url": "",
    "rating_text": "3,3",
    "stars": null,
    "number_of_reviews": null,
    "price_level": "",
    "open_hours": "",
    "extraction_timestamp": "2025-06-07T16:51:11.680Z",
    "source_name": "google",
    "source_query": "Irrigation Equipment",
    "source_country": "IT",
    "country": "Italy",
    "state": "Emilia-Romagna",
    "city": "Sant'Andrea"
  },
  {
    "source_id": "ChIJ85cgpku6LBMRfX081ZX-wQQ",
    "name": "Idroget Atomizzatori Di Bianchi Carlo E C. (S.N.C.)",
    "category": "Idroget Atomizzatori Di Bianchi Carlo E C. (S.N.C.)",
    "formatted_address": "4,7(10)",
    "phone_number": "+390547300163",
    "source_url": "https://www.google.com/maps/place/Idroget+Atomizzatori+Di+Bianchi+Carlo+E+C.+%28S.N.C.%29/data=!4m7!3m6!1s0x132cba4ba62097f3:0x4c1fe95d53c7d7d!8m2!3d44.1418046!4d12.3078685!16s%2Fg%2F11b6j8p8p3!19sChIJ85cgpku6LBMRfX081ZX-wQQ?authuser=0&hl=tr&rclk=1",
    "website_url": "http://www.idroget.it/",
    "rating_text": "4,7",
    "stars": null,
    "number_of_reviews": null,
    "price_level": "",
    "open_hours": "",
    "extraction_timestamp": "2025-06-07T16:51:11.680Z",
    "source_name": "google",
    "source_query": "Irrigation Equipment",
    "source_country": "IT",
    "country": "Italy",
    "state": "Emilia-Romagna",
    "city": "Sant'Andrea"
  }
]
