[
  {
    "source_id": "ChIJQ8fJol1SKxMRShirn3slxH4",
    "name": "Tecnir",
    "category": "Tecnir",
    "formatted_address": "4,4(17)",
    "phone_number": "+390546641026",
    "source_url": "https://www.google.com/maps/place/Tecnir/data=!4m7!3m6!1s0x132b525da2c9c743:0x7ec4257b9fab184a!8m2!3d44.363732!4d11.935557!16s%2Fg%2F1vfps_3m!19sChIJQ8fJol1SKxMRShirn3slxH4?authuser=0&hl=tr&rclk=1",
    "website_url": "https://www.tecnirirrigazione.it/",
    "rating_text": "4,4",
    "stars": null,
    "number_of_reviews": null,
    "price_level": "",
    "open_hours": "",
    "extraction_timestamp": "2025-06-07T16:35:39.885Z",
    "source_name": "google",
    "source_query": "Irrigation Equipment",
    "source_country": "IT",
    "country": "Italy",
    "state": "Emilia-Romagna",
    "city": "Santerno"
  },
  {
    "source_id": "ChIJcQG6ul7df0cR3VxKiu5OPBs",
    "name": "Scova Impianti Srl",
    "category": "Scova Impianti Srl",
    "formatted_address": "4,5(64)",
    "phone_number": "+39059923202",
    "source_url": "https://www.google.com/maps/place/Scova+Impianti+Srl/data=!4m7!3m6!1s0x477fdd5ebaba0171:0x1b3c4eee8a4a5cdd!8m2!3d44.6018135!4d11.032294!16s%2Fg%2F1tfzwbfb!19sChIJcQG6ul7df0cR3VxKiu5OPBs?authuser=0&hl=tr&rclk=1",
    "website_url": "https://www.scovaimpianti.com/",
    "rating_text": "4,5",
    "stars": null,
    "number_of_reviews": null,
    "price_level": "",
    "open_hours": "",
    "extraction_timestamp": "2025-06-07T16:35:39.887Z",
    "source_name": "google",
    "source_query": "Irrigation Equipment",
    "source_country": "IT",
    "country": "Italy",
    "state": "Emilia-Romagna",
    "city": "Santerno"
  },
  {
    "source_id": "ChIJh3Nd8G0sfkcR_m7VewEmxXM",
    "name": "Irrigarden",
    "category": "Irrigarden",
    "formatted_address": "4,7(158)",
    "phone_number": "+39051782013",
    "source_url": "https://www.google.com/maps/place/Irrigarden/data=!4m7!3m6!1s0x477e2c6df05d7387:0x73c526017bd56efe!8m2!3d44.5096266!4d11.4390897!16s%2Fg%2F1vgw_l7w!19sChIJh3Nd8G0sfkcR_m7VewEmxXM?authuser=0&hl=tr&rclk=1",
    "website_url": "https://www.irrigarden-bo.it/",
    "rating_text": "4,7",
    "stars": null,
    "number_of_reviews": null,
    "price_level": "",
    "open_hours": "",
    "extraction_timestamp": "2025-06-07T16:35:39.889Z",
    "source_name": "google",
    "source_query": "Irrigation Equipment",
    "source_country": "IT",
    "country": "Italy",
    "state": "Emilia-Romagna",
    "city": "Santerno"
  },
  {
    "source_id": "ChIJyXgg68QrfkcRAaJCOMJ3PxY",
    "name": "hidrisistem",
    "category": "hidrisistem",
    "formatted_address": "5,0(1)",
    "phone_number": "+39366448310824",
    "source_url": "https://www.google.com/maps/place/hidrisistem/data=!4m7!3m6!1s0x477e2bc4eb2078c9:0x163f77c23842a201!8m2!3d44.496029!4d11.402638!16s%2Fg%2F11w_zjhjy3!19sChIJyXgg68QrfkcRAaJCOMJ3PxY?authuser=0&hl=tr&rclk=1",
    "website_url": "",
    "rating_text": "5,0",
    "stars": null,
    "number_of_reviews": null,
    "price_level": "",
    "open_hours": "",
    "extraction_timestamp": "2025-06-07T16:35:39.891Z",
    "source_name": "google",
    "source_query": "Irrigation Equipment",
    "source_country": "IT",
    "country": "Italy",
    "state": "Emilia-Romagna",
    "city": "Santerno"
  },
  {
    "source_id": "ChIJFW3XPJejLBMRDpQWGwmYqU4",
    "name": "Raggini Irrigazioni e Robot Tosaerba",
    "category": "Raggini Irrigazioni e Robot Tosaerba",
    "formatted_address": "5,0(1)",
    "phone_number": "+393926808947",
    "source_url": "https://www.google.com/maps/place/Raggini+Irrigazioni+e+Robot+Tosaerba/data=!4m7!3m6!1s0x132ca3973cd76d15:0x4ea998091b16940e!8m2!3d44.36369!4d11.8460774!16s%2Fg%2F11dz0bbs9t!19sChIJFW3XPJejLBMRDpQWGwmYqU4?authuser=0&hl=tr&rclk=1",
    "website_url": "",
    "rating_text": "5,0",
    "stars": null,
    "number_of_reviews": null,
    "price_level": "",
    "open_hours": "",
    "extraction_timestamp": "2025-06-07T16:35:39.892Z",
    "source_name": "google",
    "source_query": "Irrigation Equipment",
    "source_country": "IT",
    "country": "Italy",
    "state": "Emilia-Romagna",
    "city": "Santerno"
  },
  {
    "source_id": "ChIJO2TxYOO7LBMR9i6dddSqR3k",
    "name": "Irri Sistemi Sas",
    "category": "Irri Sistemi Sas",
    "formatted_address": "Çim Yağmurlama Sistemi Yüklenicisi · Via Emilia Levante, 3510Kalıcı olarak kapalı · +39 0547 57457",
    "phone_number": "+39054757457",
    "source_url": "https://www.google.com/maps/place/Irri+Sistemi+Sas/data=!4m7!3m6!1s0x132cbbe360f1643b:0x7947aad4759d2ef6!8m2!3d44.1065391!4d12.3269107!16s%2Fg%2F1tfv7kgn!19sChIJO2TxYOO7LBMR9i6dddSqR3k?authuser=0&hl=tr&rclk=1",
    "website_url": "",
    "rating_text": "",
    "stars": null,
    "number_of_reviews": null,
    "price_level": "",
    "open_hours": "",
    "extraction_timestamp": "2025-06-07T16:35:39.893Z",
    "source_name": "google",
    "source_query": "Irrigation Equipment",
    "source_country": "IT",
    "country": "Italy",
    "state": "Emilia-Romagna",
    "city": "Santerno"
  }
]
