[
  {
    "source_id": "ChIJZV2MuLrGf0cR38J8u4MV8So",
    "name": "Impianto di compostaggio, digestione anaerobica e produzione Biometano",
    "category": "Impianto di compostaggio, digestione anaerobica e produzione Biometano",
    "formatted_address": "Impianto di compostaggio, digestione anaerobica e produzione Biometano",
    "phone_number": "+39800185075",
    "source_url": "https://www.google.com/maps/place/Impianto+di+compostaggio,+digestione+anaerobica+e+produzione+Biometano/data=!4m7!3m6!1s0x477fc6bab88c5d65:0x2af11583bb7cc2df!8m2!3d44.6860619!4d11.1722802!16s%2Fg%2F1tgjk40b!19sChIJZV2MuLrGf0cR38J8u4MV8So?authuser=0&hl=tr&rclk=1",
    "website_url": "http://ha.gruppohera.it/impianti/compostaggio/impianto_compostaggio_santagata_bolognese?utm_source=google&utm_medium=organic&utm_campaign=gmb_local",
    "rating_text": "4,2",
    "stars": null,
    "number_of_reviews": null,
    "price_level": "",
    "open_hours": "",
    "extraction_timestamp": "2025-06-07T16:26:20.662Z",
    "source_name": "google",
    "source_query": "Irrigation Equipment",
    "source_country": "IT",
    "country": "Italy",
    "state": "Emilia-Romagna",
    "city": "Sant'Agata Bolognese"
  },
  {
    "source_id": "ChIJqdtsqMTaf0cRFSqvzNBB5Tw",
    "name": "Ricchetti Irrigazione Snc Di Alberghini Paolo E C.",
    "category": "Ricchetti Irrigazione Snc Di Alberghini Paolo E C.",
    "formatted_address": "4,9(31)",
    "phone_number": "+39051950115",
    "source_url": "https://www.google.com/maps/place/Ricchetti+Irrigazione+Snc+Di+Alberghini+Paolo+E+C./data=!4m7!3m6!1s0x477fdac4a86cdba9:0x3ce541d0ccaf2a15!8m2!3d44.5883369!4d11.1803569!16s%2Fg%2F1vfn5hgh!19sChIJqdtsqMTaf0cRFSqvzNBB5Tw?authuser=0&hl=tr&rclk=1",
    "website_url": "http://www.ricchetti-irrigatori.it/",
    "rating_text": "4,9",
    "stars": null,
    "number_of_reviews": null,
    "price_level": "",
    "open_hours": "",
    "extraction_timestamp": "2025-06-07T16:26:20.664Z",
    "source_name": "google",
    "source_query": "Irrigation Equipment",
    "source_country": "IT",
    "country": "Italy",
    "state": "Emilia-Romagna",
    "city": "Sant'Agata Bolognese"
  },
  {
    "source_id": "ChIJv4pr74bDf0cRUDPlYAE_CHk",
    "name": "RAVVA GARDEN (Macchine da giardino)",
    "category": "RAVVA GARDEN (Macchine da giardino)",
    "formatted_address": "4,3(31)",
    "phone_number": "+39051956430",
    "source_url": "https://www.google.com/maps/place/RAVVA+GARDEN+%28Macchine+da+giardino%29/data=!4m7!3m6!1s0x477fc386ef6b8abf:0x79083f0160e53350!8m2!3d44.6484767!4d11.1407783!16s%2Fg%2F11gbfrcwff!19sChIJv4pr74bDf0cRUDPlYAE_CHk?authuser=0&hl=tr&rclk=1",
    "website_url": "http://www.ravvagarden.ir/",
    "rating_text": "4,3",
    "stars": null,
    "number_of_reviews": null,
    "price_level": "",
    "open_hours": "",
    "extraction_timestamp": "2025-06-07T16:26:20.666Z",
    "source_name": "google",
    "source_query": "Irrigation Equipment",
    "source_country": "IT",
    "country": "Italy",
    "state": "Emilia-Romagna",
    "city": "Sant'Agata Bolognese"
  },
  {
    "source_id": "ChIJE_3jOnMtfkcRkxtTFj3Ym9E",
    "name": "Irrigation Scarabelli Srl",
    "category": "Irrigation Scarabelli Srl",
    "formatted_address": "4,5(23)",
    "phone_number": "+39051763363",
    "source_url": "https://www.google.com/maps/place/Irrigation+Scarabelli+Srl/data=!4m7!3m6!1s0x477e2d733ae3fd13:0xd19bd83d16531b93!8m2!3d44.5426053!4d11.4189136!16s%2Fg%2F11gzdz6vf!19sChIJE_3jOnMtfkcRkxtTFj3Ym9E?authuser=0&hl=tr&rclk=1",
    "website_url": "",
    "rating_text": "4,5",
    "stars": null,
    "number_of_reviews": null,
    "price_level": "",
    "open_hours": "",
    "extraction_timestamp": "2025-06-07T16:26:20.667Z",
    "source_name": "google",
    "source_query": "Irrigation Equipment",
    "source_country": "IT",
    "country": "Italy",
    "state": "Emilia-Romagna",
    "city": "Sant'Agata Bolognese"
  },
  {
    "source_id": "ChIJ0XBCn5XDf0cRQLwts4At3ls",
    "name": "Si.ste.m. Srl",
    "category": "Si.ste.m. Srl",
    "formatted_address": "3,3(31)",
    "phone_number": "+39051956538",
    "source_url": "https://www.google.com/maps/place/Si.ste.m.+Srl/data=!4m7!3m6!1s0x477fc3959f4270d1:0x5bde2d80b32dbc40!8m2!3d44.6602875!4d11.1254792!16s%2Fg%2F1tdl9kpb!19sChIJ0XBCn5XDf0cRQLwts4At3ls?authuser=0&hl=tr&rclk=1",
    "website_url": "http://www.sistemspa.it/",
    "rating_text": "3,3",
    "stars": null,
    "number_of_reviews": null,
    "price_level": "",
    "open_hours": "",
    "extraction_timestamp": "2025-06-07T16:26:20.668Z",
    "source_name": "google",
    "source_query": "Irrigation Equipment",
    "source_country": "IT",
    "country": "Italy",
    "state": "Emilia-Romagna",
    "city": "Sant'Agata Bolognese"
  },
  {
    "source_id": "ChIJtZmKW-vDf0cRUbhjmUETp7w",
    "name": "Capponcelli Alberto Idrotermoimpianti snc",
    "category": "Capponcelli Alberto Idrotermoimpianti snc",
    "formatted_address": "4,6(36)",
    "phone_number": "+39051956821",
    "source_url": "https://www.google.com/maps/place/Capponcelli+Alberto+Idrotermoimpianti+snc/data=!4m7!3m6!1s0x477fc3eb5b8a99b5:0xbca713419963b851!8m2!3d44.6619265!4d11.1317722!16s%2Fg%2F1thcr5js!19sChIJtZmKW-vDf0cRUbhjmUETp7w?authuser=0&hl=tr&rclk=1",
    "website_url": "",
    "rating_text": "4,6",
    "stars": null,
    "number_of_reviews": null,
    "price_level": "",
    "open_hours": "",
    "extraction_timestamp": "2025-06-07T16:26:20.670Z",
    "source_name": "google",
    "source_query": "Irrigation Equipment",
    "source_country": "IT",
    "country": "Italy",
    "state": "Emilia-Romagna",
    "city": "Sant'Agata Bolognese"
  },
  {
    "source_id": "ChIJcQG6ul7df0cR3VxKiu5OPBs",
    "name": "Scova Impianti Srl",
    "category": "Scova Impianti Srl",
    "formatted_address": "4,5(64)",
    "phone_number": "+39059923202",
    "source_url": "https://www.google.com/maps/place/Scova+Impianti+Srl/data=!4m7!3m6!1s0x477fdd5ebaba0171:0x1b3c4eee8a4a5cdd!8m2!3d44.6018135!4d11.032294!16s%2Fg%2F1tfzwbfb!19sChIJcQG6ul7df0cR3VxKiu5OPBs?authuser=0&hl=tr&rclk=1",
    "website_url": "https://www.scovaimpianti.com/",
    "rating_text": "4,5",
    "stars": null,
    "number_of_reviews": null,
    "price_level": "",
    "open_hours": "",
    "extraction_timestamp": "2025-06-07T16:26:20.671Z",
    "source_name": "google",
    "source_query": "Irrigation Equipment",
    "source_country": "IT",
    "country": "Italy",
    "state": "Emilia-Romagna",
    "city": "Sant'Agata Bolognese"
  },
  {
    "source_id": "ChIJ_SYf2IMsfkcRVw9xVhrnjyI",
    "name": "Irrigazione Bragaglia",
    "category": "Irrigazione Bragaglia",
    "formatted_address": "4,7(30)",
    "phone_number": "+39051534865",
    "source_url": "https://www.google.com/maps/place/Irrigazione+Bragaglia/data=!4m7!3m6!1s0x477e2c83d81f26fd:0x228fe71a56710f57!8m2!3d44.5053735!4d11.412403!16s%2Fg%2F1vp6z0gf!19sChIJ_SYf2IMsfkcRVw9xVhrnjyI?authuser=0&hl=tr&rclk=1",
    "website_url": "http://www.irrigazionebragaglia.it/",
    "rating_text": "4,7",
    "stars": null,
    "number_of_reviews": null,
    "price_level": "",
    "open_hours": "",
    "extraction_timestamp": "2025-06-07T16:26:20.672Z",
    "source_name": "google",
    "source_query": "Irrigation Equipment",
    "source_country": "IT",
    "country": "Italy",
    "state": "Emilia-Romagna",
    "city": "Sant'Agata Bolognese"
  },
  {
    "source_id": "ChIJh3Nd8G0sfkcR_m7VewEmxXM",
    "name": "Irrigarden",
    "category": "Irrigarden",
    "formatted_address": "4,7(158)",
    "phone_number": "+39051782013",
    "source_url": "https://www.google.com/maps/place/Irrigarden/data=!4m7!3m6!1s0x477e2c6df05d7387:0x73c526017bd56efe!8m2!3d44.5096266!4d11.4390897!16s%2Fg%2F1vgw_l7w!19sChIJh3Nd8G0sfkcR_m7VewEmxXM?authuser=0&hl=tr&rclk=1",
    "website_url": "https://www.irrigarden-bo.it/",
    "rating_text": "4,7",
    "stars": null,
    "number_of_reviews": null,
    "price_level": "",
    "open_hours": "",
    "extraction_timestamp": "2025-06-07T16:26:20.674Z",
    "source_name": "google",
    "source_query": "Irrigation Equipment",
    "source_country": "IT",
    "country": "Italy",
    "state": "Emilia-Romagna",
    "city": "Sant'Agata Bolognese"
  },
  {
    "source_id": "ChIJJ6V6lMDgf0cR1SpFsfjDuHg",
    "name": "Ocmis Irrigazione Spa",
    "category": "Ocmis Irrigazione Spa",
    "formatted_address": "3,5(31)",
    "phone_number": "+39059702150",
    "source_url": "https://www.google.com/maps/place/Ocmis+Irrigazione+Spa/data=!4m7!3m6!1s0x477fe0c0947aa527:0x78b8c3f8b1452ad5!8m2!3d44.530494!4d10.9794578!16s%2Fg%2F1vd3tn19!19sChIJJ6V6lMDgf0cR1SpFsfjDuHg?authuser=0&hl=tr&rclk=1",
    "website_url": "http://www.ocmis-irrigazione.it/",
    "rating_text": "3,5",
    "stars": null,
    "number_of_reviews": null,
    "price_level": "",
    "open_hours": "",
    "extraction_timestamp": "2025-06-07T16:26:20.675Z",
    "source_name": "google",
    "source_query": "Irrigation Equipment",
    "source_country": "IT",
    "country": "Italy",
    "state": "Emilia-Romagna",
    "city": "Sant'Agata Bolognese"
  },
  {
    "source_id": "ChIJvaIlkZTDf0cRz4SizxjSCPs",
    "name": "Ferramenta Serra di Serra Antonio Federico",
    "category": "Ferramenta Serra di Serra Antonio Federico",
    "formatted_address": "4,3(29)",
    "phone_number": "+39051957031",
    "source_url": "https://www.google.com/maps/place/Ferramenta+Serra+di+Serra+Antonio+Federico/data=!4m7!3m6!1s0x477fc3949125a2bd:0xfb08d218cfa284cf!8m2!3d44.6606723!4d11.1304255!16s%2Fg%2F11b6jgwgc3!19sChIJvaIlkZTDf0cRz4SizxjSCPs?authuser=0&hl=tr&rclk=1",
    "website_url": "",
    "rating_text": "4,3",
    "stars": null,
    "number_of_reviews": null,
    "price_level": "",
    "open_hours": "",
    "extraction_timestamp": "2025-06-07T16:26:20.677Z",
    "source_name": "google",
    "source_query": "Irrigation Equipment",
    "source_country": "IT",
    "country": "Italy",
    "state": "Emilia-Romagna",
    "city": "Sant'Agata Bolognese"
  },
  {
    "source_id": "ChIJ4yLfjwTDf0cREwUk8ChaT3Y",
    "name": "Idroplus",
    "category": "Idroplus",
    "formatted_address": "Tesisatçı · Via Alcide De Gasperi, 4/FKapalı ⋅ Açılış zamanı: Pzt 08:00 · +39 351 067 5111",
    "phone_number": "+393510675111",
    "source_url": "https://www.google.com/maps/place/Idroplus/data=!4m7!3m6!1s0x477fc3048fdf22e3:0x764f5a28f0240513!8m2!3d44.6584522!4d11.1354596!16s%2Fg%2F11vy_wnmv0!19sChIJ4yLfjwTDf0cREwUk8ChaT3Y?authuser=0&hl=tr&rclk=1",
    "website_url": "",
    "rating_text": "",
    "stars": null,
    "number_of_reviews": null,
    "price_level": "",
    "open_hours": "",
    "extraction_timestamp": "2025-06-07T16:26:20.678Z",
    "source_name": "google",
    "source_query": "Irrigation Equipment",
    "source_country": "IT",
    "country": "Italy",
    "state": "Emilia-Romagna",
    "city": "Sant'Agata Bolognese"
  },
  {
    "source_id": "ChIJ9-XaUpXDf0cRaWMNgoUG6xw",
    "name": "G.& P. Elettromeccanica S.R.L.",
    "category": "G.& P. Elettromeccanica S.R.L.",
    "formatted_address": "Üretici ·  · Via Don Fortuzzi, 3+39 051 956203",
    "phone_number": "+39051956203",
    "source_url": "https://www.google.com/maps/place/G.%26+P.+Elettromeccanica+S.R.L./data=!4m7!3m6!1s0x477fc39552dae5f7:0x1ceb0685820d6369!8m2!3d44.6619573!4d11.1269645!16s%2Fg%2F1vljf5jt!19sChIJ9-XaUpXDf0cRaWMNgoUG6xw?authuser=0&hl=tr&rclk=1",
    "website_url": "https://www.gep-elettromeccanica.com/",
    "rating_text": "",
    "stars": null,
    "number_of_reviews": null,
    "price_level": "",
    "open_hours": "",
    "extraction_timestamp": "2025-06-07T16:26:20.679Z",
    "source_name": "google",
    "source_query": "Irrigation Equipment",
    "source_country": "IT",
    "country": "Italy",
    "state": "Emilia-Romagna",
    "city": "Sant'Agata Bolognese"
  }
]
