[
  {
    "source_id": "ChIJa30wiigXgEcRs_I6dZm5x4o",
    "name": "Interpump Group S.p.A.",
    "category": "Interpump Group S.p.A.",
    "formatted_address": "4,0(13)",
    "phone_number": "+390522904311",
    "source_url": "https://www.google.com/maps/place/Interpump+Group+S.p.A./data=!4m7!3m6!1s0x478017288a307d6b:0x8ac7b999753af2b3!8m2!3d44.7510122!4d10.4807515!16s%2Fg%2F1v6l6bq9!19sChIJa30wiigXgEcRs_I6dZm5x4o?authuser=0&hl=tr&rclk=1",
    "website_url": "http://www.interpumpgroup.it/",
    "rating_text": "4,0",
    "stars": null,
    "number_of_reviews": null,
    "price_level": "",
    "open_hours": "",
    "extraction_timestamp": "2025-06-07T17:03:20.813Z",
    "source_name": "google",
    "source_query": "Irrigation Equipment",
    "source_country": "IT",
    "country": "Italy",
    "state": "Emilia-Romagna",
    "city": "Sant'Ilario d'Enza"
  },
  {
    "source_id": "ChIJ_7shEbwWgEcRRavcnHeRmCE",
    "name": "FERRAMENTA MORI snc. di Mori Romolo & Paolo S.N.C.",
    "category": "FERRAMENTA MORI snc. di Mori Romolo & Paolo S.N.C.",
    "formatted_address": "4,7(91)",
    "phone_number": "+390522672016",
    "source_url": "https://www.google.com/maps/place/FERRAMENTA+MORI+snc.+di+Mori+Romolo+%26+Paolo+S.N.C./data=!4m7!3m6!1s0x478016bc1121bbff:0x219891779cdcab45!8m2!3d44.7600373!4d10.4506215!16s%2Fg%2F1w15y8r0!19sChIJ_7shEbwWgEcRRavcnHeRmCE?authuser=0&hl=tr&rclk=1",
    "website_url": "",
    "rating_text": "4,7",
    "stars": null,
    "number_of_reviews": null,
    "price_level": "",
    "open_hours": "",
    "extraction_timestamp": "2025-06-07T17:03:20.815Z",
    "source_name": "google",
    "source_query": "Irrigation Equipment",
    "source_country": "IT",
    "country": "Italy",
    "state": "Emilia-Romagna",
    "city": "Sant'Ilario d'Enza"
  },
  {
    "source_id": "ChIJz6j-WtgWgEcRrwEFmbWV-I0",
    "name": "Tirelli e Salvatori Snc",
    "category": "Tirelli e Salvatori Snc",
    "formatted_address": "4,3(11)",
    "phone_number": "+390522909714",
    "source_url": "https://www.google.com/maps/place/Tirelli+e+Salvatori+Snc/data=!4m7!3m6!1s0x478016d85afea8cf:0x8df895b5990501af!8m2!3d44.7542577!4d10.4764664!16s%2Fg%2F1tx146t2!19sChIJz6j-WtgWgEcRrwEFmbWV-I0?authuser=0&hl=tr&rclk=1",
    "website_url": "https://www.tirelliesalvatori.com/",
    "rating_text": "4,3",
    "stars": null,
    "number_of_reviews": null,
    "price_level": "",
    "open_hours": "",
    "extraction_timestamp": "2025-06-07T17:03:20.816Z",
    "source_name": "google",
    "source_query": "Irrigation Equipment",
    "source_country": "IT",
    "country": "Italy",
    "state": "Emilia-Romagna",
    "city": "Sant'Ilario d'Enza"
  },
  {
    "source_id": "ChIJPU3Kg54XgEcRRH9cIT6-ZQ8",
    "name": "Sae Tecnology S.R.L. Soluzioni Trattamento Acque",
    "category": "Sae Tecnology S.R.L. Soluzioni Trattamento Acque",
    "formatted_address": "4,9(173)",
    "phone_number": "+390522676796",
    "source_url": "https://www.google.com/maps/place/Sae+Tecnology+S.R.L.+Soluzioni+Trattamento+Acque/data=!4m7!3m6!1s0x4780179e83ca4d3d:0xf65be3e215c7f44!8m2!3d44.775246!4d10.5151594!16s%2Fg%2F11b6hy9gf1!19sChIJPU3Kg54XgEcRRH9cIT6-ZQ8?authuser=0&hl=tr&rclk=1",
    "website_url": "https://www.saedepuratori.it/",
    "rating_text": "4,9",
    "stars": null,
    "number_of_reviews": null,
    "price_level": "",
    "open_hours": "",
    "extraction_timestamp": "2025-06-07T17:03:20.818Z",
    "source_name": "google",
    "source_query": "Irrigation Equipment",
    "source_country": "IT",
    "country": "Italy",
    "state": "Emilia-Romagna",
    "city": "Sant'Ilario d'Enza"
  },
  {
    "source_id": "ChIJtVDkNgRFgEcRqc6umwWIJuI",
    "name": "Rm Spa",
    "category": "Rm Spa",
    "formatted_address": "4,6(81)",
    "phone_number": "+390521872321",
    "source_url": "https://www.google.com/maps/place/Rm+Spa/data=!4m7!3m6!1s0x4780450436e450b5:0xe22688059baecea9!8m2!3d44.9105406!4d10.2583785!16s%2Fg%2F12hl93byl!19sChIJtVDkNgRFgEcRqc6umwWIJuI?authuser=0&hl=tr&rclk=1",
    "website_url": "http://www.rmirrigation.com/",
    "rating_text": "4,6",
    "stars": null,
    "number_of_reviews": null,
    "price_level": "",
    "open_hours": "",
    "extraction_timestamp": "2025-06-07T17:03:20.820Z",
    "source_name": "google",
    "source_query": "Irrigation Equipment",
    "source_country": "IT",
    "country": "Italy",
    "state": "Emilia-Romagna",
    "city": "Sant'Ilario d'Enza"
  },
  {
    "source_id": "ChIJcQG6ul7df0cR3VxKiu5OPBs",
    "name": "Scova Impianti Srl",
    "category": "Scova Impianti Srl",
    "formatted_address": "4,5(64)",
    "phone_number": "+39059923202",
    "source_url": "https://www.google.com/maps/place/Scova+Impianti+Srl/data=!4m7!3m6!1s0x477fdd5ebaba0171:0x1b3c4eee8a4a5cdd!8m2!3d44.6018135!4d11.032294!16s%2Fg%2F1tfzwbfb!19sChIJcQG6ul7df0cR3VxKiu5OPBs?authuser=0&hl=tr&rclk=1",
    "website_url": "https://www.scovaimpianti.com/",
    "rating_text": "4,5",
    "stars": null,
    "number_of_reviews": null,
    "price_level": "",
    "open_hours": "",
    "extraction_timestamp": "2025-06-07T17:03:20.822Z",
    "source_name": "google",
    "source_query": "Irrigation Equipment",
    "source_country": "IT",
    "country": "Italy",
    "state": "Emilia-Romagna",
    "city": "Sant'Ilario d'Enza"
  },
  {
    "source_id": "ChIJ8S_H450fgEcRen1BwvkupIc",
    "name": "Agro-system Snc di Bassoli - Piscine e Macchine giardino - Reggio Emilia",
    "category": "Agro-system Snc di Bassoli - Piscine e Macchine giardino - Reggio Emilia",
    "formatted_address": "4,6(88)",
    "phone_number": "+390522954100",
    "source_url": "https://www.google.com/maps/place/Agro-system+Snc+di+Bassoli+-+Piscine+e+Macchine+giardino+-+Reggio+Emilia/data=!4m7!3m6!1s0x47801f9de3c72ff1:0x87a42ef9c2417d7a!8m2!3d44.797091!4d10.686568!16s%2Fg%2F1tfb5f45!19sChIJ8S_H450fgEcRen1BwvkupIc?authuser=0&hl=tr&rclk=1",
    "website_url": "https://agrosystem.info/",
    "rating_text": "4,6",
    "stars": null,
    "number_of_reviews": null,
    "price_level": "",
    "open_hours": "",
    "extraction_timestamp": "2025-06-07T17:03:20.823Z",
    "source_name": "google",
    "source_query": "Irrigation Equipment",
    "source_country": "IT",
    "country": "Italy",
    "state": "Emilia-Romagna",
    "city": "Sant'Ilario d'Enza"
  },
  {
    "source_id": "ChIJgzG6QyUXgEcR7Cw-Iyz8bno",
    "name": "S.e.i. Elettrotecnica - Impianto Fotovoltaici, Accumulo ed energie rinnovabili",
    "category": "S.e.i. Elettrotecnica - Impianto Fotovoltaici, Accumulo ed energie rinnovabili",
    "formatted_address": "S.e.i. Elettrotecnica - Impianto Fotovoltaici, Accumulo ed energie rinnovabili",
    "phone_number": "+390522679448",
    "source_url": "https://www.google.com/maps/place/S.e.i.+Elettrotecnica+-+Impianto+Fotovoltaici,+Accumulo+ed+energie+rinnovabili/data=!4m7!3m6!1s0x4780172543ba3183:0x7a6efc2c233e2cec!8m2!3d44.7518785!4d10.4882528!16s%2Fg%2F1tdfxkpd!19sChIJgzG6QyUXgEcR7Cw-Iyz8bno?authuser=0&hl=tr&rclk=1",
    "website_url": "https://www.domotrick-fotovoltaico.it/",
    "rating_text": "5,0",
    "stars": null,
    "number_of_reviews": null,
    "price_level": "",
    "open_hours": "",
    "extraction_timestamp": "2025-06-07T17:03:20.825Z",
    "source_name": "google",
    "source_query": "Irrigation Equipment",
    "source_country": "IT",
    "country": "Italy",
    "state": "Emilia-Romagna",
    "city": "Sant'Ilario d'Enza"
  },
  {
    "source_id": "ChIJR0cLXhQkgEcRi9oI9GALzlg",
    "name": "IRRILAND",
    "category": "IRRILAND",
    "formatted_address": "4,0(4)",
    "phone_number": "+390522831544",
    "source_url": "https://www.google.com/maps/place/IRRILAND/data=!4m7!3m6!1s0x478024145e0b4747:0x58ce0b60f408da8b!8m2!3d44.891987!4d10.650983!16s%2Fg%2F1tczjb0h!19sChIJR0cLXhQkgEcRi9oI9GALzlg?authuser=0&hl=tr&rclk=1",
    "website_url": "http://www.irriland.it/",
    "rating_text": "4,0",
    "stars": null,
    "number_of_reviews": null,
    "price_level": "",
    "open_hours": "",
    "extraction_timestamp": "2025-06-07T17:03:20.826Z",
    "source_name": "google",
    "source_query": "Irrigation Equipment",
    "source_country": "IT",
    "country": "Italy",
    "state": "Emilia-Romagna",
    "city": "Sant'Ilario d'Enza"
  },
  {
    "source_id": "ChIJ_W-P5CMUgEcRJ5jgTD-CwwU",
    "name": "Ferramenta Utensileria di Lusetti Pietro Snc",
    "category": "Ferramenta Utensileria di Lusetti Pietro Snc",
    "formatted_address": "4,9(55)",
    "phone_number": "+390522672625",
    "source_url": "https://www.google.com/maps/place/Ferramenta+Utensileria+di+Lusetti+Pietro+Snc/data=!4m7!3m6!1s0x47801423e48f6ffd:0x5c3823f4ce09827!8m2!3d44.7682147!4d10.4328142!16s%2Fg%2F1tdnjzl9!19sChIJ_W-P5CMUgEcRJ5jgTD-CwwU?authuser=0&hl=tr&rclk=1",
    "website_url": "",
    "rating_text": "4,9",
    "stars": null,
    "number_of_reviews": null,
    "price_level": "",
    "open_hours": "",
    "extraction_timestamp": "2025-06-07T17:03:20.828Z",
    "source_name": "google",
    "source_query": "Irrigation Equipment",
    "source_country": "IT",
    "country": "Italy",
    "state": "Emilia-Romagna",
    "city": "Sant'Ilario d'Enza"
  }
]
