[
  {
    "source_id": "ChIJE_3jOnMtfkcRkxtTFj3Ym9E",
    "name": "Irrigation Scarabelli Srl",
    "category": "Irrigation Scarabelli Srl",
    "formatted_address": "4,5(23)",
    "phone_number": "+39051763363",
    "source_url": "https://www.google.com/maps/place/Irrigation+Scarabelli+Srl/data=!4m7!3m6!1s0x477e2d733ae3fd13:0xd19bd83d16531b93!8m2!3d44.5426053!4d11.4189136!16s%2Fg%2F11gzdz6vf!19sChIJE_3jOnMtfkcRkxtTFj3Ym9E?authuser=0&hl=tr&rclk=1",
    "website_url": "",
    "rating_text": "4,5",
    "stars": null,
    "number_of_reviews": null,
    "price_level": "",
    "open_hours": "",
    "extraction_timestamp": "2025-06-07T15:51:05.896Z",
    "source_name": "google",
    "source_query": "Irrigation Equipment",
    "source_country": "IT",
    "country": "Italy",
    "state": "Emilia-Romagna",
    "city": "Sasso Marconi"
  },
  {
    "source_id": "ChIJFWY7zojTKhMRLPFAYKZbKhE",
    "name": "Agraria C.a.S.P. Valle Del Brasimone",
    "category": "Agraria C.a.S.P. Valle Del Brasimone",
    "formatted_address": "4,4(185)",
    "phone_number": "+39051841224",
    "source_url": "https://www.google.com/maps/place/Agraria+C.a.S.P.+Valle+Del+Brasimone/data=!4m7!3m6!1s0x132ad388ce3b6615:0x112a5ba66040f12c!8m2!3d44.3986715!4d11.2580912!16s%2Fg%2F1v70ys2b!19sChIJFWY7zojTKhMRLPFAYKZbKhE?authuser=0&hl=tr&rclk=1",
    "website_url": "",
    "rating_text": "4,4",
    "stars": null,
    "number_of_reviews": null,
    "price_level": "",
    "open_hours": "",
    "extraction_timestamp": "2025-06-07T15:51:05.897Z",
    "source_name": "google",
    "source_query": "Irrigation Equipment",
    "source_country": "IT",
    "country": "Italy",
    "state": "Emilia-Romagna",
    "city": "Sasso Marconi"
  },
  {
    "source_id": "ChIJZ__qln_UKhMR1Bvz-Rkj2vg",
    "name": "3Emme Dei F.lli Venturi snc",
    "category": "3Emme Dei F.lli Venturi snc",
    "formatted_address": "4,3(18)",
    "phone_number": "+39051840337",
    "source_url": "https://www.google.com/maps/place/3Emme+Dei+F.lli+Venturi+snc/data=!4m7!3m6!1s0x132ad47f96eaff67:0xf8da2319f9f31bd4!8m2!3d44.398986!4d11.257121!16s%2Fg%2F1ptw5pp5h!19sChIJZ__qln_UKhMR1Bvz-Rkj2vg?authuser=0&hl=tr&rclk=1",
    "website_url": "",
    "rating_text": "4,3",
    "stars": null,
    "number_of_reviews": null,
    "price_level": "",
    "open_hours": "",
    "extraction_timestamp": "2025-06-07T15:51:05.898Z",
    "source_name": "google",
    "source_query": "Irrigation Equipment",
    "source_country": "IT",
    "country": "Italy",
    "state": "Emilia-Romagna",
    "city": "Sasso Marconi"
  },
  {
    "source_id": "ChIJ_SYf2IMsfkcRVw9xVhrnjyI",
    "name": "Irrigazione Bragaglia",
    "category": "Irrigazione Bragaglia",
    "formatted_address": "4,7(30)",
    "phone_number": "+39051534865",
    "source_url": "https://www.google.com/maps/place/Irrigazione+Bragaglia/data=!4m7!3m6!1s0x477e2c83d81f26fd:0x228fe71a56710f57!8m2!3d44.5053735!4d11.412403!16s%2Fg%2F1vp6z0gf!19sChIJ_SYf2IMsfkcRVw9xVhrnjyI?authuser=0&hl=tr&rclk=1",
    "website_url": "",
    "rating_text": "4,7",
    "stars": null,
    "number_of_reviews": null,
    "price_level": "",
    "open_hours": "",
    "extraction_timestamp": "2025-06-07T15:51:05.900Z",
    "source_name": "google",
    "source_query": "Irrigation Equipment",
    "source_country": "IT",
    "country": "Italy",
    "state": "Emilia-Romagna",
    "city": "Sasso Marconi"
  },
  {
    "source_id": "ChIJh3Nd8G0sfkcR_m7VewEmxXM",
    "name": "Irrigarden",
    "category": "Irrigarden",
    "formatted_address": "4,7(158)",
    "phone_number": "+39051782013",
    "source_url": "https://www.google.com/maps/place/Irrigarden/data=!4m7!3m6!1s0x477e2c6df05d7387:0x73c526017bd56efe!8m2!3d44.5096266!4d11.4390897!16s%2Fg%2F1vgw_l7w!19sChIJh3Nd8G0sfkcR_m7VewEmxXM?authuser=0&hl=tr&rclk=1",
    "website_url": "",
    "rating_text": "4,7",
    "stars": null,
    "number_of_reviews": null,
    "price_level": "",
    "open_hours": "",
    "extraction_timestamp": "2025-06-07T15:51:05.901Z",
    "source_name": "google",
    "source_query": "Irrigation Equipment",
    "source_country": "IT",
    "country": "Italy",
    "state": "Emilia-Romagna",
    "city": "Sasso Marconi"
  },
  {
    "source_id": "ChIJu_5IbnnTKhMRrG_uhO1gnAQ",
    "name": "Tecno Ferramenta 3000 di Matteo Carli",
    "category": "Tecno Ferramenta 3000 di Matteo Carli",
    "formatted_address": "4,9(47)",
    "phone_number": "+393703534693",
    "source_url": "https://www.google.com/maps/place/Tecno+Ferramenta+3000+di+Matteo+Carli/data=!4m7!3m6!1s0x132ad3796e48febb:0x49c60ed84ee6fac!8m2!3d44.3949723!4d11.2462909!16s%2Fg%2F11lc_vtq3f!19sChIJu_5IbnnTKhMRrG_uhO1gnAQ?authuser=0&hl=tr&rclk=1",
    "website_url": "",
    "rating_text": "4,9",
    "stars": null,
    "number_of_reviews": null,
    "price_level": "",
    "open_hours": "",
    "extraction_timestamp": "2025-06-07T15:51:05.903Z",
    "source_name": "google",
    "source_query": "Irrigation Equipment",
    "source_country": "IT",
    "country": "Italy",
    "state": "Emilia-Romagna",
    "city": "Sasso Marconi"
  },
  {
    "source_id": "ChIJcQG6ul7df0cR3VxKiu5OPBs",
    "name": "Scova Impianti Srl",
    "category": "Scova Impianti Srl",
    "formatted_address": "4,5(64)",
    "phone_number": "+39059923202",
    "source_url": "https://www.google.com/maps/place/Scova+Impianti+Srl/data=!4m7!3m6!1s0x477fdd5ebaba0171:0x1b3c4eee8a4a5cdd!8m2!3d44.6018135!4d11.032294!16s%2Fg%2F1tfzwbfb!19sChIJcQG6ul7df0cR3VxKiu5OPBs?authuser=0&hl=tr&rclk=1",
    "website_url": "",
    "rating_text": "4,5",
    "stars": null,
    "number_of_reviews": null,
    "price_level": "",
    "open_hours": "",
    "extraction_timestamp": "2025-06-07T15:51:05.904Z",
    "source_name": "google",
    "source_query": "Irrigation Equipment",
    "source_country": "IT",
    "country": "Italy",
    "state": "Emilia-Romagna",
    "city": "Sasso Marconi"
  },
  {
    "source_id": "ChIJ3QcPGYfTKhMRdcsrRo3JjFY",
    "name": "Bonfiglioli Andrea",
    "category": "Bonfiglioli Andrea",
    "formatted_address": "4,4(7)",
    "phone_number": "+390516751382",
    "source_url": "https://www.google.com/maps/place/Bonfiglioli+Andrea/data=!4m7!3m6!1s0x132ad387190f07dd:0x568cc98d462bcb75!8m2!3d44.4009216!4d11.2502622!16s%2Fg%2F1hc4nnxlx!19sChIJ3QcPGYfTKhMRdcsrRo3JjFY?authuser=0&hl=tr&rclk=1",
    "website_url": "",
    "rating_text": "4,4",
    "stars": null,
    "number_of_reviews": null,
    "price_level": "",
    "open_hours": "",
    "extraction_timestamp": "2025-06-07T15:51:05.905Z",
    "source_name": "google",
    "source_query": "Irrigation Equipment",
    "source_country": "IT",
    "country": "Italy",
    "state": "Emilia-Romagna",
    "city": "Sasso Marconi"
  },
  {
    "source_id": "ChIJyXgg68QrfkcRAaJCOMJ3PxY",
    "name": "hidrisistem",
    "category": "hidrisistem",
    "formatted_address": "5,0(1)",
    "phone_number": "+39366448310824",
    "source_url": "https://www.google.com/maps/place/hidrisistem/data=!4m7!3m6!1s0x477e2bc4eb2078c9:0x163f77c23842a201!8m2!3d44.496029!4d11.402638!16s%2Fg%2F11w_zjhjy3!19sChIJyXgg68QrfkcRAaJCOMJ3PxY?authuser=0&hl=tr&rclk=1",
    "website_url": "",
    "rating_text": "5,0",
    "stars": null,
    "number_of_reviews": null,
    "price_level": "",
    "open_hours": "",
    "extraction_timestamp": "2025-06-07T15:51:05.906Z",
    "source_name": "google",
    "source_query": "Irrigation Equipment",
    "source_country": "IT",
    "country": "Italy",
    "state": "Emilia-Romagna",
    "city": "Sasso Marconi"
  },
  {
    "source_id": "ChIJj6lqi20sfkcRzOHfxextuA0",
    "name": "La Pioggia",
    "category": "La Pioggia",
    "formatted_address": "4,6(54)",
    "phone_number": "+39051781194",
    "source_url": "https://www.google.com/maps/place/La+Pioggia/data=!4m7!3m6!1s0x477e2c6d8b6aa98f:0xdb86decc5dfe1cc!8m2!3d44.5092215!4d11.4394615!16s%2Fg%2F1tffc0h0!19sChIJj6lqi20sfkcRzOHfxextuA0?authuser=0&hl=tr&rclk=1",
    "website_url": "",
    "rating_text": "4,6",
    "stars": null,
    "number_of_reviews": null,
    "price_level": "",
    "open_hours": "",
    "extraction_timestamp": "2025-06-07T15:51:05.907Z",
    "source_name": "google",
    "source_query": "Irrigation Equipment",
    "source_country": "IT",
    "country": "Italy",
    "state": "Emilia-Romagna",
    "city": "Sasso Marconi"
  },
  {
    "source_id": "ChIJcVMs8obTKhMRoBmWcOJttEI",
    "name": "Ferramenta Cosmos – Apriporta 24 ore",
    "category": "Ferramenta Cosmos – Apriporta 24 ore",
    "formatted_address": "4,5(62)",
    "phone_number": "+390516751218",
    "source_url": "https://www.google.com/maps/place/Ferramenta+Cosmos+%E2%80%93+Apriporta+24+ore/data=!4m7!3m6!1s0x132ad386f22c5371:0x42b46de2709619a0!8m2!3d44.4004528!4d11.2493941!16s%2Fg%2F12hn88k8p!19sChIJcVMs8obTKhMRoBmWcOJttEI?authuser=0&hl=tr&rclk=1",
    "website_url": "",
    "rating_text": "4,5",
    "stars": null,
    "number_of_reviews": null,
    "price_level": "",
    "open_hours": "",
    "extraction_timestamp": "2025-06-07T15:51:05.909Z",
    "source_name": "google",
    "source_query": "Irrigation Equipment",
    "source_country": "IT",
    "country": "Italy",
    "state": "Emilia-Romagna",
    "city": "Sasso Marconi"
  },
  {
    "source_id": "ChIJlQcN_o3Wf0cRpqdNYRv-TRE",
    "name": "Nuova Lippi A. e Manferdini G. Srl",
    "category": "Nuova Lippi A. e Manferdini G. Srl",
    "formatted_address": "4,1(60)",
    "phone_number": "+39051402122",
    "source_url": "https://www.google.com/maps/place/Nuova+Lippi+A.+e+Manferdini+G.+Srl/data=!4m7!3m6!1s0x477fd68dfe0d0795:0x114dfe1b614da7a6!8m2!3d44.4907041!4d11.2524802!16s%2Fg%2F1v1tlyh0!19sChIJlQcN_o3Wf0cRpqdNYRv-TRE?authuser=0&hl=tr&rclk=1",
    "website_url": "",
    "rating_text": "4,1",
    "stars": null,
    "number_of_reviews": null,
    "price_level": "",
    "open_hours": "",
    "extraction_timestamp": "2025-06-07T15:51:05.910Z",
    "source_name": "google",
    "source_query": "Irrigation Equipment",
    "source_country": "IT",
    "country": "Italy",
    "state": "Emilia-Romagna",
    "city": "Sasso Marconi"
  },
  {
    "source_id": "ChIJJ6V6lMDgf0cR1SpFsfjDuHg",
    "name": "Ocmis Irrigazione Spa",
    "category": "Ocmis Irrigazione Spa",
    "formatted_address": "3,5(31)",
    "phone_number": "+39059702150",
    "source_url": "https://www.google.com/maps/place/Ocmis+Irrigazione+Spa/data=!4m7!3m6!1s0x477fe0c0947aa527:0x78b8c3f8b1452ad5!8m2!3d44.530494!4d10.9794578!16s%2Fg%2F1vd3tn19!19sChIJJ6V6lMDgf0cR1SpFsfjDuHg?authuser=0&hl=tr&rclk=1",
    "website_url": "",
    "rating_text": "3,5",
    "stars": null,
    "number_of_reviews": null,
    "price_level": "",
    "open_hours": "",
    "extraction_timestamp": "2025-06-07T15:51:05.911Z",
    "source_name": "google",
    "source_query": "Irrigation Equipment",
    "source_country": "IT",
    "country": "Italy",
    "state": "Emilia-Romagna",
    "city": "Sasso Marconi"
  },
  {
    "source_id": "ChIJCXuseTHTf0cRzptQ0pGelFU",
    "name": "Alpe Hydraulic Systems Water Meters",
    "category": "Alpe Hydraulic Systems Water Meters",
    "formatted_address": "Su Hizmeti Sağlayıcısı · Via del Gomito, 23+39 051 326854",
    "phone_number": "+39051326854",
    "source_url": "https://www.google.com/maps/place/Alpe+Hydraulic+Systems+Water+Meters/data=!4m7!3m6!1s0x477fd33179ac7b09:0x55949e91d2509bce!8m2!3d44.531701!4d11.3753288!16s%2Fg%2F1tjt0slq!19sChIJCXuseTHTf0cRzptQ0pGelFU?authuser=0&hl=tr&rclk=1",
    "website_url": "",
    "rating_text": "",
    "stars": null,
    "number_of_reviews": null,
    "price_level": "",
    "open_hours": "",
    "extraction_timestamp": "2025-06-07T15:51:05.912Z",
    "source_name": "google",
    "source_query": "Irrigation Equipment",
    "source_country": "IT",
    "country": "Italy",
    "state": "Emilia-Romagna",
    "city": "Sasso Marconi"
  },
  {
    "source_id": "ChIJbyCNIofTKhMRnWQlF7Lo_fQ",
    "name": "Caddy's",
    "category": "Caddy's",
    "formatted_address": "4,4(280)",
    "phone_number": "+39051842106",
    "source_url": "https://www.google.com/maps/place/Caddy%27s/data=!4m7!3m6!1s0x132ad387228d206f:0xf4fde8b21725649d!8m2!3d44.4014091!4d11.2499227!16s%2Fg%2F1ptxczz4z!19sChIJbyCNIofTKhMRnWQlF7Lo_fQ?authuser=0&hl=tr&rclk=1",
    "website_url": "",
    "rating_text": "4,4",
    "stars": null,
    "number_of_reviews": null,
    "price_level": "",
    "open_hours": "",
    "extraction_timestamp": "2025-06-07T15:51:05.913Z",
    "source_name": "google",
    "source_query": "Irrigation Equipment",
    "source_country": "IT",
    "country": "Italy",
    "state": "Emilia-Romagna",
    "city": "Sasso Marconi"
  },
  {
    "source_id": "ChIJ5UUE26nVKhMRlz6w1Bn2VGU",
    "name": "VG termoidraulica",
    "category": "VG termoidraulica",
    "formatted_address": "Su Tesisatı Malzemeleri Satıcısı ·  · Via Porrettana, 137+39 333 762 0963",
    "phone_number": "+393337620963",
    "source_url": "https://www.google.com/maps/place/VG+termoidraulica/data=!4m7!3m6!1s0x132ad5a9db0445e5:0x6554f619d4b03e97!8m2!3d44.4290514!4d11.269517!16s%2Fg%2F11syz755xc!19sChIJ5UUE26nVKhMRlz6w1Bn2VGU?authuser=0&hl=tr&rclk=1",
    "website_url": "",
    "rating_text": "",
    "stars": null,
    "number_of_reviews": null,
    "price_level": "",
    "open_hours": "",
    "extraction_timestamp": "2025-06-07T15:51:05.913Z",
    "source_name": "google",
    "source_query": "Irrigation Equipment",
    "source_country": "IT",
    "country": "Italy",
    "state": "Emilia-Romagna",
    "city": "Sasso Marconi"
  },
  {
    "source_id": "ChIJyQTfcYDTKhMRCzJ4kD_l0JQ",
    "name": "Discount ECU",
    "category": "Discount ECU",
    "formatted_address": "4,1(334)",
    "phone_number": "+3905118893373",
    "source_url": "https://www.google.com/maps/place/Discount+ECU/data=!4m7!3m6!1s0x132ad38071df04c9:0x94d0e53f9078320b!8m2!3d44.4049818!4d11.2517123!16s%2Fg%2F1pp2x8h44!19sChIJyQTfcYDTKhMRCzJ4kD_l0JQ?authuser=0&hl=tr&rclk=1",
    "website_url": "",
    "rating_text": "4,1",
    "stars": null,
    "number_of_reviews": null,
    "price_level": "",
    "open_hours": "",
    "extraction_timestamp": "2025-06-07T15:51:05.914Z",
    "source_name": "google",
    "source_query": "Irrigation Equipment",
    "source_country": "IT",
    "country": "Italy",
    "state": "Emilia-Romagna",
    "city": "Sasso Marconi"
  },
  {
    "source_id": "ChIJSSMzGN4pfkcRxNrEMhpqts8",
    "name": "Hydro Ware srl",
    "category": "Hydro Ware srl",
    "formatted_address": "4,5(2)",
    "phone_number": "+390510404329",
    "source_url": "https://www.google.com/maps/place/Hydro+Ware+srl/data=!4m7!3m6!1s0x477e29de18332349:0xcfb66a1a32c4dac4!8m2!3d44.4442053!4d11.4850842!16s%2Fg%2F11h55y8w7d!19sChIJSSMzGN4pfkcRxNrEMhpqts8?authuser=0&hl=tr&rclk=1",
    "website_url": "",
    "rating_text": "4,5",
    "stars": null,
    "number_of_reviews": null,
    "price_level": "",
    "open_hours": "",
    "extraction_timestamp": "2025-06-07T15:51:05.915Z",
    "source_name": "google",
    "source_query": "Irrigation Equipment",
    "source_country": "IT",
    "country": "Italy",
    "state": "Emilia-Romagna",
    "city": "Sasso Marconi"
  },
  {
    "source_id": "ChIJIbzEcIzTKhMRm3_WE4w9npw",
    "name": "Il mondo degli Animali S.R.L",
    "category": "Il mondo degli Animali S.R.L",
    "formatted_address": "4,6(291)",
    "phone_number": "+390510472775",
    "source_url": "https://www.google.com/maps/place/Il+mondo+degli+Animali+S.R.L/data=!4m7!3m6!1s0x132ad38c70c4bc21:0x9c9e3d8c13d67f9b!8m2!3d44.3916494!4d11.246548!16s%2Fg%2F12hknt0_j!19sChIJIbzEcIzTKhMRm3_WE4w9npw?authuser=0&hl=tr&rclk=1",
    "website_url": "",
    "rating_text": "4,6",
    "stars": null,
    "number_of_reviews": null,
    "price_level": "",
    "open_hours": "",
    "extraction_timestamp": "2025-06-07T15:51:05.916Z",
    "source_name": "google",
    "source_query": "Irrigation Equipment",
    "source_country": "IT",
    "country": "Italy",
    "state": "Emilia-Romagna",
    "city": "Sasso Marconi"
  },
  {
    "source_id": "ChIJfSe-hX_UKhMRO4KQZg_AAh8",
    "name": "Lob S.n.c.",
    "category": "Lob S.n.c.",
    "formatted_address": "4,7(20)",
    "phone_number": "+393395479324",
    "source_url": "https://www.google.com/maps/place/Lob+S.n.c./data=!4m7!3m6!1s0x132ad47f85be277d:0x1f02c00f6690823b!8m2!3d44.4047143!4d11.2536445!16s%2Fg%2F1hc3bqfml!19sChIJfSe-hX_UKhMRO4KQZg_AAh8?authuser=0&hl=tr&rclk=1",
    "website_url": "",
    "rating_text": "4,7",
    "stars": null,
    "number_of_reviews": null,
    "price_level": "",
    "open_hours": "",
    "extraction_timestamp": "2025-06-07T15:51:05.917Z",
    "source_name": "google",
    "source_query": "Irrigation Equipment",
    "source_country": "IT",
    "country": "Italy",
    "state": "Emilia-Romagna",
    "city": "Sasso Marconi"
  },
  {
    "source_id": "ChIJgVjbdx7df0cRsMjOLRKEzBA",
    "name": "Geocentro",
    "category": "Geocentro",
    "formatted_address": "4,4(87)",
    "phone_number": "+39059926168",
    "source_url": "https://www.google.com/maps/place/Geocentro/data=!4m7!3m6!1s0x477fdd1e77db5881:0x10cc84122dcec8b0!8m2!3d44.5868616!4d11.070717!16s%2Fg%2F11cn3ph0_q!19sChIJgVjbdx7df0cRsMjOLRKEzBA?authuser=0&hl=tr&rclk=1",
    "website_url": "",
    "rating_text": "4,4",
    "stars": null,
    "number_of_reviews": null,
    "price_level": "",
    "open_hours": "",
    "extraction_timestamp": "2025-06-07T15:51:05.918Z",
    "source_name": "google",
    "source_query": "Irrigation Equipment",
    "source_country": "IT",
    "country": "Italy",
    "state": "Emilia-Romagna",
    "city": "Sasso Marconi"
  },
  {
    "source_id": "ChIJNdCjJsDXf0cRe9_Flg_YOc8",
    "name": "Centro G.E.A. - Giardinaggio Edilizia Agricoltura",
    "category": "Centro G.E.A. - Giardinaggio Edilizia Agricoltura",
    "formatted_address": "4,7(45)",
    "phone_number": "+390514855139",
    "source_url": "https://www.google.com/maps/place/Centro+G.E.A.+-+Giardinaggio+Edilizia+Agricoltura/data=!4m7!3m6!1s0x477fd7c026a3d035:0xcf39d80f96c5df7b!8m2!3d44.484832!4d11.2239092!16s%2Fg%2F11hythvhj9!19sChIJNdCjJsDXf0cRe9_Flg_YOc8?authuser=0&hl=tr&rclk=1",
    "website_url": "",
    "rating_text": "4,7",
    "stars": null,
    "number_of_reviews": null,
    "price_level": "",
    "open_hours": "",
    "extraction_timestamp": "2025-06-07T15:51:05.919Z",
    "source_name": "google",
    "source_query": "Irrigation Equipment",
    "source_country": "IT",
    "country": "Italy",
    "state": "Emilia-Romagna",
    "city": "Sasso Marconi"
  },
  {
    "source_id": "ChIJi1DNjbfSKhMRIaoC0G1QOmo",
    "name": "Vannini Aqua & Pool",
    "category": "Vannini Aqua & Pool",
    "formatted_address": "4,7(340)",
    "phone_number": "+390516760813",
    "source_url": "https://www.google.com/maps/place/Vannini+Aqua+%26+Pool/data=!4m7!3m6!1s0x132ad2b78dcd508b:0x6a3a506dd002aa21!8m2!3d44.4876304!4d11.2404479!16s%2Fg%2F1v47p026!19sChIJi1DNjbfSKhMRIaoC0G1QOmo?authuser=0&hl=tr&rclk=1",
    "website_url": "",
    "rating_text": "4,7",
    "stars": null,
    "number_of_reviews": null,
    "price_level": "",
    "open_hours": "",
    "extraction_timestamp": "2025-06-07T15:51:05.920Z",
    "source_name": "google",
    "source_query": "Irrigation Equipment",
    "source_country": "IT",
    "country": "Italy",
    "state": "Emilia-Romagna",
    "city": "Sasso Marconi"
  },
  {
    "source_id": "ChIJvy1cP2rRf0cRWrE8nuUr58o",
    "name": "Gruppo Ciicai - showroom di Calderara di Reno",
    "category": "Gruppo Ciicai - showroom di Calderara di Reno",
    "formatted_address": "4,1(148)",
    "phone_number": "+390516464711",
    "source_url": "https://www.google.com/maps/place/Gruppo+Ciicai+-+showroom+di+Calderara+di+Reno/data=!4m7!3m6!1s0x477fd16a3f5c2dbf:0xcae72be59e3cb15a!8m2!3d44.537673!4d11.2694636!16s%2Fg%2F1tfxwwj5!19sChIJvy1cP2rRf0cRWrE8nuUr58o?authuser=0&hl=tr&rclk=1",
    "website_url": "",
    "rating_text": "4,1",
    "stars": null,
    "number_of_reviews": null,
    "price_level": "",
    "open_hours": "",
    "extraction_timestamp": "2025-06-07T15:51:05.921Z",
    "source_name": "google",
    "source_query": "Irrigation Equipment",
    "source_country": "IT",
    "country": "Italy",
    "state": "Emilia-Romagna",
    "city": "Sasso Marconi"
  },
  {
    "source_id": "ChIJw3M1-gHTf0cR4Npr_n0P5Pg",
    "name": "Idraco s.r.l. Vendita ingrosso/dettaglio",
    "category": "Idraco s.r.l. Vendita ingrosso/dettaglio",
    "formatted_address": "4,8(27)",
    "phone_number": "+390510954480",
    "source_url": "https://www.google.com/maps/place/Idraco+s.r.l.+Vendita+ingrosso%2Fdettaglio/data=!4m7!3m6!1s0x477fd301fa3573c3:0xf8e40f7dfe6bdae0!8m2!3d44.5332442!4d11.3463793!16s%2Fg%2F11h045w95v!19sChIJw3M1-gHTf0cR4Npr_n0P5Pg?authuser=0&hl=tr&rclk=1",
    "website_url": "",
    "rating_text": "4,8",
    "stars": null,
    "number_of_reviews": null,
    "price_level": "",
    "open_hours": "",
    "extraction_timestamp": "2025-06-07T15:51:05.923Z",
    "source_name": "google",
    "source_query": "Irrigation Equipment",
    "source_country": "IT",
    "country": "Italy",
    "state": "Emilia-Romagna",
    "city": "Sasso Marconi"
  },
  {
    "source_id": "ChIJlzPN61jTf0cRZhfoBsWgS_o",
    "name": "Idraulica Emiliana S.p.A.",
    "category": "Idraulica Emiliana S.p.A.",
    "formatted_address": "4,3(30)",
    "phone_number": "+390516333548",
    "source_url": "https://www.google.com/maps/place/Idraulica+Emiliana+S.p.A./data=!4m7!3m6!1s0x477fd358ebcd3397:0xfa4ba0c506e81766!8m2!3d44.5092595!4d11.3571117!16s%2Fg%2F11g69g3sh_!19sChIJlzPN61jTf0cRZhfoBsWgS_o?authuser=0&hl=tr&rclk=1",
    "website_url": "",
    "rating_text": "4,3",
    "stars": null,
    "number_of_reviews": null,
    "price_level": "",
    "open_hours": "",
    "extraction_timestamp": "2025-06-07T15:51:05.924Z",
    "source_name": "google",
    "source_query": "Irrigation Equipment",
    "source_country": "IT",
    "country": "Italy",
    "state": "Emilia-Romagna",
    "city": "Sasso Marconi"
  },
  {
    "source_id": "ChIJFdwPnWXUf0cRG4Ha-5Q0TzY",
    "name": "Ferramenta Taglioli",
    "category": "Ferramenta Taglioli",
    "formatted_address": "4,4(39)",
    "phone_number": "+39051432119",
    "source_url": "https://www.google.com/maps/place/Ferramenta+Taglioli/data=!4m7!3m6!1s0x477fd4659d0fdc15:0x364f3494fbda811b!8m2!3d44.5009259!4d11.3113872!16s%2Fg%2F1hc3zqkq0!19sChIJFdwPnWXUf0cRG4Ha-5Q0TzY?authuser=0&hl=tr&rclk=1",
    "website_url": "",
    "rating_text": "4,4",
    "stars": null,
    "number_of_reviews": null,
    "price_level": "",
    "open_hours": "",
    "extraction_timestamp": "2025-06-07T15:51:05.924Z",
    "source_name": "google",
    "source_query": "Irrigation Equipment",
    "source_country": "IT",
    "country": "Italy",
    "state": "Emilia-Romagna",
    "city": "Sasso Marconi"
  }
]
