[
  {
    "source_id": "ChIJndiUeKuzLBMR3CNDJVtknwE",
    "name": "M-Pharma Italia S.r.l.",
    "category": "M-Pharma Italia S.r.l.",
    "formatted_address": "4,4(5)",
    "phone_number": "+3905441720100",
    "source_url": "https://www.google.com/maps/place/M-Pharma+Italia+S.r.l./data=!4m7!3m6!1s0x132cb3ab7894d89d:0x19f645b254323dc!8m2!3d44.2929065!4d12.3033079!16s%2Fg%2F11b6ns36fj!19sChIJndiUeKuzLBMR3CNDJVtknwE?authuser=0&hl=tr&rclk=1",
    "website_url": "http://www.mpharma.it/",
    "rating_text": "4,4",
    "stars": null,
    "number_of_reviews": null,
    "price_level": "",
    "open_hours": "",
    "extraction_timestamp": "2025-06-07T15:45:11.638Z",
    "source_name": "google",
    "source_query": "Irrigation Equipment",
    "source_country": "IT",
    "country": "Italy",
    "state": "Emilia-Romagna",
    "city": "Savio"
  },
  {
    "source_id": "ChIJE_3jOnMtfkcRkxtTFj3Ym9E",
    "name": "Irrigation Scarabelli Srl",
    "category": "Irrigation Scarabelli Srl",
    "formatted_address": "4,5(23)",
    "phone_number": "+39051763363",
    "source_url": "https://www.google.com/maps/place/Irrigation+Scarabelli+Srl/data=!4m7!3m6!1s0x477e2d733ae3fd13:0xd19bd83d16531b93!8m2!3d44.5426053!4d11.4189136!16s%2Fg%2F11gzdz6vf!19sChIJE_3jOnMtfkcRkxtTFj3Ym9E?authuser=0&hl=tr&rclk=1",
    "website_url": "",
    "rating_text": "4,5",
    "stars": null,
    "number_of_reviews": null,
    "price_level": "",
    "open_hours": "",
    "extraction_timestamp": "2025-06-07T15:45:11.641Z",
    "source_name": "google",
    "source_query": "Irrigation Equipment",
    "source_country": "IT",
    "country": "Italy",
    "state": "Emilia-Romagna",
    "city": "Savio"
  },
  {
    "source_id": "ChIJy4AVn9C-LBMRn6nsnuZl82A",
    "name": "Ramilli Irrigazioni S.R.L.",
    "category": "Ramilli Irrigazioni S.R.L.",
    "formatted_address": "4,3(52)",
    "phone_number": "+390541945335",
    "source_url": "https://www.google.com/maps/place/Ramilli+Irrigazioni+S.R.L./data=!4m7!3m6!1s0x132cbed09f1580cb:0x60f365e69eeca99f!8m2!3d44.0923156!4d12.3843691!16s%2Fg%2F1ts2ls1r!19sChIJy4AVn9C-LBMRn6nsnuZl82A?authuser=0&hl=tr&rclk=1",
    "website_url": "https://www.ramilli.it/",
    "rating_text": "4,3",
    "stars": null,
    "number_of_reviews": null,
    "price_level": "",
    "open_hours": "",
    "extraction_timestamp": "2025-06-07T15:45:11.643Z",
    "source_name": "google",
    "source_query": "Irrigation Equipment",
    "source_country": "IT",
    "country": "Italy",
    "state": "Emilia-Romagna",
    "city": "Savio"
  },
  {
    "source_id": "ChIJ0597zfqyLBMRMOEN96liwMs",
    "name": "Ferramenta \"Grammatica\"",
    "category": "Ferramenta \"Grammatica\"",
    "formatted_address": "4,6(44)",
    "phone_number": "+390544927542",
    "source_url": "https://www.google.com/maps/place/Ferramenta+%22Grammatica%22/data=!4m7!3m6!1s0x132cb2facd7b9fd3:0xcbc062a9f70de130!8m2!3d44.3078002!4d12.2914327!16s%2Fg%2F1tfdv5b1!19sChIJ0597zfqyLBMRMOEN96liwMs?authuser=0&hl=tr&rclk=1",
    "website_url": "",
    "rating_text": "4,6",
    "stars": null,
    "number_of_reviews": null,
    "price_level": "",
    "open_hours": "",
    "extraction_timestamp": "2025-06-07T15:45:11.645Z",
    "source_name": "google",
    "source_query": "Irrigation Equipment",
    "source_country": "IT",
    "country": "Italy",
    "state": "Emilia-Romagna",
    "city": "Savio"
  },
  {
    "source_id": "ChIJcQG6ul7df0cR3VxKiu5OPBs",
    "name": "Scova Impianti Srl",
    "category": "Scova Impianti Srl",
    "formatted_address": "4,5(64)",
    "phone_number": "+39059923202",
    "source_url": "https://www.google.com/maps/place/Scova+Impianti+Srl/data=!4m7!3m6!1s0x477fdd5ebaba0171:0x1b3c4eee8a4a5cdd!8m2!3d44.6018135!4d11.032294!16s%2Fg%2F1tfzwbfb!19sChIJcQG6ul7df0cR3VxKiu5OPBs?authuser=0&hl=tr&rclk=1",
    "website_url": "https://www.scovaimpianti.com/",
    "rating_text": "4,5",
    "stars": null,
    "number_of_reviews": null,
    "price_level": "",
    "open_hours": "",
    "extraction_timestamp": "2025-06-07T15:45:11.646Z",
    "source_name": "google",
    "source_query": "Irrigation Equipment",
    "source_country": "IT",
    "country": "Italy",
    "state": "Emilia-Romagna",
    "city": "Savio"
  },
  {
    "source_id": "ChIJQ8fJol1SKxMRShirn3slxH4",
    "name": "Tecnir",
    "category": "Tecnir",
    "formatted_address": "4,4(17)",
    "phone_number": "+390546641026",
    "source_url": "https://www.google.com/maps/place/Tecnir/data=!4m7!3m6!1s0x132b525da2c9c743:0x7ec4257b9fab184a!8m2!3d44.363732!4d11.935557!16s%2Fg%2F1vfps_3m!19sChIJQ8fJol1SKxMRShirn3slxH4?authuser=0&hl=tr&rclk=1",
    "website_url": "https://www.tecnirirrigazione.it/",
    "rating_text": "4,4",
    "stars": null,
    "number_of_reviews": null,
    "price_level": "",
    "open_hours": "",
    "extraction_timestamp": "2025-06-07T15:45:11.648Z",
    "source_name": "google",
    "source_query": "Irrigation Equipment",
    "source_country": "IT",
    "country": "Italy",
    "state": "Emilia-Romagna",
    "city": "Savio"
  },
  {
    "source_id": "ChIJh3Nd8G0sfkcR_m7VewEmxXM",
    "name": "Irrigarden",
    "category": "Irrigarden",
    "formatted_address": "4,7(158)",
    "phone_number": "+39051782013",
    "source_url": "https://www.google.com/maps/place/Irrigarden/data=!4m7!3m6!1s0x477e2c6df05d7387:0x73c526017bd56efe!8m2!3d44.5096266!4d11.4390897!16s%2Fg%2F1vgw_l7w!19sChIJh3Nd8G0sfkcR_m7VewEmxXM?authuser=0&hl=tr&rclk=1",
    "website_url": "https://www.irrigarden-bo.it/",
    "rating_text": "4,7",
    "stars": null,
    "number_of_reviews": null,
    "price_level": "",
    "open_hours": "",
    "extraction_timestamp": "2025-06-07T15:45:11.649Z",
    "source_name": "google",
    "source_query": "Irrigation Equipment",
    "source_country": "IT",
    "country": "Italy",
    "state": "Emilia-Romagna",
    "city": "Savio"
  },
  {
    "source_id": "ChIJr6aWSCmxLBMRFUDhIcwlYvI",
    "name": "Erre Ti technology SRL",
    "category": "Erre Ti technology SRL",
    "formatted_address": "5,0(5)",
    "phone_number": "+393470640151",
    "source_url": "https://www.google.com/maps/place/Erre+Ti+technology+SRL/data=!4m7!3m6!1s0x132cb1294896a6af:0xf26225cc21e14015!8m2!3d44.2212285!4d12.3408397!16s%2Fg%2F11b7ff8jlw!19sChIJr6aWSCmxLBMRFUDhIcwlYvI?authuser=0&hl=tr&rclk=1",
    "website_url": "http://www.erreti.info/",
    "rating_text": "5,0",
    "stars": null,
    "number_of_reviews": null,
    "price_level": "",
    "open_hours": "",
    "extraction_timestamp": "2025-06-07T15:45:11.651Z",
    "source_name": "google",
    "source_query": "Irrigation Equipment",
    "source_country": "IT",
    "country": "Italy",
    "state": "Emilia-Romagna",
    "city": "Savio"
  },
  {
    "source_id": "ChIJc_v1a6qzLBMRPf3KvOyCRSo",
    "name": "Eurospar",
    "category": "Eurospar",
    "formatted_address": "4,1(547)",
    "phone_number": "+393313874643",
    "source_url": "https://www.google.com/maps/place/Eurospar/data=!4m7!3m6!1s0x132cb3aa6bf5fb73:0x2a4582ecbccafd3d!8m2!3d44.2959055!4d12.3046217!16s%2Fg%2F11g87mcfkz!19sChIJc_v1a6qzLBMRPf3KvOyCRSo?authuser=0&hl=tr&rclk=1",
    "website_url": "https://www.despar.it/it/punto-vendita-eurospar/764/cervia/",
    "rating_text": "4,1",
    "stars": null,
    "number_of_reviews": null,
    "price_level": "",
    "open_hours": "",
    "extraction_timestamp": "2025-06-07T15:45:11.652Z",
    "source_name": "google",
    "source_query": "Irrigation Equipment",
    "source_country": "IT",
    "country": "Italy",
    "state": "Emilia-Romagna",
    "city": "Savio"
  },
  {
    "source_id": "ChIJI1VUIYFqmC0RRVwQFZU1Ewc",
    "name": "Edil Garden Cervia",
    "category": "Edil Garden Cervia",
    "formatted_address": "",
    "phone_number": "+393293081734",
    "source_url": "https://www.google.com/maps/place/Edil+Garden+Cervia/data=!4m7!3m6!1s0x2d986a8121545523:0x713359515105c45!8m2!3d44.2884675!4d12.3175714!16s%2Fg%2F11sswz133f!19sChIJI1VUIYFqmC0RRVwQFZU1Ewc?authuser=0&hl=tr&rclk=1",
    "website_url": "http://www.edilgarden.org/",
    "rating_text": "",
    "stars": null,
    "number_of_reviews": null,
    "price_level": "",
    "open_hours": "",
    "extraction_timestamp": "2025-06-07T15:45:11.654Z",
    "source_name": "google",
    "source_query": "Irrigation Equipment",
    "source_country": "IT",
    "country": "Italy",
    "state": "Emilia-Romagna",
    "city": "Savio"
  }
]
