[
  {
    "source_id": "ChIJhUDzcO74f0cRbyvGpw7MfXw",
    "name": "Ferramenta Severi Lauro",
    "category": "Ferramenta Severi Lauro",
    "formatted_address": "4,4(45)",
    "phone_number": "+3905221607038",
    "source_url": "https://www.google.com/maps/place/Ferramenta+Severi+Lauro/data=!4m7!3m6!1s0x477ff8ee70f34085:0x7c7dcc0ea7c62b6f!8m2!3d44.5996865!4d10.6849672!16s%2Fg%2F1xtf0f0h!19sChIJhUDzcO74f0cRbyvGpw7MfXw?authuser=0&hl=tr&rclk=1",
    "website_url": "https://ferramentaseverilauro.it/",
    "rating_text": "4,4",
    "stars": null,
    "number_of_reviews": null,
    "price_level": "",
    "open_hours": "",
    "extraction_timestamp": "2025-06-07T17:10:17.056Z",
    "source_name": "google",
    "source_query": "Irrigation Equipment",
    "source_country": "IT",
    "country": "Italy",
    "state": "Emilia-Romagna",
    "city": "Scandiano"
  },
  {
    "source_id": "ChIJJwb5vev4f0cRxTAxi0njBiY",
    "name": "Remil",
    "category": "Remil",
    "formatted_address": "5,0(3)",
    "phone_number": "+390522851291",
    "source_url": "https://www.google.com/maps/place/Remil/data=!4m7!3m6!1s0x477ff8ebbdf90627:0x2606e3498b3130c5!8m2!3d44.5961245!4d10.6812831!16s%2Fg%2F11b6hzx5kt!19sChIJJwb5vev4f0cRxTAxi0njBiY?authuser=0&hl=tr&rclk=1",
    "website_url": "https://www.acquadiqualita.it/it/associati/remil.php",
    "rating_text": "5,0",
    "stars": null,
    "number_of_reviews": null,
    "price_level": "",
    "open_hours": "",
    "extraction_timestamp": "2025-06-07T17:10:17.057Z",
    "source_name": "google",
    "source_query": "Irrigation Equipment",
    "source_country": "IT",
    "country": "Italy",
    "state": "Emilia-Romagna",
    "city": "Scandiano"
  },
  {
    "source_id": "ChIJiSoBTwP5f0cROM6sxCP18N4",
    "name": "Cambielli S.p.A.",
    "category": "Cambielli S.p.A.",
    "formatted_address": "4,4(24)",
    "phone_number": "+390522767201",
    "source_url": "https://www.google.com/maps/place/Cambielli+S.p.A./data=!4m7!3m6!1s0x477ff9034f012a89:0xdef0f523c4acce38!8m2!3d44.6001566!4d10.7069425!16s%2Fg%2F1tmqf1d9!19sChIJiSoBTwP5f0cROM6sxCP18N4?authuser=0&hl=tr&rclk=1",
    "website_url": "https://www.cambielli.it/",
    "rating_text": "4,4",
    "stars": null,
    "number_of_reviews": null,
    "price_level": "",
    "open_hours": "",
    "extraction_timestamp": "2025-06-07T17:10:17.060Z",
    "source_name": "google",
    "source_query": "Irrigation Equipment",
    "source_country": "IT",
    "country": "Italy",
    "state": "Emilia-Romagna",
    "city": "Scandiano"
  },
  {
    "source_id": "ChIJ3ySnUvv4f0cReUX46hNwBn8",
    "name": "Franzini Annibale S.p.A.",
    "category": "Franzini Annibale S.p.A.",
    "formatted_address": "4,2(206)",
    "phone_number": "+390522856549",
    "source_url": "https://www.google.com/maps/place/Franzini+Annibale+S.p.A./data=!4m7!3m6!1s0x477ff8fb52a724df:0x7f067013eaf84579!8m2!3d44.6006736!4d10.695755!16s%2Fg%2F11c0w00xrn!19sChIJ3ySnUvv4f0cReUX46hNwBn8?authuser=0&hl=tr&rclk=1",
    "website_url": "https://www.franzini.it/",
    "rating_text": "4,2",
    "stars": null,
    "number_of_reviews": null,
    "price_level": "",
    "open_hours": "",
    "extraction_timestamp": "2025-06-07T17:10:17.062Z",
    "source_name": "google",
    "source_query": "Irrigation Equipment",
    "source_country": "IT",
    "country": "Italy",
    "state": "Emilia-Romagna",
    "city": "Scandiano"
  },
  {
    "source_id": "ChIJcQG6ul7df0cR3VxKiu5OPBs",
    "name": "Scova Impianti Srl",
    "category": "Scova Impianti Srl",
    "formatted_address": "4,5(64)",
    "phone_number": "+39059923202",
    "source_url": "https://www.google.com/maps/place/Scova+Impianti+Srl/data=!4m7!3m6!1s0x477fdd5ebaba0171:0x1b3c4eee8a4a5cdd!8m2!3d44.6018135!4d11.032294!16s%2Fg%2F1tfzwbfb!19sChIJcQG6ul7df0cR3VxKiu5OPBs?authuser=0&hl=tr&rclk=1",
    "website_url": "https://www.scovaimpianti.com/",
    "rating_text": "4,5",
    "stars": null,
    "number_of_reviews": null,
    "price_level": "",
    "open_hours": "",
    "extraction_timestamp": "2025-06-07T17:10:17.098Z",
    "source_name": "google",
    "source_query": "Irrigation Equipment",
    "source_country": "IT",
    "country": "Italy",
    "state": "Emilia-Romagna",
    "city": "Scandiano"
  },
  {
    "source_id": "ChIJV4exvUTzf0cRUNFCAIGxe78",
    "name": "WATERPOOL INDUSTRIES S.R.L.",
    "category": "WATERPOOL INDUSTRIES S.R.L.",
    "formatted_address": "5,0(1)",
    "phone_number": "+3905221751836",
    "source_url": "https://www.google.com/maps/place/WATERPOOL+INDUSTRIES+S.R.L./data=!4m7!3m6!1s0x477ff344bdb18757:0xbf7bb1810042d150!8m2!3d44.6263677!4d10.7270162!16s%2Fg%2F11cs31lyh2!19sChIJV4exvUTzf0cRUNFCAIGxe78?authuser=0&hl=tr&rclk=1",
    "website_url": "",
    "rating_text": "5,0",
    "stars": null,
    "number_of_reviews": null,
    "price_level": "",
    "open_hours": "",
    "extraction_timestamp": "2025-06-07T17:10:17.100Z",
    "source_name": "google",
    "source_query": "Irrigation Equipment",
    "source_country": "IT",
    "country": "Italy",
    "state": "Emilia-Romagna",
    "city": "Scandiano"
  },
  {
    "source_id": "ChIJSXcWuDz5f0cRT55Bo7Hyoys",
    "name": "Campani Impianti Scandiano",
    "category": "Campani Impianti Scandiano",
    "formatted_address": "3,0(2)",
    "phone_number": "+393356680356",
    "source_url": "https://www.google.com/maps/place/Campani+Impianti+Scandiano/data=!4m7!3m6!1s0x477ff93cb8167749:0x2ba3f2b1a3419e4f!8m2!3d44.5799996!4d10.9767761!16s%2Fg%2F11b6x881dg!19sChIJSXcWuDz5f0cRT55Bo7Hyoys?authuser=0&hl=tr&rclk=1",
    "website_url": "http://www.campaniimpianti.it/",
    "rating_text": "3,0",
    "stars": null,
    "number_of_reviews": null,
    "price_level": "",
    "open_hours": "",
    "extraction_timestamp": "2025-06-07T17:10:17.101Z",
    "source_name": "google",
    "source_query": "Irrigation Equipment",
    "source_country": "IT",
    "country": "Italy",
    "state": "Emilia-Romagna",
    "city": "Scandiano"
  },
  {
    "source_id": "ChIJiVSvsQIdgEcR0PUcMFDq-Yg",
    "name": "Idrotim",
    "category": "Idrotim",
    "formatted_address": "5,0(5)",
    "phone_number": "+393387675768",
    "source_url": "https://www.google.com/maps/place/Idrotim/data=!4m7!3m6!1s0x47801d02b1af5489:0x88f9ea50301cf5d0!8m2!3d44.642221!4d10.671266!16s%2Fg%2F1tnhx5lh!19sChIJiVSvsQIdgEcR0PUcMFDq-Yg?authuser=0&hl=tr&rclk=1",
    "website_url": "http://www.idrotim.it/",
    "rating_text": "5,0",
    "stars": null,
    "number_of_reviews": null,
    "price_level": "",
    "open_hours": "",
    "extraction_timestamp": "2025-06-07T17:10:17.103Z",
    "source_name": "google",
    "source_query": "Irrigation Equipment",
    "source_country": "IT",
    "country": "Italy",
    "state": "Emilia-Romagna",
    "city": "Scandiano"
  },
  {
    "source_id": "ChIJRxtP3_r4f0cR8wr8TgydgpU",
    "name": "Vendita Ricambi Stampanti 3D, Modellismo statico - GHS",
    "category": "Vendita Ricambi Stampanti 3D, Modellismo statico - GHS",
    "formatted_address": "Vendita Ricambi Stampanti 3D, Modellismo statico - GHS",
    "phone_number": "+393920197172",
    "source_url": "https://www.google.com/maps/place/Vendita+Ricambi+Stampanti+3D,+Modellismo+statico+-+GHS/data=!4m7!3m6!1s0x477ff8fadf4f1b47:0x95829d0c4efc0af3!8m2!3d44.6009123!4d10.6965357!16s%2Fg%2F11f3tpwhq3!19sChIJRxtP3_r4f0cR8wr8TgydgpU?authuser=0&hl=tr&rclk=1",
    "website_url": "http://www.green-house-store.com/",
    "rating_text": "5,0",
    "stars": null,
    "number_of_reviews": null,
    "price_level": "",
    "open_hours": "",
    "extraction_timestamp": "2025-06-07T17:10:17.105Z",
    "source_name": "google",
    "source_query": "Irrigation Equipment",
    "source_country": "IT",
    "country": "Italy",
    "state": "Emilia-Romagna",
    "city": "Scandiano"
  },
  {
    "source_id": "ChIJ8S_H450fgEcRen1BwvkupIc",
    "name": "Agro-system Snc di Bassoli - Piscine e Macchine giardino - Reggio Emilia",
    "category": "Agro-system Snc di Bassoli - Piscine e Macchine giardino - Reggio Emilia",
    "formatted_address": "4,6(88)",
    "phone_number": "+390522954100",
    "source_url": "https://www.google.com/maps/place/Agro-system+Snc+di+Bassoli+-+Piscine+e+Macchine+giardino+-+Reggio+Emilia/data=!4m7!3m6!1s0x47801f9de3c72ff1:0x87a42ef9c2417d7a!8m2!3d44.797091!4d10.686568!16s%2Fg%2F1tfb5f45!19sChIJ8S_H450fgEcRen1BwvkupIc?authuser=0&hl=tr&rclk=1",
    "website_url": "https://agrosystem.info/",
    "rating_text": "4,6",
    "stars": null,
    "number_of_reviews": null,
    "price_level": "",
    "open_hours": "",
    "extraction_timestamp": "2025-06-07T17:10:17.106Z",
    "source_name": "google",
    "source_query": "Irrigation Equipment",
    "source_country": "IT",
    "country": "Italy",
    "state": "Emilia-Romagna",
    "city": "Scandiano"
  },
  {
    "source_id": "ChIJZdo-grj4f0cRyaqjplrvZeU",
    "name": "Termoidraulica Moro",
    "category": "Termoidraulica Moro",
    "formatted_address": "4,7(38)",
    "phone_number": "+393481920701",
    "source_url": "https://www.google.com/maps/place/Termoidraulica+Moro/data=!4m7!3m6!1s0x477ff8b8823eda65:0xe565ef5aa6a3aac9!8m2!3d44.6086444!4d10.6760152!16s%2Fg%2F1wj_s3cf!19sChIJZdo-grj4f0cRyaqjplrvZeU?authuser=0&hl=tr&rclk=1",
    "website_url": "http://www.termoidraulicamoro.it/",
    "rating_text": "4,7",
    "stars": null,
    "number_of_reviews": null,
    "price_level": "",
    "open_hours": "",
    "extraction_timestamp": "2025-06-07T17:10:17.107Z",
    "source_name": "google",
    "source_query": "Irrigation Equipment",
    "source_country": "IT",
    "country": "Italy",
    "state": "Emilia-Romagna",
    "city": "Scandiano"
  },
  {
    "source_id": "ChIJJ6V6lMDgf0cR1SpFsfjDuHg",
    "name": "Ocmis Irrigazione Spa",
    "category": "Ocmis Irrigazione Spa",
    "formatted_address": "3,5(31)",
    "phone_number": "+39059702150",
    "source_url": "https://www.google.com/maps/place/Ocmis+Irrigazione+Spa/data=!4m7!3m6!1s0x477fe0c0947aa527:0x78b8c3f8b1452ad5!8m2!3d44.530494!4d10.9794578!16s%2Fg%2F1vd3tn19!19sChIJJ6V6lMDgf0cR1SpFsfjDuHg?authuser=0&hl=tr&rclk=1",
    "website_url": "http://www.ocmis-irrigazione.it/",
    "rating_text": "3,5",
    "stars": null,
    "number_of_reviews": null,
    "price_level": "",
    "open_hours": "",
    "extraction_timestamp": "2025-06-07T17:10:17.109Z",
    "source_name": "google",
    "source_query": "Irrigation Equipment",
    "source_country": "IT",
    "country": "Italy",
    "state": "Emilia-Romagna",
    "city": "Scandiano"
  },
  {
    "source_id": "ChIJX-0HrXYcgEcRPiaDZKdV6iw",
    "name": "Idromeccanica Bertolini S.p.a.",
    "category": "Idromeccanica Bertolini S.p.a.",
    "formatted_address": "3,7(20)",
    "phone_number": "+390522306641",
    "source_url": "https://www.google.com/maps/place/Idromeccanica+Bertolini+S.p.a./data=!4m7!3m6!1s0x47801c76ad07ed5f:0x2cea55a76483263e!8m2!3d44.7131562!4d10.5953009!16s%2Fg%2F11b6j1nfcw!19sChIJX-0HrXYcgEcRPiaDZKdV6iw?authuser=0&hl=tr&rclk=1",
    "website_url": "http://www.bertolinipumps.com/",
    "rating_text": "3,7",
    "stars": null,
    "number_of_reviews": null,
    "price_level": "",
    "open_hours": "",
    "extraction_timestamp": "2025-06-07T17:10:17.110Z",
    "source_name": "google",
    "source_query": "Irrigation Equipment",
    "source_country": "IT",
    "country": "Italy",
    "state": "Emilia-Romagna",
    "city": "Scandiano"
  },
  {
    "source_id": "ChIJpVXhPQ0cgEcRE8_9M6siopU",
    "name": "Agriservice (Div. di RAMA S.p.A.)",
    "category": "Agriservice (Div. di RAMA S.p.A.)",
    "formatted_address": "4,3(236)",
    "phone_number": "+3905221723760",
    "source_url": "https://www.google.com/maps/place/Agriservice+%28Div.+di+RAMA+S.p.A.%29/data=!4m7!3m6!1s0x47801c0d3de155a5:0x95a222ab33fdcf13!8m2!3d44.7173748!4d10.6444488!16s%2Fg%2F12hpr37fh!19sChIJpVXhPQ0cgEcRE8_9M6siopU?authuser=0&hl=tr&rclk=1",
    "website_url": "http://www.agriservice.rama.it/",
    "rating_text": "4,3",
    "stars": null,
    "number_of_reviews": null,
    "price_level": "",
    "open_hours": "",
    "extraction_timestamp": "2025-06-07T17:10:17.111Z",
    "source_name": "google",
    "source_query": "Irrigation Equipment",
    "source_country": "IT",
    "country": "Italy",
    "state": "Emilia-Romagna",
    "city": "Scandiano"
  },
  {
    "source_id": "ChIJveAeFroEgEcRZfa9xqlB6vM",
    "name": "Morelli Irrigazioni",
    "category": "Morelli Irrigazioni",
    "formatted_address": "1,0(1)",
    "phone_number": "+393480042122",
    "source_url": "https://www.google.com/maps/place/Morelli+Irrigazioni/data=!4m7!3m6!1s0x478004ba161ee0bd:0xf3ea41a9c6bdf665!8m2!3d44.649256!4d10.5636837!16s%2Fg%2F11gy01p0bd!19sChIJveAeFroEgEcRZfa9xqlB6vM?authuser=0&hl=tr&rclk=1",
    "website_url": "http://irrigazionimorelli.it/",
    "rating_text": "1,0",
    "stars": null,
    "number_of_reviews": null,
    "price_level": "",
    "open_hours": "",
    "extraction_timestamp": "2025-06-07T17:10:17.112Z",
    "source_name": "google",
    "source_query": "Irrigation Equipment",
    "source_country": "IT",
    "country": "Italy",
    "state": "Emilia-Romagna",
    "city": "Scandiano"
  },
  {
    "source_id": "ChIJUYCMAR35f0cRPzJyAmcD9A0",
    "name": "Villani Giuseppe & C. S.R.L.",
    "category": "Villani Giuseppe & C. S.R.L.",
    "formatted_address": "4,3(3)",
    "phone_number": "+390522857091",
    "source_url": "https://www.google.com/maps/place/Villani+Giuseppe+%26+C.+S.R.L./data=!4m7!3m6!1s0x477ff91d018c8051:0xdf403670272323f!8m2!3d44.5976325!4d10.7039578!16s%2Fg%2F1ptynpp8p!19sChIJUYCMAR35f0cRPzJyAmcD9A0?authuser=0&hl=tr&rclk=1",
    "website_url": "http://www.villani.re.it/",
    "rating_text": "4,3",
    "stars": null,
    "number_of_reviews": null,
    "price_level": "",
    "open_hours": "",
    "extraction_timestamp": "2025-06-07T17:10:17.114Z",
    "source_name": "google",
    "source_query": "Irrigation Equipment",
    "source_country": "IT",
    "country": "Italy",
    "state": "Emilia-Romagna",
    "city": "Scandiano"
  },
  {
    "source_id": "ChIJR0cLXhQkgEcRi9oI9GALzlg",
    "name": "IRRILAND",
    "category": "IRRILAND",
    "formatted_address": "4,0(4)",
    "phone_number": "+390522831544",
    "source_url": "https://www.google.com/maps/place/IRRILAND/data=!4m7!3m6!1s0x478024145e0b4747:0x58ce0b60f408da8b!8m2!3d44.891987!4d10.650983!16s%2Fg%2F1tczjb0h!19sChIJR0cLXhQkgEcRi9oI9GALzlg?authuser=0&hl=tr&rclk=1",
    "website_url": "http://www.irriland.it/",
    "rating_text": "4,0",
    "stars": null,
    "number_of_reviews": null,
    "price_level": "",
    "open_hours": "",
    "extraction_timestamp": "2025-06-07T17:10:17.115Z",
    "source_name": "google",
    "source_query": "Irrigation Equipment",
    "source_country": "IT",
    "country": "Italy",
    "state": "Emilia-Romagna",
    "city": "Scandiano"
  },
  {
    "source_id": "ChIJG3-yFbr5f0cRPM13Wo37-ow",
    "name": "Irrigazione Automatica",
    "category": "Irrigazione Automatica",
    "formatted_address": "Via G. Pagliani, 1",
    "phone_number": "",
    "source_url": "https://www.google.com/maps/place/Irrigazione+Automatica/data=!4m7!3m6!1s0x477ff9ba15b27f1b:0x8cfafb8d5a77cd3c!8m2!3d44.6204425!4d10.7228609!16s%2Fg%2F11j3vc5s87!19sChIJG3-yFbr5f0cRPM13Wo37-ow?authuser=0&hl=tr&rclk=1",
    "website_url": "",
    "rating_text": "",
    "stars": null,
    "number_of_reviews": null,
    "price_level": "",
    "open_hours": "",
    "extraction_timestamp": "2025-06-07T17:10:17.116Z",
    "source_name": "google",
    "source_query": "Irrigation Equipment",
    "source_country": "IT",
    "country": "Italy",
    "state": "Emilia-Romagna",
    "city": "Scandiano"
  },
  {
    "source_id": "ChIJiXjeNu_4f0cRdXDXaF0dbkc",
    "name": "L'Isola dei Tesori",
    "category": "L'Isola dei Tesori",
    "formatted_address": "4,4(287)",
    "phone_number": "+390522854241",
    "source_url": "https://www.google.com/maps/place/L%27Isola+dei+Tesori/data=!4m7!3m6!1s0x477ff8ef36de7889:0x476e1d5d68d77075!8m2!3d44.5971464!4d10.6878268!16s%2Fg%2F1tx8s159!19sChIJiXjeNu_4f0cRdXDXaF0dbkc?authuser=0&hl=tr&rclk=1",
    "website_url": "https://www.isoladeitesori.it/store/scandiano-re-via-giacomo-matteotti-5-9739.html?_gl=1%2A1kdy1sk%2A_up%2AMQ..&gclid=Cj0KCQiAgqGrBhDtARIsAM5s0_nEqPBvDOxR-JsmAP8tYXn5V_6UG_EeEBTKcq166OWkOz-7yV9KfXIaAse8EALw_wcB",
    "rating_text": "4,4",
    "stars": null,
    "number_of_reviews": null,
    "price_level": "",
    "open_hours": "",
    "extraction_timestamp": "2025-06-07T17:10:17.117Z",
    "source_name": "google",
    "source_query": "Irrigation Equipment",
    "source_country": "IT",
    "country": "Italy",
    "state": "Emilia-Romagna",
    "city": "Scandiano"
  },
  {
    "source_id": "ChIJNYTpWu74f0cRyJT4ZQCic04",
    "name": "Ferramenta Regnani",
    "category": "Ferramenta Regnani",
    "formatted_address": "4,4(35)",
    "phone_number": "+390522857010",
    "source_url": "https://www.google.com/maps/place/Ferramenta+Regnani/data=!4m7!3m6!1s0x477ff8ee5ae98435:0x4e73a20065f894c8!8m2!3d44.5994524!4d10.6868676!16s%2Fg%2F1v6wn4pz!19sChIJNYTpWu74f0cRyJT4ZQCic04?authuser=0&hl=tr&rclk=1",
    "website_url": "",
    "rating_text": "4,4",
    "stars": null,
    "number_of_reviews": null,
    "price_level": "",
    "open_hours": "",
    "extraction_timestamp": "2025-06-07T17:10:17.119Z",
    "source_name": "google",
    "source_query": "Irrigation Equipment",
    "source_country": "IT",
    "country": "Italy",
    "state": "Emilia-Romagna",
    "city": "Scandiano"
  },
  {
    "source_id": "ChIJk1xf3gocgEcR7YDnq1JIXQQ",
    "name": "Idraulica Emiliana S.p.A.",
    "category": "Idraulica Emiliana S.p.A.",
    "formatted_address": "4,4(32)",
    "phone_number": "+390522383297",
    "source_url": "https://www.google.com/maps/place/Idraulica+Emiliana+S.p.A./data=!4m7!3m6!1s0x47801c0ade5f5c93:0x45d4852abe780ed!8m2!3d44.7129186!4d10.6066972!16s%2Fg%2F11bzs43my6!19sChIJk1xf3gocgEcR7YDnq1JIXQQ?authuser=0&hl=tr&rclk=1",
    "website_url": "http://www.idraulicaemiliana.com/",
    "rating_text": "4,4",
    "stars": null,
    "number_of_reviews": null,
    "price_level": "",
    "open_hours": "",
    "extraction_timestamp": "2025-06-07T17:10:17.120Z",
    "source_name": "google",
    "source_query": "Irrigation Equipment",
    "source_country": "IT",
    "country": "Italy",
    "state": "Emilia-Romagna",
    "city": "Scandiano"
  },
  {
    "source_id": "ChIJM1YDrdvQf0cR04ugW7FgB5o",
    "name": "Green Blue Italia srl",
    "category": "Green Blue Italia srl",
    "formatted_address": "4,7(17)",
    "phone_number": "+390510492100",
    "source_url": "https://www.google.com/maps/place/Green+Blue+Italia+srl/data=!4m7!3m6!1s0x477fd0dbad035633:0x9a0760b15ba08bd3!8m2!3d44.5324593!4d11.2320285!16s%2Fg%2F11gr3cvb1v!19sChIJM1YDrdvQf0cR04ugW7FgB5o?authuser=0&hl=tr&rclk=1",
    "website_url": "",
    "rating_text": "4,7",
    "stars": null,
    "number_of_reviews": null,
    "price_level": "",
    "open_hours": "",
    "extraction_timestamp": "2025-06-07T17:10:17.121Z",
    "source_name": "google",
    "source_query": "Irrigation Equipment",
    "source_country": "IT",
    "country": "Italy",
    "state": "Emilia-Romagna",
    "city": "Scandiano"
  },
  {
    "source_id": "ChIJL1fZzrjwf0cRcptKxsWYgW8",
    "name": "Pompe Zanni",
    "category": "Pompe Zanni",
    "formatted_address": "4,6(5)",
    "phone_number": "+390522626636",
    "source_url": "https://www.google.com/maps/place/Pompe+Zanni/data=!4m7!3m6!1s0x477ff0b8ced9572f:0x6f8198c5c64a9b72!8m2!3d44.6554527!4d10.7870346!16s%2Fg%2F1tqck1q6!19sChIJL1fZzrjwf0cRcptKxsWYgW8?authuser=0&hl=tr&rclk=1",
    "website_url": "http://www.pompezanni.it/",
    "rating_text": "4,6",
    "stars": null,
    "number_of_reviews": null,
    "price_level": "",
    "open_hours": "",
    "extraction_timestamp": "2025-06-07T17:10:17.122Z",
    "source_name": "google",
    "source_query": "Irrigation Equipment",
    "source_country": "IT",
    "country": "Italy",
    "state": "Emilia-Romagna",
    "city": "Scandiano"
  },
  {
    "source_id": "ChIJs29sE3Pjf0cRQykUVUXAUC4",
    "name": "Adesital S.P.A.",
    "category": "Adesital S.P.A.",
    "formatted_address": "4,7(10)",
    "phone_number": "+390536927511",
    "source_url": "https://www.google.com/maps/place/Adesital+S.P.A./data=!4m7!3m6!1s0x477fe373136c6fb3:0x2e50c04555142943!8m2!3d44.5397414!4d10.8591898!16s%2Fg%2F1tj499w9!19sChIJs29sE3Pjf0cRQykUVUXAUC4?authuser=0&hl=tr&rclk=1",
    "website_url": "http://www.adesital.it/",
    "rating_text": "4,7",
    "stars": null,
    "number_of_reviews": null,
    "price_level": "",
    "open_hours": "",
    "extraction_timestamp": "2025-06-07T17:10:17.123Z",
    "source_name": "google",
    "source_query": "Irrigation Equipment",
    "source_country": "IT",
    "country": "Italy",
    "state": "Emilia-Romagna",
    "city": "Scandiano"
  },
  {
    "source_id": "ChIJe_dqcYQegEcROeFQgvR_W_I",
    "name": "Franzini Annibale Spa",
    "category": "Franzini Annibale Spa",
    "formatted_address": "4,1(61)",
    "phone_number": "+390522929411",
    "source_url": "https://www.google.com/maps/place/Franzini+Annibale+Spa/data=!4m7!3m6!1s0x47801e84716af77b:0xf25b7ff48250e139!8m2!3d44.737914!4d10.6540742!16s%2Fg%2F1thclml2!19sChIJe_dqcYQegEcROeFQgvR_W_I?authuser=0&hl=tr&rclk=1",
    "website_url": "https://www.franzini.it/",
    "rating_text": "4,1",
    "stars": null,
    "number_of_reviews": null,
    "price_level": "",
    "open_hours": "",
    "extraction_timestamp": "2025-06-07T17:10:17.124Z",
    "source_name": "google",
    "source_query": "Irrigation Equipment",
    "source_country": "IT",
    "country": "Italy",
    "state": "Emilia-Romagna",
    "city": "Scandiano"
  },
  {
    "source_id": "ChIJkyE1J_UagEcRd8vN3t5v-AU",
    "name": "Samot srl - Fornitura attrezzature professionali e materiale igienico HORECA e GDO",
    "category": "Samot srl - Fornitura attrezzature professionali e materiale igienico HORECA e GDO",
    "formatted_address": "4,6(22)",
    "phone_number": "+390522991005",
    "source_url": "https://www.google.com/maps/place/Samot+srl+-+Fornitura+attrezzature+professionali+e+materiale+igienico+HORECA+e+GDO/data=!4m7!3m6!1s0x47801af527352193:0x5f86fdedecdcb77!8m2!3d44.6317688!4d10.686829!16s%2Fg%2F12cphwgq4!19sChIJkyE1J_UagEcRd8vN3t5v-AU?authuser=0&hl=tr&rclk=1",
    "website_url": "https://www.samot.it/",
    "rating_text": "4,6",
    "stars": null,
    "number_of_reviews": null,
    "price_level": "",
    "open_hours": "",
    "extraction_timestamp": "2025-06-07T17:10:17.126Z",
    "source_name": "google",
    "source_query": "Irrigation Equipment",
    "source_country": "IT",
    "country": "Italy",
    "state": "Emilia-Romagna",
    "city": "Scandiano"
  },
  {
    "source_id": "ChIJgyFIM7P3f0cR-IOpDf5oIOU",
    "name": "Agri1 Reggio Emilia",
    "category": "Agri1 Reggio Emilia",
    "formatted_address": "4,5(144)",
    "phone_number": "+390522351584",
    "source_url": "https://www.google.com/maps/place/Agri1+Reggio+Emilia/data=!4m7!3m6!1s0x477ff7b333482183:0xe52068fe0da983f8!8m2!3d44.6698024!4d10.708226!16s%2Fg%2F1hc139g75!19sChIJgyFIM7P3f0cR-IOpDf5oIOU?authuser=0&hl=tr&rclk=1",
    "website_url": "https://www.agri1.it/",
    "rating_text": "4,5",
    "stars": null,
    "number_of_reviews": null,
    "price_level": "",
    "open_hours": "",
    "extraction_timestamp": "2025-06-07T17:10:17.127Z",
    "source_name": "google",
    "source_query": "Irrigation Equipment",
    "source_country": "IT",
    "country": "Italy",
    "state": "Emilia-Romagna",
    "city": "Scandiano"
  },
  {
    "source_id": "ChIJc_FRC6Ltf0cRdOFGl6sEcxM",
    "name": "Emmebi Agrotecnica",
    "category": "Emmebi Agrotecnica",
    "formatted_address": "4,5(123)",
    "phone_number": "+39059566838",
    "source_url": "https://www.google.com/maps/place/Emmebi+Agrotecnica/data=!4m7!3m6!1s0x477feda20b51f173:0x137304ab9746e174!8m2!3d44.7330703!4d10.9184999!16s%2Fg%2F1q62bql9t!19sChIJc_FRC6Ltf0cRdOFGl6sEcxM?authuser=0&hl=tr&rclk=1",
    "website_url": "https://www.gogoverde.it/",
    "rating_text": "4,5",
    "stars": null,
    "number_of_reviews": null,
    "price_level": "",
    "open_hours": "",
    "extraction_timestamp": "2025-06-07T17:10:17.129Z",
    "source_name": "google",
    "source_query": "Irrigation Equipment",
    "source_country": "IT",
    "country": "Italy",
    "state": "Emilia-Romagna",
    "city": "Scandiano"
  },
  {
    "source_id": "ChIJywYeExzdf0cRhfr55_LZC8w",
    "name": "Geocentro",
    "category": "Geocentro",
    "formatted_address": "3,8(5)",
    "phone_number": "+39059927676",
    "source_url": "https://www.google.com/maps/place/Geocentro/data=!4m7!3m6!1s0x477fdd1c131e06cb:0xcc0bd9f2e7f9fa85!8m2!3d44.5871226!4d11.0681616!16s%2Fg%2F11cn3pjh5j!19sChIJywYeExzdf0cRhfr55_LZC8w?authuser=0&hl=tr&rclk=1",
    "website_url": "https://www.geocentro.it/",
    "rating_text": "3,8",
    "stars": null,
    "number_of_reviews": null,
    "price_level": "",
    "open_hours": "",
    "extraction_timestamp": "2025-06-07T17:10:17.130Z",
    "source_name": "google",
    "source_query": "Irrigation Equipment",
    "source_country": "IT",
    "country": "Italy",
    "state": "Emilia-Romagna",
    "city": "Scandiano"
  },
  {
    "source_id": "ChIJQ0CSwgocgEcRVX3A3Ox6yyA",
    "name": "Gom-Plast",
    "category": "Gom-Plast",
    "formatted_address": "4,1(138)",
    "phone_number": "+390522382333",
    "source_url": "https://www.google.com/maps/place/Gom-Plast/data=!4m7!3m6!1s0x47801c0ac2924043:0x20cb7aecdcc07d55!8m2!3d44.7138804!4d10.6066999!16s%2Fg%2F1tcyd9rq!19sChIJQ0CSwgocgEcRVX3A3Ox6yyA?authuser=0&hl=tr&rclk=1",
    "website_url": "http://www.gomplast.it/",
    "rating_text": "4,1",
    "stars": null,
    "number_of_reviews": null,
    "price_level": "",
    "open_hours": "",
    "extraction_timestamp": "2025-06-07T17:10:17.131Z",
    "source_name": "google",
    "source_query": "Irrigation Equipment",
    "source_country": "IT",
    "country": "Italy",
    "state": "Emilia-Romagna",
    "city": "Scandiano"
  },
  {
    "source_id": "ChIJtVDkNgRFgEcRqc6umwWIJuI",
    "name": "Rm Spa",
    "category": "Rm Spa",
    "formatted_address": "4,6(81)",
    "phone_number": "+390521872321",
    "source_url": "https://www.google.com/maps/place/Rm+Spa/data=!4m7!3m6!1s0x4780450436e450b5:0xe22688059baecea9!8m2!3d44.9105406!4d10.2583785!16s%2Fg%2F12hl93byl!19sChIJtVDkNgRFgEcRqc6umwWIJuI?authuser=0&hl=tr&rclk=1",
    "website_url": "http://www.rmirrigation.com/",
    "rating_text": "4,6",
    "stars": null,
    "number_of_reviews": null,
    "price_level": "",
    "open_hours": "",
    "extraction_timestamp": "2025-06-07T17:10:17.133Z",
    "source_name": "google",
    "source_query": "Irrigation Equipment",
    "source_country": "IT",
    "country": "Italy",
    "state": "Emilia-Romagna",
    "city": "Scandiano"
  },
  {
    "source_id": "ChIJb8MGHf8PgEcRvsfXRlZ8l-o",
    "name": "O.C.R.E. Elettromeccanica",
    "category": "O.C.R.E. Elettromeccanica",
    "formatted_address": "5,0(2)",
    "phone_number": "+390522882335",
    "source_url": "https://www.google.com/maps/place/O.C.R.E.+Elettromeccanica/data=!4m7!3m6!1s0x47800fff1d06c36f:0xea977c5646d7c7be!8m2!3d44.6625805!4d10.488149!16s%2Fg%2F1tdjvwds!19sChIJb8MGHf8PgEcRvsfXRlZ8l-o?authuser=0&hl=tr&rclk=1",
    "website_url": "",
    "rating_text": "5,0",
    "stars": null,
    "number_of_reviews": null,
    "price_level": "",
    "open_hours": "",
    "extraction_timestamp": "2025-06-07T17:10:17.134Z",
    "source_name": "google",
    "source_query": "Irrigation Equipment",
    "source_country": "IT",
    "country": "Italy",
    "state": "Emilia-Romagna",
    "city": "Scandiano"
  },
  {
    "source_id": "ChIJgVjbdx7df0cRsMjOLRKEzBA",
    "name": "Geocentro",
    "category": "Geocentro",
    "formatted_address": "4,4(87)",
    "phone_number": "+39059926168",
    "source_url": "https://www.google.com/maps/place/Geocentro/data=!4m7!3m6!1s0x477fdd1e77db5881:0x10cc84122dcec8b0!8m2!3d44.5868616!4d11.070717!16s%2Fg%2F11cn3ph0_q!19sChIJgVjbdx7df0cRsMjOLRKEzBA?authuser=0&hl=tr&rclk=1",
    "website_url": "https://www.geocentrosrl.it/",
    "rating_text": "4,4",
    "stars": null,
    "number_of_reviews": null,
    "price_level": "",
    "open_hours": "",
    "extraction_timestamp": "2025-06-07T17:10:17.136Z",
    "source_name": "google",
    "source_query": "Irrigation Equipment",
    "source_country": "IT",
    "country": "Italy",
    "state": "Emilia-Romagna",
    "city": "Scandiano"
  }
]
