[
  {
    "source_id": "ChIJ-eLL5ShMfkcRkJZIiiw4RaU",
    "name": "P.M. di Peverati M. srl",
    "category": "P.M. di Peverati M. srl",
    "formatted_address": "4,7(50)",
    "phone_number": "+39053294452",
    "source_url": "https://www.google.com/maps/place/P.M.+di+Peverati+M.+srl/data=!4m7!3m6!1s0x477e4c28e5cbe2f9:0xa545382c8a489690!8m2!3d44.8147477!4d11.5887959!16s%2Fg%2F1thp6v8g!19sChIJ-eLL5ShMfkcRkJZIiiw4RaU?authuser=0&hl=tr&rclk=1",
    "website_url": "http://www.pmpeverati.it/",
    "rating_text": "4,7",
    "stars": null,
    "number_of_reviews": null,
    "price_level": "",
    "open_hours": "",
    "extraction_timestamp": "2025-06-07T15:57:34.100Z",
    "source_name": "google",
    "source_query": "Irrigation Equipment",
    "source_country": "IT",
    "country": "Italy",
    "state": "Emilia-Romagna",
    "city": "Scortichino"
  },
  {
    "source_id": "ChIJcQG6ul7df0cR3VxKiu5OPBs",
    "name": "Scova Impianti Srl",
    "category": "Scova Impianti Srl",
    "formatted_address": "4,5(64)",
    "phone_number": "+39059923202",
    "source_url": "https://www.google.com/maps/place/Scova+Impianti+Srl/data=!4m7!3m6!1s0x477fdd5ebaba0171:0x1b3c4eee8a4a5cdd!8m2!3d44.6018135!4d11.032294!16s%2Fg%2F1tfzwbfb!19sChIJcQG6ul7df0cR3VxKiu5OPBs?authuser=0&hl=tr&rclk=1",
    "website_url": "https://www.scovaimpianti.com/",
    "rating_text": "4,5",
    "stars": null,
    "number_of_reviews": null,
    "price_level": "",
    "open_hours": "",
    "extraction_timestamp": "2025-06-07T15:57:34.101Z",
    "source_name": "google",
    "source_query": "Irrigation Equipment",
    "source_country": "IT",
    "country": "Italy",
    "state": "Emilia-Romagna",
    "city": "Scortichino"
  },
  {
    "source_id": "ChIJYW1rDAq0f0cRAl-KcsFLNuQ",
    "name": "SGARZI SRL",
    "category": "SGARZI SRL",
    "formatted_address": "4,7(24)",
    "phone_number": "+390532845439",
    "source_url": "https://www.google.com/maps/place/SGARZI+SRL/data=!4m7!3m6!1s0x477fb40a0c6b6d61:0xe4364bc1728a5f02!8m2!3d44.8070558!4d11.4252564!16s%2Fg%2F11b6hyvw05!19sChIJYW1rDAq0f0cRAl-KcsFLNuQ?authuser=0&hl=tr&rclk=1",
    "website_url": "http://www.sgarzisrl.com/",
    "rating_text": "4,7",
    "stars": null,
    "number_of_reviews": null,
    "price_level": "",
    "open_hours": "",
    "extraction_timestamp": "2025-06-07T15:57:34.101Z",
    "source_name": "google",
    "source_query": "Irrigation Equipment",
    "source_country": "IT",
    "country": "Italy",
    "state": "Emilia-Romagna",
    "city": "Scortichino"
  },
  {
    "source_id": "ChIJs8LDZhCuf0cRZ0z2E5ytnM0",
    "name": "C.I.T. srl di Benea & Benassi dal 1964 Termoidraulica",
    "category": "C.I.T. srl di Benea & Benassi dal 1964 Termoidraulica",
    "formatted_address": "4,5(11)",
    "phone_number": "+390532892055",
    "source_url": "https://www.google.com/maps/place/C.I.T.+srl+di+Benea+%26+Benassi+dal+1964+Termoidraulica/data=!4m7!3m6!1s0x477fae1066c3c2b3:0xcd9cad9c13f64c67!8m2!3d44.888225!4d11.4159918!16s%2Fg%2F1tx8s12s!19sChIJs8LDZhCuf0cRZ0z2E5ytnM0?authuser=0&hl=tr&rclk=1",
    "website_url": "http://www.citimp.it/",
    "rating_text": "4,5",
    "stars": null,
    "number_of_reviews": null,
    "price_level": "",
    "open_hours": "",
    "extraction_timestamp": "2025-06-07T15:57:34.102Z",
    "source_name": "google",
    "source_query": "Irrigation Equipment",
    "source_country": "IT",
    "country": "Italy",
    "state": "Emilia-Romagna",
    "city": "Scortichino"
  }
]
