[
  {
    "source_id": "ChIJR0rOGATJfg4R-orqtt_TB64",
    "name": "Ferari Impianti | Elettricista e Idraulico",
    "category": "Ferari Impianti | Elettricista e Idraulico",
    "formatted_address": "4,9(38)",
    "phone_number": "+393926322720",
    "source_url": "https://www.google.com/maps/place/Ferari+Impianti+%7C+Elettricista+e+Idraulico/data=!4m7!3m6!1s0xe7ec90418ce4a47:0xae07d3dfb6ea8afa!8m2!3d44.5081346!4d10.902595!16s%2Fg%2F11l6qcqh68!19sChIJR0rOGATJfg4R-orqtt_TB64?authuser=0&hl=tr&rclk=1",
    "website_url": "",
    "rating_text": "4,9",
    "stars": null,
    "number_of_reviews": null,
    "price_level": "",
    "open_hours": "",
    "extraction_timestamp": "2025-06-07T15:53:07.063Z",
    "source_name": "google",
    "source_query": "Irrigation Equipment",
    "source_country": "IT",
    "country": "Italy",
    "state": "Emilia-Romagna",
    "city": "Serramazzoni"
  },
  {
    "source_id": "ChIJJ6V6lMDgf0cR1SpFsfjDuHg",
    "name": "Ocmis Irrigazione Spa",
    "category": "Ocmis Irrigazione Spa",
    "formatted_address": "3,5(31)",
    "phone_number": "+39059702150",
    "source_url": "https://www.google.com/maps/place/Ocmis+Irrigazione+Spa/data=!4m7!3m6!1s0x477fe0c0947aa527:0x78b8c3f8b1452ad5!8m2!3d44.530494!4d10.9794578!16s%2Fg%2F1vd3tn19!19sChIJJ6V6lMDgf0cR1SpFsfjDuHg?authuser=0&hl=tr&rclk=1",
    "website_url": "http://www.ocmis-irrigazione.it/",
    "rating_text": "3,5",
    "stars": null,
    "number_of_reviews": null,
    "price_level": "",
    "open_hours": "",
    "extraction_timestamp": "2025-06-07T15:53:07.063Z",
    "source_name": "google",
    "source_query": "Irrigation Equipment",
    "source_country": "IT",
    "country": "Italy",
    "state": "Emilia-Romagna",
    "city": "Serramazzoni"
  },
  {
    "source_id": "ChIJ49T8MMKtKhMRVesz9i8vS5Y",
    "name": "Presservice manodopera specializzata tecnici meccanici montatori e manutentori macchine automatiche",
    "category": "Presservice manodopera specializzata tecnici meccanici montatori e manutentori macchine automatiche",
    "formatted_address": "4,7(3)",
    "phone_number": "+393336051763",
    "source_url": "https://www.google.com/maps/place/Presservice+manodopera+specializzata+tecnici+meccanici+montatori+e+manutentori+macchine+automatiche/data=!4m7!3m6!1s0x132aadc230fcd4e3:0x964b2f2ff633eb55!8m2!3d44.4290019!4d10.7751629!16s%2Fg%2F11cmzl3tv4!19sChIJ49T8MMKtKhMRVesz9i8vS5Y?authuser=0&hl=tr&rclk=1",
    "website_url": "https://www.manutenzionemontaggio.it/",
    "rating_text": "4,7",
    "stars": null,
    "number_of_reviews": null,
    "price_level": "",
    "open_hours": "",
    "extraction_timestamp": "2025-06-07T15:53:07.064Z",
    "source_name": "google",
    "source_query": "Irrigation Equipment",
    "source_country": "IT",
    "country": "Italy",
    "state": "Emilia-Romagna",
    "city": "Serramazzoni"
  },
  {
    "source_id": "ChIJcQG6ul7df0cR3VxKiu5OPBs",
    "name": "Scova Impianti Srl",
    "category": "Scova Impianti Srl",
    "formatted_address": "4,5(64)",
    "phone_number": "+39059923202",
    "source_url": "https://www.google.com/maps/place/Scova+Impianti+Srl/data=!4m7!3m6!1s0x477fdd5ebaba0171:0x1b3c4eee8a4a5cdd!8m2!3d44.6018135!4d11.032294!16s%2Fg%2F1tfzwbfb!19sChIJcQG6ul7df0cR3VxKiu5OPBs?authuser=0&hl=tr&rclk=1",
    "website_url": "https://www.scovaimpianti.com/",
    "rating_text": "4,5",
    "stars": null,
    "number_of_reviews": null,
    "price_level": "",
    "open_hours": "",
    "extraction_timestamp": "2025-06-07T15:53:07.064Z",
    "source_name": "google",
    "source_query": "Irrigation Equipment",
    "source_country": "IT",
    "country": "Italy",
    "state": "Emilia-Romagna",
    "city": "Serramazzoni"
  },
  {
    "source_id": "ChIJGa-6z_qtKhMRDPtyURlxibw",
    "name": "Ferramenta Iacconi di Dallari Marco",
    "category": "Ferramenta Iacconi di Dallari Marco",
    "formatted_address": "4,9(131)",
    "phone_number": "+390536952057",
    "source_url": "https://www.google.com/maps/place/Ferramenta+Iacconi+di+Dallari+Marco/data=!4m7!3m6!1s0x132aadfacfbaaf19:0xbc8971195172fb0c!8m2!3d44.4221677!4d10.7893889!16s%2Fg%2F1xtdztlx!19sChIJGa-6z_qtKhMRDPtyURlxibw?authuser=0&hl=tr&rclk=1",
    "website_url": "http://www.ferramentaiacconi.it/",
    "rating_text": "4,9",
    "stars": null,
    "number_of_reviews": null,
    "price_level": "",
    "open_hours": "",
    "extraction_timestamp": "2025-06-07T15:53:07.064Z",
    "source_name": "google",
    "source_query": "Irrigation Equipment",
    "source_country": "IT",
    "country": "Italy",
    "state": "Emilia-Romagna",
    "city": "Serramazzoni"
  },
  {
    "source_id": "ChIJhT-kpAXff0cRKJQqKYwIulA",
    "name": "Irrigo",
    "category": "Irrigo",
    "formatted_address": "4,7(36)",
    "phone_number": "+393473096499",
    "source_url": "https://www.google.com/maps/place/Irrigo/data=!4m7!3m6!1s0x477fdf05a4a43f85:0x50ba088c292a9428!8m2!3d44.5018172!4d11.005272!16s%2Fg%2F11hdjcp5pk!19sChIJhT-kpAXff0cRKJQqKYwIulA?authuser=0&hl=tr&rclk=1",
    "website_url": "https://www.irrigovignola.it/",
    "rating_text": "4,7",
    "stars": null,
    "number_of_reviews": null,
    "price_level": "",
    "open_hours": "",
    "extraction_timestamp": "2025-06-07T15:53:07.065Z",
    "source_name": "google",
    "source_query": "Irrigation Equipment",
    "source_country": "IT",
    "country": "Italy",
    "state": "Emilia-Romagna",
    "city": "Serramazzoni"
  },
  {
    "source_id": "ChIJHQGz6dXof0cRPD2igQWHtxo",
    "name": "Hidrostar",
    "category": "Hidrostar",
    "formatted_address": "4,8(33)",
    "phone_number": "+39059251056",
    "source_url": "https://www.google.com/maps/place/Hidrostar/data=!4m7!3m6!1s0x477fe8d5e9b3011d:0x1ab7870581a23d3c!8m2!3d44.6584919!4d10.9641811!16s%2Fg%2F1tf9rp0c!19sChIJHQGz6dXof0cRPD2igQWHtxo?authuser=0&hl=tr&rclk=1",
    "website_url": "http://www.hidrostar.it/",
    "rating_text": "4,8",
    "stars": null,
    "number_of_reviews": null,
    "price_level": "",
    "open_hours": "",
    "extraction_timestamp": "2025-06-07T15:53:07.065Z",
    "source_name": "google",
    "source_query": "Irrigation Equipment",
    "source_country": "IT",
    "country": "Italy",
    "state": "Emilia-Romagna",
    "city": "Serramazzoni"
  },
  {
    "source_id": "ChIJJ6V6lMDgf0cRkL2jf5B3MwQ",
    "name": "Scova Engineering Spa",
    "category": "Scova Engineering Spa",
    "formatted_address": "5,0(2)",
    "phone_number": "+39059702012",
    "source_url": "https://www.google.com/maps/place/Scova+Engineering+Spa/data=!4m7!3m6!1s0x477fe0c0947aa527:0x43377907fa3bd90!8m2!3d44.5304758!4d10.9796265!16s%2Fg%2F1tql3mky!19sChIJJ6V6lMDgf0cRkL2jf5B3MwQ?authuser=0&hl=tr&rclk=1",
    "website_url": "https://www.scova-engineering.it/",
    "rating_text": "5,0",
    "stars": null,
    "number_of_reviews": null,
    "price_level": "",
    "open_hours": "",
    "extraction_timestamp": "2025-06-07T15:53:07.065Z",
    "source_name": "google",
    "source_query": "Irrigation Equipment",
    "source_country": "IT",
    "country": "Italy",
    "state": "Emilia-Romagna",
    "city": "Serramazzoni"
  },
  {
    "source_id": "ChIJDSCUNPqtKhMRnlSZajojDWY",
    "name": "Ferramenta Bacchi",
    "category": "Ferramenta Bacchi",
    "formatted_address": "4,5(65)",
    "phone_number": "+390536952067",
    "source_url": "https://www.google.com/maps/place/Ferramenta+Bacchi/data=!4m7!3m6!1s0x132aadfa3494200d:0x660d233a6a99549e!8m2!3d44.4226641!4d10.7895925!16s%2Fg%2F1tf5539h!19sChIJDSCUNPqtKhMRnlSZajojDWY?authuser=0&hl=tr&rclk=1",
    "website_url": "",
    "rating_text": "4,5",
    "stars": null,
    "number_of_reviews": null,
    "price_level": "",
    "open_hours": "",
    "extraction_timestamp": "2025-06-07T15:53:07.066Z",
    "source_name": "google",
    "source_query": "Irrigation Equipment",
    "source_country": "IT",
    "country": "Italy",
    "state": "Emilia-Romagna",
    "city": "Serramazzoni"
  },
  {
    "source_id": "ChIJ8Wmd7nWzKhMRKmGkc0mh2vo",
    "name": "Idraulica F&A IMPIANTI CIVILI E INDUSTRIALI",
    "category": "Idraulica F&A IMPIANTI CIVILI E INDUSTRIALI",
    "formatted_address": "",
    "phone_number": "+393807914447",
    "source_url": "https://www.google.com/maps/place/Idraulica+F%26A+IMPIANTI+CIVILI+E+INDUSTRIALI/data=!4m7!3m6!1s0x132ab375ee9d69f1:0xfadaa14973a4612a!8m2!3d44.412298!4d10.8489878!16s%2Fg%2F11wnmqt301!19sChIJ8Wmd7nWzKhMRKmGkc0mh2vo?authuser=0&hl=tr&rclk=1",
    "website_url": "",
    "rating_text": "",
    "stars": null,
    "number_of_reviews": null,
    "price_level": "",
    "open_hours": "",
    "extraction_timestamp": "2025-06-07T15:53:07.066Z",
    "source_name": "google",
    "source_query": "Irrigation Equipment",
    "source_country": "IT",
    "country": "Italy",
    "state": "Emilia-Romagna",
    "city": "Serramazzoni"
  },
  {
    "source_id": "ChIJq5ws1QCuKhMR64pr9IyV7zM",
    "name": "Ecu Discount",
    "category": "Ecu Discount",
    "formatted_address": "4,3(252)",
    "phone_number": "+390536950172",
    "source_url": "https://www.google.com/maps/place/Ecu+Discount/data=!4m7!3m6!1s0x132aae00d52c9cab:0x33ef958cf46b8aeb!8m2!3d44.4131967!4d10.7953585!16s%2Fg%2F1tf0b2fk!19sChIJq5ws1QCuKhMR64pr9IyV7zM?authuser=0&hl=tr&rclk=1",
    "website_url": "",
    "rating_text": "4,3",
    "stars": null,
    "number_of_reviews": null,
    "price_level": "",
    "open_hours": "",
    "extraction_timestamp": "2025-06-07T15:53:07.067Z",
    "source_name": "google",
    "source_query": "Irrigation Equipment",
    "source_country": "IT",
    "country": "Italy",
    "state": "Emilia-Romagna",
    "city": "Serramazzoni"
  },
  {
    "source_id": "ChIJUakNDNT7wGoRqa1WdWa4Nmk",
    "name": "Ferari Elettricista & Idraulico",
    "category": "Ferari Elettricista & Idraulico",
    "formatted_address": "",
    "phone_number": "+393487890066",
    "source_url": "https://www.google.com/maps/place/Ferari+Elettricista+%26+Idraulico/data=!4m7!3m6!1s0x6ac0fbd40c0da951:0x6936b8667556ada9!8m2!3d44.5951496!4d10.9928672!16s%2Fg%2F11rkc7q70m!19sChIJUakNDNT7wGoRqa1WdWa4Nmk?authuser=0&hl=tr&rclk=1",
    "website_url": "",
    "rating_text": "",
    "stars": null,
    "number_of_reviews": null,
    "price_level": "",
    "open_hours": "",
    "extraction_timestamp": "2025-06-07T15:53:07.067Z",
    "source_name": "google",
    "source_query": "Irrigation Equipment",
    "source_country": "IT",
    "country": "Italy",
    "state": "Emilia-Romagna",
    "city": "Serramazzoni"
  },
  {
    "source_id": "ChIJbyup4NavKhMRawz0lr1X6CI",
    "name": "Termoidraulica Cristian Pes Ass.Nordica Extraflame",
    "category": "Termoidraulica Cristian Pes Ass.Nordica Extraflame",
    "formatted_address": "5,0(2)",
    "phone_number": "+393464711484",
    "source_url": "https://www.google.com/maps/place/Termoidraulica+Cristian+Pes+Ass.Nordica+Extraflame/data=!4m7!3m6!1s0x132aafd6e0a92b6f:0x22e857bd96f40c6b!8m2!3d44.3973699!4d10.7946489!16s%2Fg%2F11t4hjby_r!19sChIJbyup4NavKhMRawz0lr1X6CI?authuser=0&hl=tr&rclk=1",
    "website_url": "",
    "rating_text": "5,0",
    "stars": null,
    "number_of_reviews": null,
    "price_level": "",
    "open_hours": "",
    "extraction_timestamp": "2025-06-07T15:53:07.067Z",
    "source_name": "google",
    "source_query": "Irrigation Equipment",
    "source_country": "IT",
    "country": "Italy",
    "state": "Emilia-Romagna",
    "city": "Serramazzoni"
  }
]
