[
  {
    "source_id": "ChIJI83-blO7KhMRVUtlzM9Q-Hs",
    "name": "Ferramenta Bonacorsi",
    "category": "Ferramenta Bonacorsi",
    "formatted_address": "4,5(113)",
    "phone_number": "+39053661251",
    "source_url": "https://www.google.com/maps/place/Ferramenta+Bonacorsi/data=!4m7!3m6!1s0x132abb536efecd23:0x7bf850cfcc654b55!8m2!3d44.2316945!4d10.7818986!16s%2Fg%2F1td82b85!19sChIJI83-blO7KhMRVUtlzM9Q-Hs?authuser=0&hl=tr&rclk=1",
    "website_url": "",
    "rating_text": "4,5",
    "stars": null,
    "number_of_reviews": null,
    "price_level": "",
    "open_hours": "",
    "extraction_timestamp": "2025-06-07T16:42:22.492Z",
    "source_name": "google",
    "source_query": "Irrigation Equipment",
    "source_country": "IT",
    "country": "Italy",
    "state": "Emilia-Romagna",
    "city": "Sestola"
  },
  {
    "source_id": "ChIJcQG6ul7df0cR3VxKiu5OPBs",
    "name": "Scova Impianti Srl",
    "category": "Scova Impianti Srl",
    "formatted_address": "4,5(64)",
    "phone_number": "+39059923202",
    "source_url": "https://www.google.com/maps/place/Scova+Impianti+Srl/data=!4m7!3m6!1s0x477fdd5ebaba0171:0x1b3c4eee8a4a5cdd!8m2!3d44.6018135!4d11.032294!16s%2Fg%2F1tfzwbfb!19sChIJcQG6ul7df0cR3VxKiu5OPBs?authuser=0&hl=tr&rclk=1",
    "website_url": "",
    "rating_text": "4,5",
    "stars": null,
    "number_of_reviews": null,
    "price_level": "",
    "open_hours": "",
    "extraction_timestamp": "2025-06-07T16:42:22.493Z",
    "source_name": "google",
    "source_query": "Irrigation Equipment",
    "source_country": "IT",
    "country": "Italy",
    "state": "Emilia-Romagna",
    "city": "Sestola"
  },
  {
    "source_id": "ChIJVUQ_eB2jKhMRV9OZvG9UxFQ",
    "name": "Ferramenta Magnani Aldo & C. Snc",
    "category": "Ferramenta Magnani Aldo & C. Snc",
    "formatted_address": "4,5(4)",
    "phone_number": "+39053662576",
    "source_url": "https://www.google.com/maps/place/Ferramenta+Magnani+Aldo+%26+C.+Snc/data=!4m7!3m6!1s0x132aa31d783f4455:0x54c4546fbc99d357!8m2!3d44.2296928!4d10.7688488!16s%2Fg%2F11byyrll2b!19sChIJVUQ_eB2jKhMRV9OZvG9UxFQ?authuser=0&hl=tr&rclk=1",
    "website_url": "",
    "rating_text": "4,5",
    "stars": null,
    "number_of_reviews": null,
    "price_level": "",
    "open_hours": "",
    "extraction_timestamp": "2025-06-07T16:42:22.493Z",
    "source_name": "google",
    "source_query": "Irrigation Equipment",
    "source_country": "IT",
    "country": "Italy",
    "state": "Emilia-Romagna",
    "city": "Sestola"
  },
  {
    "source_id": "ChIJhT-kpAXff0cRKJQqKYwIulA",
    "name": "Irrigo",
    "category": "Irrigo",
    "formatted_address": "4,7(36)",
    "phone_number": "+393473096499",
    "source_url": "https://www.google.com/maps/place/Irrigo/data=!4m7!3m6!1s0x477fdf05a4a43f85:0x50ba088c292a9428!8m2!3d44.5018172!4d11.005272!16s%2Fg%2F11hdjcp5pk!19sChIJhT-kpAXff0cRKJQqKYwIulA?authuser=0&hl=tr&rclk=1",
    "website_url": "",
    "rating_text": "4,7",
    "stars": null,
    "number_of_reviews": null,
    "price_level": "",
    "open_hours": "",
    "extraction_timestamp": "2025-06-07T16:42:22.494Z",
    "source_name": "google",
    "source_query": "Irrigation Equipment",
    "source_country": "IT",
    "country": "Italy",
    "state": "Emilia-Romagna",
    "city": "Sestola"
  },
  {
    "source_id": "ChIJUXggeQCjKhMRbN6x4zrwDWc",
    "name": "Animal Spirit",
    "category": "Animal Spirit",
    "formatted_address": "5,0(1)",
    "phone_number": "+393928605828",
    "source_url": "https://www.google.com/maps/place/Animal+Spirit/data=!4m7!3m6!1s0x132aa30079207851:0x670df03ae3b1de6c!8m2!3d44.230678!4d10.7694297!16s%2Fg%2F11wmrls13n!19sChIJUXggeQCjKhMRbN6x4zrwDWc?authuser=0&hl=tr&rclk=1",
    "website_url": "",
    "rating_text": "5,0",
    "stars": null,
    "number_of_reviews": null,
    "price_level": "",
    "open_hours": "",
    "extraction_timestamp": "2025-06-07T16:42:22.494Z",
    "source_name": "google",
    "source_query": "Irrigation Equipment",
    "source_country": "IT",
    "country": "Italy",
    "state": "Emilia-Romagna",
    "city": "Sestola"
  },
  {
    "source_id": "ChIJv7cgqCOjKhMRGuw3MPk_XvQ",
    "name": "Spesa Fresca",
    "category": "Spesa Fresca",
    "formatted_address": "3,9(57)",
    "phone_number": "",
    "source_url": "https://www.google.com/maps/place/Spesa+Fresca/data=!4m7!3m6!1s0x132aa323a820b7bf:0xf45e3ff93037ec1a!8m2!3d44.2351031!4d10.7808597!16s%2Fg%2F11h3ytmhvj!19sChIJv7cgqCOjKhMRGuw3MPk_XvQ?authuser=0&hl=tr&rclk=1",
    "website_url": "",
    "rating_text": "3,9",
    "stars": null,
    "number_of_reviews": null,
    "price_level": "",
    "open_hours": "",
    "extraction_timestamp": "2025-06-07T16:42:22.494Z",
    "source_name": "google",
    "source_query": "Irrigation Equipment",
    "source_country": "IT",
    "country": "Italy",
    "state": "Emilia-Romagna",
    "city": "Sestola"
  }
]
