[
  {
    "source_id": "ChIJD5eUz5NKKxMRiXFKArkq8n8",
    "name": "S.I.G.E.A. di Bittini Vittorio e C. snc - irrigazione, giardinaggio, agricoltura, fontane",
    "category": "S.I.G.E.A. di Bittini Vittorio e C. snc - irrigazione, giardinaggio, agricoltura, fontane",
    "formatted_address": "S.I.G.E.A. di Bittini Vittorio e C. snc - irrigazione, giardinaggio, agricoltura, fontane",
    "phone_number": "+390542642326",
    "source_url": "https://www.google.com/maps/place/S.I.G.E.A.+di+Bittini+Vittorio+e+C.+snc+-+irrigazione,+giardinaggio,+agricoltura,+fontane/data=!4m7!3m6!1s0x132b4a93cf94970f:0x7ff22ab9024a7189!8m2!3d44.3736772!4d11.7277152!16s%2Fg%2F1tdlqxq3!19sChIJD5eUz5NKKxMRiXFKArkq8n8?authuser=0&hl=tr&rclk=1",
    "website_url": "",
    "rating_text": "4,7",
    "stars": null,
    "number_of_reviews": null,
    "price_level": "",
    "open_hours": "",
    "extraction_timestamp": "2025-06-07T16:05:37.554Z",
    "source_name": "google",
    "source_query": "Irrigation Equipment",
    "source_country": "IT",
    "country": "Italy",
    "state": "Emilia-Romagna",
    "city": "Sesto Imolese"
  },
  {
    "source_id": "ChIJ7eRFVpZKKxMRoa-GB8plGL8",
    "name": "STS SISTEMI - Aria Compressa e Impianti Verniciatura",
    "category": "STS SISTEMI - Aria Compressa e Impianti Verniciatura",
    "formatted_address": "5,0(5)",
    "phone_number": "+390542641113",
    "source_url": "https://www.google.com/maps/place/STS+SISTEMI+-+Aria+Compressa+e+Impianti+Verniciatura/data=!4m7!3m6!1s0x132b4a965645e4ed:0xbf1865ca0786afa1!8m2!3d44.376825!4d11.7211954!16s%2Fg%2F1tl6mfnj!19sChIJ7eRFVpZKKxMRoa-GB8plGL8?authuser=0&hl=tr&rclk=1",
    "website_url": "http://www.stssistemi.it/",
    "rating_text": "5,0",
    "stars": null,
    "number_of_reviews": null,
    "price_level": "",
    "open_hours": "",
    "extraction_timestamp": "2025-06-07T16:05:37.555Z",
    "source_name": "google",
    "source_query": "Irrigation Equipment",
    "source_country": "IT",
    "country": "Italy",
    "state": "Emilia-Romagna",
    "city": "Sesto Imolese"
  },
  {
    "source_id": "ChIJ9XQX6-IhfkcR4hMLeIBTXBo",
    "name": "Depuracque Imola",
    "category": "Depuracque Imola",
    "formatted_address": "5,0(3)",
    "phone_number": "+393479032737",
    "source_url": "https://www.google.com/maps/place/Depuracque+Imola/data=!4m7!3m6!1s0x477e21e2eb1774f5:0x1a5c5380780b13e2!8m2!3d44.4355116!4d10.9767761!16s%2Fg%2F11dztqkssx!19sChIJ9XQX6-IhfkcR4hMLeIBTXBo?authuser=0&hl=tr&rclk=1",
    "website_url": "https://www.depuracque-imola.com/",
    "rating_text": "5,0",
    "stars": null,
    "number_of_reviews": null,
    "price_level": "",
    "open_hours": "",
    "extraction_timestamp": "2025-06-07T16:05:37.556Z",
    "source_name": "google",
    "source_query": "Irrigation Equipment",
    "source_country": "IT",
    "country": "Italy",
    "state": "Emilia-Romagna",
    "city": "Sesto Imolese"
  },
  {
    "source_id": "ChIJ0_3QpkUefkcRwh8RLYBDqjU",
    "name": "Elettrotecnica Imolese S.U.R.L.",
    "category": "Elettrotecnica Imolese S.U.R.L.",
    "formatted_address": "4,8(18)",
    "phone_number": "+39054258511",
    "source_url": "https://www.google.com/maps/place/Elettrotecnica+Imolese+S.U.R.L./data=!4m7!3m6!1s0x477e1e45a6d0fdd3:0x35aa43802d111fc2!8m2!3d44.4146224!4d11.7802945!16s%2Fg%2F1tlc_026!19sChIJ0_3QpkUefkcRwh8RLYBDqjU?authuser=0&hl=tr&rclk=1",
    "website_url": "http://www.eti.it/",
    "rating_text": "4,8",
    "stars": null,
    "number_of_reviews": null,
    "price_level": "",
    "open_hours": "",
    "extraction_timestamp": "2025-06-07T16:05:37.558Z",
    "source_name": "google",
    "source_query": "Irrigation Equipment",
    "source_country": "IT",
    "country": "Italy",
    "state": "Emilia-Romagna",
    "city": "Sesto Imolese"
  },
  {
    "source_id": "ChIJh3Nd8G0sfkcR_m7VewEmxXM",
    "name": "Irrigarden",
    "category": "Irrigarden",
    "formatted_address": "4,7(158)",
    "phone_number": "+39051782013",
    "source_url": "https://www.google.com/maps/place/Irrigarden/data=!4m7!3m6!1s0x477e2c6df05d7387:0x73c526017bd56efe!8m2!3d44.5096266!4d11.4390897!16s%2Fg%2F1vgw_l7w!19sChIJh3Nd8G0sfkcR_m7VewEmxXM?authuser=0&hl=tr&rclk=1",
    "website_url": "https://www.irrigarden-bo.it/",
    "rating_text": "4,7",
    "stars": null,
    "number_of_reviews": null,
    "price_level": "",
    "open_hours": "",
    "extraction_timestamp": "2025-06-07T16:05:37.560Z",
    "source_name": "google",
    "source_query": "Irrigation Equipment",
    "source_country": "IT",
    "country": "Italy",
    "state": "Emilia-Romagna",
    "city": "Sesto Imolese"
  },
  {
    "source_id": "ChIJcQG6ul7df0cR3VxKiu5OPBs",
    "name": "Scova Impianti Srl",
    "category": "Scova Impianti Srl",
    "formatted_address": "4,5(64)",
    "phone_number": "+39059923202",
    "source_url": "https://www.google.com/maps/place/Scova+Impianti+Srl/data=!4m7!3m6!1s0x477fdd5ebaba0171:0x1b3c4eee8a4a5cdd!8m2!3d44.6018135!4d11.032294!16s%2Fg%2F1tfzwbfb!19sChIJcQG6ul7df0cR3VxKiu5OPBs?authuser=0&hl=tr&rclk=1",
    "website_url": "https://www.scovaimpianti.com/",
    "rating_text": "4,5",
    "stars": null,
    "number_of_reviews": null,
    "price_level": "",
    "open_hours": "",
    "extraction_timestamp": "2025-06-07T16:05:37.562Z",
    "source_name": "google",
    "source_query": "Irrigation Equipment",
    "source_country": "IT",
    "country": "Italy",
    "state": "Emilia-Romagna",
    "city": "Sesto Imolese"
  },
  {
    "source_id": "ChIJQ8fJol1SKxMRShirn3slxH4",
    "name": "Tecnir",
    "category": "Tecnir",
    "formatted_address": "4,4(17)",
    "phone_number": "+390546641026",
    "source_url": "https://www.google.com/maps/place/Tecnir/data=!4m7!3m6!1s0x132b525da2c9c743:0x7ec4257b9fab184a!8m2!3d44.363732!4d11.935557!16s%2Fg%2F1vfps_3m!19sChIJQ8fJol1SKxMRShirn3slxH4?authuser=0&hl=tr&rclk=1",
    "website_url": "https://www.tecnirirrigazione.it/",
    "rating_text": "4,4",
    "stars": null,
    "number_of_reviews": null,
    "price_level": "",
    "open_hours": "",
    "extraction_timestamp": "2025-06-07T16:05:37.563Z",
    "source_name": "google",
    "source_query": "Irrigation Equipment",
    "source_country": "IT",
    "country": "Italy",
    "state": "Emilia-Romagna",
    "city": "Sesto Imolese"
  },
  {
    "source_id": "ChIJ0QARKuMhfkcR5IgwM6VNlH4",
    "name": "Crai Pagliuti Sesto Imolese",
    "category": "Crai Pagliuti Sesto Imolese",
    "formatted_address": "4,4(134)",
    "phone_number": "+39054276045",
    "source_url": "https://www.google.com/maps/place/Crai+Pagliuti+Sesto+Imolese/data=!4m7!3m6!1s0x477e21e32a1100d1:0x7e944da5333088e4!8m2!3d44.4607338!4d11.7298472!16s%2Fg%2F1tmk7b9k!19sChIJ0QARKuMhfkcR5IgwM6VNlH4?authuser=0&hl=tr&rclk=1",
    "website_url": "https://www.crai-supermercati.it/punto-vendita/352-crai-imola-sesto-imolese/",
    "rating_text": "4,4",
    "stars": null,
    "number_of_reviews": null,
    "price_level": "",
    "open_hours": "",
    "extraction_timestamp": "2025-06-07T16:05:37.564Z",
    "source_name": "google",
    "source_query": "Irrigation Equipment",
    "source_country": "IT",
    "country": "Italy",
    "state": "Emilia-Romagna",
    "city": "Sesto Imolese"
  },
  {
    "source_id": "ChIJyXgg68QrfkcRAaJCOMJ3PxY",
    "name": "hidrisistem",
    "category": "hidrisistem",
    "formatted_address": "5,0(1)",
    "phone_number": "+39366448310824",
    "source_url": "https://www.google.com/maps/place/hidrisistem/data=!4m7!3m6!1s0x477e2bc4eb2078c9:0x163f77c23842a201!8m2!3d44.496029!4d11.402638!16s%2Fg%2F11w_zjhjy3!19sChIJyXgg68QrfkcRAaJCOMJ3PxY?authuser=0&hl=tr&rclk=1",
    "website_url": "",
    "rating_text": "5,0",
    "stars": null,
    "number_of_reviews": null,
    "price_level": "",
    "open_hours": "",
    "extraction_timestamp": "2025-06-07T16:05:37.565Z",
    "source_name": "google",
    "source_query": "Irrigation Equipment",
    "source_country": "IT",
    "country": "Italy",
    "state": "Emilia-Romagna",
    "city": "Sesto Imolese"
  }
]
