[
  {
    "source_id": "ChIJc_FRC6Ltf0cRdOFGl6sEcxM",
    "name": "Emmebi Agrotecnica",
    "category": "Emmebi Agrotecnica",
    "formatted_address": "4,5(123)",
    "phone_number": "+39059566838",
    "source_url": "https://www.google.com/maps/place/Emmebi+Agrotecnica/data=!4m7!3m6!1s0x477feda20b51f173:0x137304ab9746e174!8m2!3d44.7330703!4d10.9184999!16s%2Fg%2F1q62bql9t!19sChIJc_FRC6Ltf0cRdOFGl6sEcxM?authuser=0&hl=tr&rclk=1",
    "website_url": "",
    "rating_text": "4,5",
    "stars": null,
    "number_of_reviews": null,
    "price_level": "",
    "open_hours": "",
    "extraction_timestamp": "2025-06-07T16:09:53.650Z",
    "source_name": "google",
    "source_query": "Irrigation Equipment",
    "source_country": "IT",
    "country": "Italy",
    "state": "Emilia-Romagna",
    "city": "Soliera"
  },
  {
    "source_id": "ChIJV02TC0qNf0cRlaeibvnDnEw",
    "name": "TECMODENA Group srl: Guarnizioni piane - Espansi Termoisolanti - Interno Packaging - Waterjet, Taglio a getto d'acqua",
    "category": "TECMODENA Group srl: Guarnizioni piane - Espansi Termoisolanti - Interno Packaging - Waterjet, Taglio a getto d'acqua",
    "formatted_address": "TECMODENA Group srl: Guarnizioni piane - Espansi Termoisolanti - Interno Packaging - Waterjet, Taglio a getto d'acqua",
    "phone_number": "+39059566551",
    "source_url": "https://www.google.com/maps/place/TECMODENA+Group+srl:+Guarnizioni+piane+-+Espansi+Termoisolanti+-+Interno+Packaging+-+Waterjet,+Taglio+a+getto+d%27acqua/data=!4m7!3m6!1s0x477f8d4a0b934d57:0x4c9cc3f96ea2a795!8m2!3d44.7266063!4d10.9167357!16s%2Fg%2F1tf74cnn!19sChIJV02TC0qNf0cRlaeibvnDnEw?authuser=0&hl=tr&rclk=1",
    "website_url": "",
    "rating_text": "5,0",
    "stars": null,
    "number_of_reviews": null,
    "price_level": "",
    "open_hours": "",
    "extraction_timestamp": "2025-06-07T16:09:53.650Z",
    "source_name": "google",
    "source_query": "Irrigation Equipment",
    "source_country": "IT",
    "country": "Italy",
    "state": "Emilia-Romagna",
    "city": "Soliera"
  },
  {
    "source_id": "ChIJcQG6ul7df0cR3VxKiu5OPBs",
    "name": "Scova Impianti Srl",
    "category": "Scova Impianti Srl",
    "formatted_address": "4,5(64)",
    "phone_number": "+39059923202",
    "source_url": "https://www.google.com/maps/place/Scova+Impianti+Srl/data=!4m7!3m6!1s0x477fdd5ebaba0171:0x1b3c4eee8a4a5cdd!8m2!3d44.6018135!4d11.032294!16s%2Fg%2F1tfzwbfb!19sChIJcQG6ul7df0cR3VxKiu5OPBs?authuser=0&hl=tr&rclk=1",
    "website_url": "",
    "rating_text": "4,5",
    "stars": null,
    "number_of_reviews": null,
    "price_level": "",
    "open_hours": "",
    "extraction_timestamp": "2025-06-07T16:09:53.651Z",
    "source_name": "google",
    "source_query": "Irrigation Equipment",
    "source_country": "IT",
    "country": "Italy",
    "state": "Emilia-Romagna",
    "city": "Soliera"
  },
  {
    "source_id": "ChIJeb6Mlkjtf0cRpLgQtWYtD0E",
    "name": "Trinity Group srl",
    "category": "Trinity Group srl",
    "formatted_address": "5,0(3)",
    "phone_number": "+390598302533",
    "source_url": "https://www.google.com/maps/place/Trinity+Group+srl/data=!4m7!3m6!1s0x477fed48968cbe79:0x410f2d66b510b8a4!8m2!3d44.7349681!4d10.9178576!16s%2Fg%2F11qn9152zs!19sChIJeb6Mlkjtf0cRpLgQtWYtD0E?authuser=0&hl=tr&rclk=1",
    "website_url": "",
    "rating_text": "5,0",
    "stars": null,
    "number_of_reviews": null,
    "price_level": "",
    "open_hours": "",
    "extraction_timestamp": "2025-06-07T16:09:53.651Z",
    "source_name": "google",
    "source_query": "Irrigation Equipment",
    "source_country": "IT",
    "country": "Italy",
    "state": "Emilia-Romagna",
    "city": "Soliera"
  },
  {
    "source_id": "ChIJJ6V6lMDgf0cR1SpFsfjDuHg",
    "name": "Ocmis Irrigazione Spa",
    "category": "Ocmis Irrigazione Spa",
    "formatted_address": "3,5(31)",
    "phone_number": "+39059702150",
    "source_url": "https://www.google.com/maps/place/Ocmis+Irrigazione+Spa/data=!4m7!3m6!1s0x477fe0c0947aa527:0x78b8c3f8b1452ad5!8m2!3d44.530494!4d10.9794578!16s%2Fg%2F1vd3tn19!19sChIJJ6V6lMDgf0cR1SpFsfjDuHg?authuser=0&hl=tr&rclk=1",
    "website_url": "",
    "rating_text": "3,5",
    "stars": null,
    "number_of_reviews": null,
    "price_level": "",
    "open_hours": "",
    "extraction_timestamp": "2025-06-07T16:09:53.651Z",
    "source_name": "google",
    "source_query": "Irrigation Equipment",
    "source_country": "IT",
    "country": "Italy",
    "state": "Emilia-Romagna",
    "city": "Soliera"
  },
  {
    "source_id": "ChIJ9SDVY5ftf0cR15gVaYbyrdw",
    "name": "Amcor Flexibles IT • Soliera",
    "category": "Amcor Flexibles IT • Soliera",
    "formatted_address": "4,8(9)",
    "phone_number": "+390595690811",
    "source_url": "https://www.google.com/maps/place/Amcor+Flexibles+IT+%E2%80%A2+Soliera/data=!4m7!3m6!1s0x477fed9763d520f5:0xdcadf286691598d7!8m2!3d44.7296743!4d10.9117063!16s%2Fg%2F1tp263q9!19sChIJ9SDVY5ftf0cR15gVaYbyrdw?authuser=0&hl=tr&rclk=1",
    "website_url": "",
    "rating_text": "4,8",
    "stars": null,
    "number_of_reviews": null,
    "price_level": "",
    "open_hours": "",
    "extraction_timestamp": "2025-06-07T16:09:53.652Z",
    "source_name": "google",
    "source_query": "Irrigation Equipment",
    "source_country": "IT",
    "country": "Italy",
    "state": "Emilia-Romagna",
    "city": "Soliera"
  },
  {
    "source_id": "ChIJHQGz6dXof0cRPD2igQWHtxo",
    "name": "Hidrostar",
    "category": "Hidrostar",
    "formatted_address": "4,8(33)",
    "phone_number": "+39059251056",
    "source_url": "https://www.google.com/maps/place/Hidrostar/data=!4m7!3m6!1s0x477fe8d5e9b3011d:0x1ab7870581a23d3c!8m2!3d44.6584919!4d10.9641811!16s%2Fg%2F1tf9rp0c!19sChIJHQGz6dXof0cRPD2igQWHtxo?authuser=0&hl=tr&rclk=1",
    "website_url": "",
    "rating_text": "4,8",
    "stars": null,
    "number_of_reviews": null,
    "price_level": "",
    "open_hours": "",
    "extraction_timestamp": "2025-06-07T16:09:53.652Z",
    "source_name": "google",
    "source_query": "Irrigation Equipment",
    "source_country": "IT",
    "country": "Italy",
    "state": "Emilia-Romagna",
    "city": "Soliera"
  },
  {
    "source_id": "ChIJJbuQcb3tf0cRIvstNobQb7k",
    "name": "Admel Snc",
    "category": "Admel Snc",
    "formatted_address": "5,0(1)",
    "phone_number": "+39059561256",
    "source_url": "https://www.google.com/maps/place/Admel+Snc/data=!4m7!3m6!1s0x477fedbd7190bb25:0xb96fd086362dfb22!8m2!3d44.7275705!4d10.9163468!16s%2Fg%2F1tklpd99!19sChIJJbuQcb3tf0cRIvstNobQb7k?authuser=0&hl=tr&rclk=1",
    "website_url": "",
    "rating_text": "5,0",
    "stars": null,
    "number_of_reviews": null,
    "price_level": "",
    "open_hours": "",
    "extraction_timestamp": "2025-06-07T16:09:53.653Z",
    "source_name": "google",
    "source_query": "Irrigation Equipment",
    "source_country": "IT",
    "country": "Italy",
    "state": "Emilia-Romagna",
    "city": "Soliera"
  }
]
