[
  {
    "source_id": "ChIJge95W6pegEcRfmnKCaFq9Ro",
    "name": "Ar.Com. Srl",
    "category": "Ar.Com. Srl",
    "formatted_address": "4,7(13)",
    "phone_number": "+390524597994",
    "source_url": "https://www.google.com/maps/place/Ar.Com.+Srl/data=!4m7!3m6!1s0x47805eaa5b79ef81:0x1af56aa109ca697e!8m2!3d44.9232902!4d10.1165494!16s%2Fg%2F1vxfz00p!19sChIJge95W6pegEcRfmnKCaFq9Ro?authuser=0&hl=tr&rclk=1",
    "website_url": "http://www.ar-com.it/",
    "rating_text": "4,7",
    "stars": null,
    "number_of_reviews": null,
    "price_level": "",
    "open_hours": "",
    "extraction_timestamp": "2025-06-07T15:51:48.622Z",
    "source_name": "google",
    "source_query": "Irrigation Equipment",
    "source_country": "IT",
    "country": "Italy",
    "state": "Emilia-Romagna",
    "city": "Soragna"
  },
  {
    "source_id": "ChIJtVDkNgRFgEcRqc6umwWIJuI",
    "name": "Rm Spa",
    "category": "Rm Spa",
    "formatted_address": "4,6(81)",
    "phone_number": "+390521872321",
    "source_url": "https://www.google.com/maps/place/Rm+Spa/data=!4m7!3m6!1s0x4780450436e450b5:0xe22688059baecea9!8m2!3d44.9105406!4d10.2583785!16s%2Fg%2F12hl93byl!19sChIJtVDkNgRFgEcRqc6umwWIJuI?authuser=0&hl=tr&rclk=1",
    "website_url": "http://www.rmirrigation.com/",
    "rating_text": "4,6",
    "stars": null,
    "number_of_reviews": null,
    "price_level": "",
    "open_hours": "",
    "extraction_timestamp": "2025-06-07T15:51:48.623Z",
    "source_name": "google",
    "source_query": "Irrigation Equipment",
    "source_country": "IT",
    "country": "Italy",
    "state": "Emilia-Romagna",
    "city": "Soragna"
  },
  {
    "source_id": "ChIJy805WcDcgEcRtmGWlwosXQc",
    "name": "IRRIMEC SRL",
    "category": "IRRIMEC SRL",
    "formatted_address": "4,5(90)",
    "phone_number": "+390523760441",
    "source_url": "https://www.google.com/maps/place/IRRIMEC+SRL/data=!4m7!3m6!1s0x4780dcc05939cdcb:0x75d2c0a979661b6!8m2!3d45.0612353!4d9.630829!16s%2Fg%2F1tdgt7d_!19sChIJy805WcDcgEcRtmGWlwosXQc?authuser=0&hl=tr&rclk=1",
    "website_url": "http://www.irrimec.com/",
    "rating_text": "4,5",
    "stars": null,
    "number_of_reviews": null,
    "price_level": "",
    "open_hours": "",
    "extraction_timestamp": "2025-06-07T15:51:48.623Z",
    "source_name": "google",
    "source_query": "Irrigation Equipment",
    "source_country": "IT",
    "country": "Italy",
    "state": "Emilia-Romagna",
    "city": "Soragna"
  },
  {
    "source_id": "ChIJefo0gP1bgEcRpa0pU2IVTeE",
    "name": "Sport Spirit",
    "category": "Sport Spirit",
    "formatted_address": "4,4(161)",
    "phone_number": "+393393326914",
    "source_url": "https://www.google.com/maps/place/Sport+Spirit/data=!4m7!3m6!1s0x47805bfd8034fa79:0xe14d15625329ada5!8m2!3d44.9319514!4d10.1222014!16s%2Fg%2F11c1p6z8z_!19sChIJefo0gP1bgEcRpa0pU2IVTeE?authuser=0&hl=tr&rclk=1",
    "website_url": "https://www.facebook.com/SportSpirit.piscinacoperta1",
    "rating_text": "4,4",
    "stars": null,
    "number_of_reviews": null,
    "price_level": "",
    "open_hours": "",
    "extraction_timestamp": "2025-06-07T15:51:48.624Z",
    "source_name": "google",
    "source_query": "Irrigation Equipment",
    "source_country": "IT",
    "country": "Italy",
    "state": "Emilia-Romagna",
    "city": "Soragna"
  },
  {
    "source_id": "ChIJcQG6ul7df0cR3VxKiu5OPBs",
    "name": "Scova Impianti Srl",
    "category": "Scova Impianti Srl",
    "formatted_address": "4,5(64)",
    "phone_number": "+39059923202",
    "source_url": "https://www.google.com/maps/place/Scova+Impianti+Srl/data=!4m7!3m6!1s0x477fdd5ebaba0171:0x1b3c4eee8a4a5cdd!8m2!3d44.6018135!4d11.032294!16s%2Fg%2F1tfzwbfb!19sChIJcQG6ul7df0cR3VxKiu5OPBs?authuser=0&hl=tr&rclk=1",
    "website_url": "https://www.scovaimpianti.com/",
    "rating_text": "4,5",
    "stars": null,
    "number_of_reviews": null,
    "price_level": "",
    "open_hours": "",
    "extraction_timestamp": "2025-06-07T15:51:48.624Z",
    "source_name": "google",
    "source_query": "Irrigation Equipment",
    "source_country": "IT",
    "country": "Italy",
    "state": "Emilia-Romagna",
    "city": "Soragna"
  },
  {
    "source_id": "ChIJR0cLXhQkgEcRi9oI9GALzlg",
    "name": "IRRILAND",
    "category": "IRRILAND",
    "formatted_address": "4,0(4)",
    "phone_number": "+390522831544",
    "source_url": "https://www.google.com/maps/place/IRRILAND/data=!4m7!3m6!1s0x478024145e0b4747:0x58ce0b60f408da8b!8m2!3d44.891987!4d10.650983!16s%2Fg%2F1tczjb0h!19sChIJR0cLXhQkgEcRi9oI9GALzlg?authuser=0&hl=tr&rclk=1",
    "website_url": "http://www.irriland.it/",
    "rating_text": "4,0",
    "stars": null,
    "number_of_reviews": null,
    "price_level": "",
    "open_hours": "",
    "extraction_timestamp": "2025-06-07T15:51:48.625Z",
    "source_name": "google",
    "source_query": "Irrigation Equipment",
    "source_country": "IT",
    "country": "Italy",
    "state": "Emilia-Romagna",
    "city": "Soragna"
  },
  {
    "source_id": "ChIJtzLXV34mgEcR9sDfnfgzOxg",
    "name": "Sime Idromeccanica S.R.L.",
    "category": "Sime Idromeccanica S.R.L.",
    "formatted_address": "4,8(22)",
    "phone_number": "+390522824724",
    "source_url": "https://www.google.com/maps/place/Sime+Idromeccanica+S.R.L./data=!4m7!3m6!1s0x4780267e57d732b7:0x183b33f89ddfc0f6!8m2!3d44.8931121!4d10.6571392!16s%2Fg%2F1tx1s13m!19sChIJtzLXV34mgEcR9sDfnfgzOxg?authuser=0&hl=tr&rclk=1",
    "website_url": "",
    "rating_text": "4,8",
    "stars": null,
    "number_of_reviews": null,
    "price_level": "",
    "open_hours": "",
    "extraction_timestamp": "2025-06-07T15:51:48.625Z",
    "source_name": "google",
    "source_query": "Irrigation Equipment",
    "source_country": "IT",
    "country": "Italy",
    "state": "Emilia-Romagna",
    "city": "Soragna"
  },
  {
    "source_id": "ChIJP-CISQ3-gEcRXwl1yi9NW2Q",
    "name": "SIIP - Società Impianti di irrigazione a pioggia",
    "category": "SIIP - Società Impianti di irrigazione a pioggia",
    "formatted_address": "5,0(2)",
    "phone_number": "+393356863605",
    "source_url": "https://www.google.com/maps/place/SIIP+-+Societ%C3%A0+Impianti+di+irrigazione+a+pioggia/data=!4m7!3m6!1s0x4780fe0d4988e03f:0x645b4d2fca75095f!8m2!3d45.1417827!4d10.0200624!16s%2Fg%2F1vqtfn9y!19sChIJP-CISQ3-gEcRXwl1yi9NW2Q?authuser=0&hl=tr&rclk=1",
    "website_url": "https://www.impiantiirrigazionicremona.com/",
    "rating_text": "5,0",
    "stars": null,
    "number_of_reviews": null,
    "price_level": "",
    "open_hours": "",
    "extraction_timestamp": "2025-06-07T15:51:48.626Z",
    "source_name": "google",
    "source_query": "Irrigation Equipment",
    "source_country": "IT",
    "country": "Italy",
    "state": "Emilia-Romagna",
    "city": "Soragna"
  }
]
