[
  {
    "source_id": "ChIJtVDkNgRFgEcRqc6umwWIJuI",
    "name": "Rm Spa",
    "category": "Rm Spa",
    "formatted_address": "4,6(81)",
    "phone_number": "+390521872321",
    "source_url": "https://www.google.com/maps/place/Rm+Spa/data=!4m7!3m6!1s0x4780450436e450b5:0xe22688059baecea9!8m2!3d44.9105406!4d10.2583785!16s%2Fg%2F12hl93byl!19sChIJtVDkNgRFgEcRqc6umwWIJuI?authuser=0&hl=tr&rclk=1",
    "website_url": "http://www.rmirrigation.com/",
    "rating_text": "4,6",
    "stars": null,
    "number_of_reviews": null,
    "price_level": "",
    "open_hours": "",
    "extraction_timestamp": "2025-06-07T15:57:15.064Z",
    "source_name": "google",
    "source_query": "Irrigation Equipment",
    "source_country": "IT",
    "country": "Italy",
    "state": "Emilia-Romagna",
    "city": "Sorbolo"
  },
  {
    "source_id": "ChIJL2GOhMQ5gEcR6tmdslrVtRo",
    "name": "Impianto idrovoro di Bocca d'Enza",
    "category": "Impianto idrovoro di Bocca d'Enza",
    "formatted_address": "4,0(3)",
    "phone_number": "",
    "source_url": "https://www.google.com/maps/place/Impianto+idrovoro+di+Bocca+d%27Enza/data=!4m7!3m6!1s0x478039c4848e612f:0x1ab5d55ab29dd9ea!8m2!3d44.9068993!4d10.4782674!16s%2Fg%2F11r8xcrlnb!19sChIJL2GOhMQ5gEcR6tmdslrVtRo?authuser=0&hl=tr&rclk=1",
    "website_url": "",
    "rating_text": "4,0",
    "stars": null,
    "number_of_reviews": null,
    "price_level": "",
    "open_hours": "",
    "extraction_timestamp": "2025-06-07T15:57:15.065Z",
    "source_name": "google",
    "source_query": "Irrigation Equipment",
    "source_country": "IT",
    "country": "Italy",
    "state": "Emilia-Romagna",
    "city": "Sorbolo"
  },
  {
    "source_id": "ChIJadLuaGo-gEcRDBKkxcodp6M",
    "name": "Ferrari WaterDesign | Progettazione e realizzazione piscine",
    "category": "Ferrari WaterDesign | Progettazione e realizzazione piscine",
    "formatted_address": "4,5(42)",
    "phone_number": "+390521883268",
    "source_url": "https://www.google.com/maps/place/Ferrari+WaterDesign+%7C+Progettazione+e+realizzazione+piscine/data=!4m7!3m6!1s0x47803e6a68eed269:0xa3a71dcac5a4120c!8m2!3d44.8429215!4d10.4431267!16s%2Fg%2F1vqtfn7x!19sChIJadLuaGo-gEcRDBKkxcodp6M?authuser=0&hl=tr&rclk=1",
    "website_url": "https://www.ferrariwaterdesign.it/",
    "rating_text": "4,5",
    "stars": null,
    "number_of_reviews": null,
    "price_level": "",
    "open_hours": "",
    "extraction_timestamp": "2025-06-07T15:57:15.067Z",
    "source_name": "google",
    "source_query": "Irrigation Equipment",
    "source_country": "IT",
    "country": "Italy",
    "state": "Emilia-Romagna",
    "city": "Sorbolo"
  },
  {
    "source_id": "ChIJcQG6ul7df0cR3VxKiu5OPBs",
    "name": "Scova Impianti Srl",
    "category": "Scova Impianti Srl",
    "formatted_address": "4,5(64)",
    "phone_number": "+39059923202",
    "source_url": "https://www.google.com/maps/place/Scova+Impianti+Srl/data=!4m7!3m6!1s0x477fdd5ebaba0171:0x1b3c4eee8a4a5cdd!8m2!3d44.6018135!4d11.032294!16s%2Fg%2F1tfzwbfb!19sChIJcQG6ul7df0cR3VxKiu5OPBs?authuser=0&hl=tr&rclk=1",
    "website_url": "https://www.scovaimpianti.com/",
    "rating_text": "4,5",
    "stars": null,
    "number_of_reviews": null,
    "price_level": "",
    "open_hours": "",
    "extraction_timestamp": "2025-06-07T15:57:15.068Z",
    "source_name": "google",
    "source_query": "Irrigation Equipment",
    "source_country": "IT",
    "country": "Italy",
    "state": "Emilia-Romagna",
    "city": "Sorbolo"
  },
  {
    "source_id": "ChIJX8ror8Y_gEcRkxaENNnG5Z4",
    "name": "Rei Service Depurazione Acque",
    "category": "Rei Service Depurazione Acque",
    "formatted_address": "4,8(5)",
    "phone_number": "+3905211715159",
    "source_url": "https://www.google.com/maps/place/Rei+Service+Depurazione+Acque/data=!4m7!3m6!1s0x47803fc6afe8ca5f:0x9ee5c6d934841693!8m2!3d44.833526!4d10.4091981!16s%2Fg%2F11h7rpsc7h!19sChIJX8ror8Y_gEcRkxaENNnG5Z4?authuser=0&hl=tr&rclk=1",
    "website_url": "https://www.reiservice.it/",
    "rating_text": "4,8",
    "stars": null,
    "number_of_reviews": null,
    "price_level": "",
    "open_hours": "",
    "extraction_timestamp": "2025-06-07T15:57:15.070Z",
    "source_name": "google",
    "source_query": "Irrigation Equipment",
    "source_country": "IT",
    "country": "Italy",
    "state": "Emilia-Romagna",
    "city": "Sorbolo"
  },
  {
    "source_id": "ChIJPU3Kg54XgEcRRH9cIT6-ZQ8",
    "name": "Sae Tecnology S.R.L. Soluzioni Trattamento Acque",
    "category": "Sae Tecnology S.R.L. Soluzioni Trattamento Acque",
    "formatted_address": "4,9(173)",
    "phone_number": "+390522676796",
    "source_url": "https://www.google.com/maps/place/Sae+Tecnology+S.R.L.+Soluzioni+Trattamento+Acque/data=!4m7!3m6!1s0x4780179e83ca4d3d:0xf65be3e215c7f44!8m2!3d44.775246!4d10.5151594!16s%2Fg%2F11b6hy9gf1!19sChIJPU3Kg54XgEcRRH9cIT6-ZQ8?authuser=0&hl=tr&rclk=1",
    "website_url": "https://www.saedepuratori.it/",
    "rating_text": "4,9",
    "stars": null,
    "number_of_reviews": null,
    "price_level": "",
    "open_hours": "",
    "extraction_timestamp": "2025-06-07T15:57:15.076Z",
    "source_name": "google",
    "source_query": "Irrigation Equipment",
    "source_country": "IT",
    "country": "Italy",
    "state": "Emilia-Romagna",
    "city": "Sorbolo"
  },
  {
    "source_id": "ChIJNV71OBU-gEcRQG6iovcl1b8",
    "name": "Idrotec Di Paolo Bordini",
    "category": "Idrotec Di Paolo Bordini",
    "formatted_address": "4,1(7)",
    "phone_number": "+390521690281",
    "source_url": "https://www.google.com/maps/place/Idrotec+Di+Paolo+Bordini/data=!4m7!3m6!1s0x47803e1538f55e35:0xbfd525f7a2a26e40!8m2!3d44.8391863!4d10.4411972!16s%2Fg%2F12hzqfl3_!19sChIJNV71OBU-gEcRQG6iovcl1b8?authuser=0&hl=tr&rclk=1",
    "website_url": "http://www.idrotec-parma.it/",
    "rating_text": "4,1",
    "stars": null,
    "number_of_reviews": null,
    "price_level": "",
    "open_hours": "",
    "extraction_timestamp": "2025-06-07T15:57:15.078Z",
    "source_name": "google",
    "source_query": "Irrigation Equipment",
    "source_country": "IT",
    "country": "Italy",
    "state": "Emilia-Romagna",
    "city": "Sorbolo"
  },
  {
    "source_id": "ChIJR0cLXhQkgEcRi9oI9GALzlg",
    "name": "IRRILAND",
    "category": "IRRILAND",
    "formatted_address": "4,0(4)",
    "phone_number": "+390522831544",
    "source_url": "https://www.google.com/maps/place/IRRILAND/data=!4m7!3m6!1s0x478024145e0b4747:0x58ce0b60f408da8b!8m2!3d44.891987!4d10.650983!16s%2Fg%2F1tczjb0h!19sChIJR0cLXhQkgEcRi9oI9GALzlg?authuser=0&hl=tr&rclk=1",
    "website_url": "http://www.irriland.it/",
    "rating_text": "4,0",
    "stars": null,
    "number_of_reviews": null,
    "price_level": "",
    "open_hours": "",
    "extraction_timestamp": "2025-06-07T15:57:15.079Z",
    "source_name": "google",
    "source_query": "Irrigation Equipment",
    "source_country": "IT",
    "country": "Italy",
    "state": "Emilia-Romagna",
    "city": "Sorbolo"
  },
  {
    "source_id": "ChIJJ6V6lMDgf0cR1SpFsfjDuHg",
    "name": "Ocmis Irrigazione Spa",
    "category": "Ocmis Irrigazione Spa",
    "formatted_address": "3,5(31)",
    "phone_number": "+39059702150",
    "source_url": "https://www.google.com/maps/place/Ocmis+Irrigazione+Spa/data=!4m7!3m6!1s0x477fe0c0947aa527:0x78b8c3f8b1452ad5!8m2!3d44.530494!4d10.9794578!16s%2Fg%2F1vd3tn19!19sChIJJ6V6lMDgf0cR1SpFsfjDuHg?authuser=0&hl=tr&rclk=1",
    "website_url": "http://www.ocmis-irrigazione.it/",
    "rating_text": "3,5",
    "stars": null,
    "number_of_reviews": null,
    "price_level": "",
    "open_hours": "",
    "extraction_timestamp": "2025-06-07T15:57:15.082Z",
    "source_name": "google",
    "source_query": "Irrigation Equipment",
    "source_country": "IT",
    "country": "Italy",
    "state": "Emilia-Romagna",
    "city": "Sorbolo"
  },
  {
    "source_id": "ChIJy805WcDcgEcRtmGWlwosXQc",
    "name": "IRRIMEC SRL",
    "category": "IRRIMEC SRL",
    "formatted_address": "4,5(90)",
    "phone_number": "+390523760441",
    "source_url": "https://www.google.com/maps/place/IRRIMEC+SRL/data=!4m7!3m6!1s0x4780dcc05939cdcb:0x75d2c0a979661b6!8m2!3d45.0612353!4d9.630829!16s%2Fg%2F1tdgt7d_!19sChIJy805WcDcgEcRtmGWlwosXQc?authuser=0&hl=tr&rclk=1",
    "website_url": "http://www.irrimec.com/",
    "rating_text": "4,5",
    "stars": null,
    "number_of_reviews": null,
    "price_level": "",
    "open_hours": "",
    "extraction_timestamp": "2025-06-07T15:57:15.083Z",
    "source_name": "google",
    "source_query": "Irrigation Equipment",
    "source_country": "IT",
    "country": "Italy",
    "state": "Emilia-Romagna",
    "city": "Sorbolo"
  }
]
