[
  {
    "source_id": "ChIJyXJ--f_df0cRsisYtvhfi6w",
    "name": "Agop Oleoidraulica S.P.A.",
    "category": "Agop Oleoidraulica S.P.A.",
    "formatted_address": "4,8(10)",
    "phone_number": "+39059789511",
    "source_url": "https://www.google.com/maps/place/Agop+Oleoidraulica+S.P.A./data=!4m7!3m6!1s0x477fddfff97e72c9:0xac8b5ff8b6182bb2!8m2!3d44.5433273!4d11.0091371!16s%2Fg%2F1tgdr_0k!19sChIJyXJ--f_df0cRsisYtvhfi6w?authuser=0&hl=tr&rclk=1",
    "website_url": "https://montanhydraulik.com/agop-oleoidraulica/",
    "rating_text": "4,8",
    "stars": null,
    "number_of_reviews": null,
    "price_level": "",
    "open_hours": "",
    "extraction_timestamp": "2025-06-07T16:42:47.663Z",
    "source_name": "google",
    "source_query": "Irrigation Equipment",
    "source_country": "IT",
    "country": "Italy",
    "state": "Emilia-Romagna",
    "city": "Spilamberto"
  },
  {
    "source_id": "ChIJJ6V6lMDgf0cR1SpFsfjDuHg",
    "name": "Ocmis Irrigazione Spa",
    "category": "Ocmis Irrigazione Spa",
    "formatted_address": "3,5(31)",
    "phone_number": "+39059702150",
    "source_url": "https://www.google.com/maps/place/Ocmis+Irrigazione+Spa/data=!4m7!3m6!1s0x477fe0c0947aa527:0x78b8c3f8b1452ad5!8m2!3d44.530494!4d10.9794578!16s%2Fg%2F1vd3tn19!19sChIJJ6V6lMDgf0cR1SpFsfjDuHg?authuser=0&hl=tr&rclk=1",
    "website_url": "http://www.ocmis-irrigazione.it/",
    "rating_text": "3,5",
    "stars": null,
    "number_of_reviews": null,
    "price_level": "",
    "open_hours": "",
    "extraction_timestamp": "2025-06-07T16:42:47.663Z",
    "source_name": "google",
    "source_query": "Irrigation Equipment",
    "source_country": "IT",
    "country": "Italy",
    "state": "Emilia-Romagna",
    "city": "Spilamberto"
  },
  {
    "source_id": "ChIJcQG6ul7df0cR3VxKiu5OPBs",
    "name": "Scova Impianti Srl",
    "category": "Scova Impianti Srl",
    "formatted_address": "4,5(64)",
    "phone_number": "+39059923202",
    "source_url": "https://www.google.com/maps/place/Scova+Impianti+Srl/data=!4m7!3m6!1s0x477fdd5ebaba0171:0x1b3c4eee8a4a5cdd!8m2!3d44.6018135!4d11.032294!16s%2Fg%2F1tfzwbfb!19sChIJcQG6ul7df0cR3VxKiu5OPBs?authuser=0&hl=tr&rclk=1",
    "website_url": "https://www.scovaimpianti.com/",
    "rating_text": "4,5",
    "stars": null,
    "number_of_reviews": null,
    "price_level": "",
    "open_hours": "",
    "extraction_timestamp": "2025-06-07T16:42:47.663Z",
    "source_name": "google",
    "source_query": "Irrigation Equipment",
    "source_country": "IT",
    "country": "Italy",
    "state": "Emilia-Romagna",
    "city": "Spilamberto"
  },
  {
    "source_id": "ChIJ_RZeMj_ef0cRYnnFUU2qF3Y",
    "name": "Morselli Andrea",
    "category": "Morselli Andrea",
    "formatted_address": "4,0(33)",
    "phone_number": "+39059784243",
    "source_url": "https://www.google.com/maps/place/Morselli+Andrea/data=!4m7!3m6!1s0x477fde3f325e16fd:0x7617aa4d51c57962!8m2!3d44.518222!4d11.0210905!16s%2Fg%2F1v9l9mqr!19sChIJ_RZeMj_ef0cRYnnFUU2qF3Y?authuser=0&hl=tr&rclk=1",
    "website_url": "http://morselliandrea.it/",
    "rating_text": "4,0",
    "stars": null,
    "number_of_reviews": null,
    "price_level": "",
    "open_hours": "",
    "extraction_timestamp": "2025-06-07T16:42:47.664Z",
    "source_name": "google",
    "source_query": "Irrigation Equipment",
    "source_country": "IT",
    "country": "Italy",
    "state": "Emilia-Romagna",
    "city": "Spilamberto"
  },
  {
    "source_id": "ChIJhT-kpAXff0cRKJQqKYwIulA",
    "name": "Irrigo",
    "category": "Irrigo",
    "formatted_address": "4,7(36)",
    "phone_number": "+393473096499",
    "source_url": "https://www.google.com/maps/place/Irrigo/data=!4m7!3m6!1s0x477fdf05a4a43f85:0x50ba088c292a9428!8m2!3d44.5018172!4d11.005272!16s%2Fg%2F11hdjcp5pk!19sChIJhT-kpAXff0cRKJQqKYwIulA?authuser=0&hl=tr&rclk=1",
    "website_url": "https://www.irrigovignola.it/",
    "rating_text": "4,7",
    "stars": null,
    "number_of_reviews": null,
    "price_level": "",
    "open_hours": "",
    "extraction_timestamp": "2025-06-07T16:42:47.665Z",
    "source_name": "google",
    "source_query": "Irrigation Equipment",
    "source_country": "IT",
    "country": "Italy",
    "state": "Emilia-Romagna",
    "city": "Spilamberto"
  },
  {
    "source_id": "ChIJRbeiWVTnf0cRrBWwlr-mBwM",
    "name": "Roli D. Srl macchine ed attrezzature per giardinaggio",
    "category": "Roli D. Srl macchine ed attrezzature per giardinaggio",
    "formatted_address": "4,4(110)",
    "phone_number": "+39059783324",
    "source_url": "https://www.google.com/maps/place/Roli+D.+Srl+macchine+ed+attrezzature+per+giardinaggio/data=!4m7!3m6!1s0x477fe75459a2b745:0x307a6bf96b015ac!8m2!3d44.5453605!4d11.0063276!16s%2Fg%2F1tcyd9q1!19sChIJRbeiWVTnf0cRrBWwlr-mBwM?authuser=0&hl=tr&rclk=1",
    "website_url": "https://www.rolid.it/",
    "rating_text": "4,4",
    "stars": null,
    "number_of_reviews": null,
    "price_level": "",
    "open_hours": "",
    "extraction_timestamp": "2025-06-07T16:42:47.666Z",
    "source_name": "google",
    "source_query": "Irrigation Equipment",
    "source_country": "IT",
    "country": "Italy",
    "state": "Emilia-Romagna",
    "city": "Spilamberto"
  },
  {
    "source_id": "ChIJXcrEpuPdf0cRtJtnflCp0dU",
    "name": "Far Pro Modena S.p.A. - Produttori di ingredienti per Pet-food, mangimi e fertilizzanti",
    "category": "Far Pro Modena S.p.A. - Produttori di ingredienti per Pet-food, mangimi e fertilizzanti",
    "formatted_address": "Far Pro Modena S.p.A. - Produttori di ingredienti per Pet-food, mangimi e fertilizzanti",
    "phone_number": "+39059784399",
    "source_url": "https://www.google.com/maps/place/Far+Pro+Modena+S.p.A.+-+Produttori+di+ingredienti+per+Pet-food,+mangimi+e+fertilizzanti/data=!4m7!3m6!1s0x477fdde3a6c4ca5d:0xd5d1a9507e679bb4!8m2!3d44.5510191!4d11.024563!16s%2Fg%2F1tdwtjl7!19sChIJXcrEpuPdf0cRtJtnflCp0dU?authuser=0&hl=tr&rclk=1",
    "website_url": "http://www.farpro.it/",
    "rating_text": "4,0",
    "stars": null,
    "number_of_reviews": null,
    "price_level": "",
    "open_hours": "",
    "extraction_timestamp": "2025-06-07T16:42:47.667Z",
    "source_name": "google",
    "source_query": "Irrigation Equipment",
    "source_country": "IT",
    "country": "Italy",
    "state": "Emilia-Romagna",
    "city": "Spilamberto"
  },
  {
    "source_id": "ChIJ99L5VN7nf0cRKsm8eInY5Bk",
    "name": "Punto gas snc",
    "category": "Punto gas snc",
    "formatted_address": "4,8(15)",
    "phone_number": "+39059785910",
    "source_url": "https://www.google.com/maps/place/Punto+gas+snc/data=!4m7!3m6!1s0x477fe7de54f9d2f7:0x19e4d88978bcc92a!8m2!3d44.5458345!4d11.0088308!16s%2Fg%2F11gk8tl6mj!19sChIJ99L5VN7nf0cRKsm8eInY5Bk?authuser=0&hl=tr&rclk=1",
    "website_url": "https://punto-gas.com/",
    "rating_text": "4,8",
    "stars": null,
    "number_of_reviews": null,
    "price_level": "",
    "open_hours": "",
    "extraction_timestamp": "2025-06-07T16:42:47.668Z",
    "source_name": "google",
    "source_query": "Irrigation Equipment",
    "source_country": "IT",
    "country": "Italy",
    "state": "Emilia-Romagna",
    "city": "Spilamberto"
  },
  {
    "source_id": "ChIJ4Qsi5QDef0cR_E2O2ummF-Q",
    "name": "Putzmaschinen Padana S.R.L.",
    "category": "Putzmaschinen Padana S.R.L.",
    "formatted_address": "5,0(5)",
    "phone_number": "+39059781403",
    "source_url": "https://www.google.com/maps/place/Putzmaschinen+Padana+S.R.L./data=!4m7!3m6!1s0x477fde00e5220be1:0xe417a6e9da8e4dfc!8m2!3d44.5405158!4d11.0115995!16s%2Fg%2F113hfc57c!19sChIJ4Qsi5QDef0cR_E2O2ummF-Q?authuser=0&hl=tr&rclk=1",
    "website_url": "http://putzmaschinen.net/",
    "rating_text": "5,0",
    "stars": null,
    "number_of_reviews": null,
    "price_level": "",
    "open_hours": "",
    "extraction_timestamp": "2025-06-07T16:42:47.669Z",
    "source_name": "google",
    "source_query": "Irrigation Equipment",
    "source_country": "IT",
    "country": "Italy",
    "state": "Emilia-Romagna",
    "city": "Spilamberto"
  },
  {
    "source_id": "ChIJJ6V6lMDgf0cRkL2jf5B3MwQ",
    "name": "Scova Engineering Spa",
    "category": "Scova Engineering Spa",
    "formatted_address": "5,0(2)",
    "phone_number": "+39059702012",
    "source_url": "https://www.google.com/maps/place/Scova+Engineering+Spa/data=!4m7!3m6!1s0x477fe0c0947aa527:0x43377907fa3bd90!8m2!3d44.5304758!4d10.9796265!16s%2Fg%2F1tql3mky!19sChIJJ6V6lMDgf0cRkL2jf5B3MwQ?authuser=0&hl=tr&rclk=1",
    "website_url": "https://www.scova-engineering.it/",
    "rating_text": "5,0",
    "stars": null,
    "number_of_reviews": null,
    "price_level": "",
    "open_hours": "",
    "extraction_timestamp": "2025-06-07T16:42:47.670Z",
    "source_name": "google",
    "source_query": "Irrigation Equipment",
    "source_country": "IT",
    "country": "Italy",
    "state": "Emilia-Romagna",
    "city": "Spilamberto"
  },
  {
    "source_id": "ChIJ9cfqXVPnf0cRjE3aUzObl_c",
    "name": "Zaba Impianti",
    "category": "Zaba Impianti",
    "formatted_address": "4,7(15)",
    "phone_number": "+390599774107",
    "source_url": "https://www.google.com/maps/place/Zaba+Impianti/data=!4m7!3m6!1s0x477fe7535deac7f5:0xf7979b3353da4d8c!8m2!3d44.544365!4d11.0039311!16s%2Fg%2F1tlw7y69!19sChIJ9cfqXVPnf0cRjE3aUzObl_c?authuser=0&hl=tr&rclk=1",
    "website_url": "https://zabaimpianti.it/",
    "rating_text": "4,7",
    "stars": null,
    "number_of_reviews": null,
    "price_level": "",
    "open_hours": "",
    "extraction_timestamp": "2025-06-07T16:42:47.671Z",
    "source_name": "google",
    "source_query": "Irrigation Equipment",
    "source_country": "IT",
    "country": "Italy",
    "state": "Emilia-Romagna",
    "city": "Spilamberto"
  },
  {
    "source_id": "ChIJn6A5trPwf0cRG4QD2FxztJQ",
    "name": "Spilamgarden Snc",
    "category": "Spilamgarden Snc",
    "formatted_address": "4,9(10)",
    "phone_number": "+390522626242",
    "source_url": "https://www.google.com/maps/place/Spilamgarden+Snc/data=!4m7!3m6!1s0x477ff0b3b639a09f:0x94b4735cd803841b!8m2!3d44.6525537!4d10.7727678!16s%2Fg%2F1td372cz!19sChIJn6A5trPwf0cRG4QD2FxztJQ?authuser=0&hl=tr&rclk=1",
    "website_url": "http://spilamgarden.it/",
    "rating_text": "4,9",
    "stars": null,
    "number_of_reviews": null,
    "price_level": "",
    "open_hours": "",
    "extraction_timestamp": "2025-06-07T16:42:47.672Z",
    "source_name": "google",
    "source_query": "Irrigation Equipment",
    "source_country": "IT",
    "country": "Italy",
    "state": "Emilia-Romagna",
    "city": "Spilamberto"
  },
  {
    "source_id": "ChIJ57d8ksHff0cR4zy1RYHdUkg",
    "name": "Ferramenta Hobby Garden",
    "category": "Ferramenta Hobby Garden",
    "formatted_address": "4,6(82)",
    "phone_number": "+39059781875",
    "source_url": "https://www.google.com/maps/place/Ferramenta+Hobby+Garden/data=!4m7!3m6!1s0x477fdfc1927cb7e7:0x4852dd8145b53ce3!8m2!3d44.5383455!4d11.0159918!16s%2Fg%2F11gxfrrfnr!19sChIJ57d8ksHff0cR4zy1RYHdUkg?authuser=0&hl=tr&rclk=1",
    "website_url": "",
    "rating_text": "4,6",
    "stars": null,
    "number_of_reviews": null,
    "price_level": "",
    "open_hours": "",
    "extraction_timestamp": "2025-06-07T16:42:47.674Z",
    "source_name": "google",
    "source_query": "Irrigation Equipment",
    "source_country": "IT",
    "country": "Italy",
    "state": "Emilia-Romagna",
    "city": "Spilamberto"
  }
]
