[
  {
    "source_id": "ChIJ9X_DI6LDLBMR84MeChQNUCU",
    "name": "Irriverde - Il Paesaggio S.r.l.",
    "category": "Irriverde - Il Paesaggio S.r.l.",
    "formatted_address": "4,8(15)",
    "phone_number": "+393939275801",
    "source_url": "https://www.google.com/maps/place/Irriverde+-+Il+Paesaggio+S.r.l./data=!4m7!3m6!1s0x132cc3a223c37ff5:0x25500d140a1e83f3!8m2!3d43.982224!4d12.5281091!16s%2Fg%2F1ptz65rjr!19sChIJ9X_DI6LDLBMR84MeChQNUCU?authuser=0&hl=tr&rclk=1",
    "website_url": "http://www.irriverde.it/",
    "rating_text": "4,8",
    "stars": null,
    "number_of_reviews": null,
    "price_level": "",
    "open_hours": "",
    "extraction_timestamp": "2025-06-07T15:46:17.468Z",
    "source_name": "google",
    "source_query": "Irrigation Equipment",
    "source_country": "IT",
    "country": "Italy",
    "state": "Emilia-Romagna",
    "city": "Torriana"
  },
  {
    "source_id": "ChIJy4AVn9C-LBMRn6nsnuZl82A",
    "name": "Ramilli Irrigazioni S.R.L.",
    "category": "Ramilli Irrigazioni S.R.L.",
    "formatted_address": "4,3(52)",
    "phone_number": "+390541945335",
    "source_url": "https://www.google.com/maps/place/Ramilli+Irrigazioni+S.R.L./data=!4m7!3m6!1s0x132cbed09f1580cb:0x60f365e69eeca99f!8m2!3d44.0923156!4d12.3843691!16s%2Fg%2F1ts2ls1r!19sChIJy4AVn9C-LBMRn6nsnuZl82A?authuser=0&hl=tr&rclk=1",
    "website_url": "https://www.ramilli.it/",
    "rating_text": "4,3",
    "stars": null,
    "number_of_reviews": null,
    "price_level": "",
    "open_hours": "",
    "extraction_timestamp": "2025-06-07T15:46:17.470Z",
    "source_name": "google",
    "source_query": "Irrigation Equipment",
    "source_country": "IT",
    "country": "Italy",
    "state": "Emilia-Romagna",
    "city": "Torriana"
  },
  {
    "source_id": "ChIJxwyfbMW-LBMR82ivWDKLyak",
    "name": "Campedelli srl",
    "category": "Campedelli srl",
    "formatted_address": "4,3(20)",
    "phone_number": "+390541945180",
    "source_url": "https://www.google.com/maps/place/Campedelli+srl/data=!4m7!3m6!1s0x132cbec56c9f0cc7:0xa9c98b3258af68f3!8m2!3d44.0913771!4d12.3790216!16s%2Fg%2F1td55wfn!19sChIJxwyfbMW-LBMR82ivWDKLyak?authuser=0&hl=tr&rclk=1",
    "website_url": "https://www.facebook.com/pg/campedellisrl.savignanosulrubicone/community/",
    "rating_text": "4,3",
    "stars": null,
    "number_of_reviews": null,
    "price_level": "",
    "open_hours": "",
    "extraction_timestamp": "2025-06-07T15:46:17.471Z",
    "source_name": "google",
    "source_query": "Irrigation Equipment",
    "source_country": "IT",
    "country": "Italy",
    "state": "Emilia-Romagna",
    "city": "Torriana"
  },
  {
    "source_id": "ChIJtdJC5j6Zf0cRmmVcuMyNEW0",
    "name": "Tadei | Impianti irrigazione | Robot tagliaerba | Barbecue | Outdoor",
    "category": "Tadei | Impianti irrigazione | Robot tagliaerba | Barbecue | Outdoor",
    "formatted_address": "4,6(69)",
    "phone_number": "+390386733460",
    "source_url": "https://www.google.com/maps/place/Tadei+%7C+Impianti+irrigazione+%7C+Robot+tagliaerba+%7C+Barbecue+%7C+Outdoor/data=!4m7!3m6!1s0x477f993ee642d2b5:0x6d118dccb85c659a!8m2!3d44.9680645!4d11.1076526!16s%2Fg%2F113dpgnd_!19sChIJtdJC5j6Zf0cRmmVcuMyNEW0?authuser=0&hl=tr&rclk=1",
    "website_url": "https://www.irrigazionetadei.it/",
    "rating_text": "4,6",
    "stars": null,
    "number_of_reviews": null,
    "price_level": "",
    "open_hours": "",
    "extraction_timestamp": "2025-06-07T15:46:17.472Z",
    "source_name": "google",
    "source_query": "Irrigation Equipment",
    "source_country": "IT",
    "country": "Italy",
    "state": "Emilia-Romagna",
    "city": "Torriana"
  },
  {
    "source_id": "ChIJFW3XPJejLBMRDpQWGwmYqU4",
    "name": "Raggini Irrigazioni e Robot Tosaerba",
    "category": "Raggini Irrigazioni e Robot Tosaerba",
    "formatted_address": "5,0(1)",
    "phone_number": "+393926808947",
    "source_url": "https://www.google.com/maps/place/Raggini+Irrigazioni+e+Robot+Tosaerba/data=!4m7!3m6!1s0x132ca3973cd76d15:0x4ea998091b16940e!8m2!3d44.36369!4d11.8460774!16s%2Fg%2F11dz0bbs9t!19sChIJFW3XPJejLBMRDpQWGwmYqU4?authuser=0&hl=tr&rclk=1",
    "website_url": "",
    "rating_text": "5,0",
    "stars": null,
    "number_of_reviews": null,
    "price_level": "",
    "open_hours": "",
    "extraction_timestamp": "2025-06-07T15:46:17.473Z",
    "source_name": "google",
    "source_query": "Irrigation Equipment",
    "source_country": "IT",
    "country": "Italy",
    "state": "Emilia-Romagna",
    "city": "Torriana"
  },
  {
    "source_id": "ChIJh3Nd8G0sfkcR_m7VewEmxXM",
    "name": "Irrigarden",
    "category": "Irrigarden",
    "formatted_address": "4,7(158)",
    "phone_number": "+39051782013",
    "source_url": "https://www.google.com/maps/place/Irrigarden/data=!4m7!3m6!1s0x477e2c6df05d7387:0x73c526017bd56efe!8m2!3d44.5096266!4d11.4390897!16s%2Fg%2F1vgw_l7w!19sChIJh3Nd8G0sfkcR_m7VewEmxXM?authuser=0&hl=tr&rclk=1",
    "website_url": "https://www.irrigarden-bo.it/",
    "rating_text": "4,7",
    "stars": null,
    "number_of_reviews": null,
    "price_level": "",
    "open_hours": "",
    "extraction_timestamp": "2025-06-07T15:46:17.474Z",
    "source_name": "google",
    "source_query": "Irrigation Equipment",
    "source_country": "IT",
    "country": "Italy",
    "state": "Emilia-Romagna",
    "city": "Torriana"
  },
  {
    "source_id": "ChIJtVDkNgRFgEcRqc6umwWIJuI",
    "name": "Rm Spa",
    "category": "Rm Spa",
    "formatted_address": "4,6(81)",
    "phone_number": "+390521872321",
    "source_url": "https://www.google.com/maps/place/Rm+Spa/data=!4m7!3m6!1s0x4780450436e450b5:0xe22688059baecea9!8m2!3d44.9105406!4d10.2583785!16s%2Fg%2F12hl93byl!19sChIJtVDkNgRFgEcRqc6umwWIJuI?authuser=0&hl=tr&rclk=1",
    "website_url": "http://www.rmirrigation.com/",
    "rating_text": "4,6",
    "stars": null,
    "number_of_reviews": null,
    "price_level": "",
    "open_hours": "",
    "extraction_timestamp": "2025-06-07T15:46:17.475Z",
    "source_name": "google",
    "source_query": "Irrigation Equipment",
    "source_country": "IT",
    "country": "Italy",
    "state": "Emilia-Romagna",
    "city": "Torriana"
  },
  {
    "source_id": "ChIJQZ3whyA7e2AR2dsVUmNuPrk",
    "name": "Ricerca perdite d'acqua a Ravenna, Rimini Forlì-Cesena.",
    "category": "Ricerca perdite d'acqua a Ravenna, Rimini Forlì-Cesena.",
    "formatted_address": "Ricerca perdite d'acqua a Ravenna, Rimini Forlì-Cesena.",
    "phone_number": "+39340874344024",
    "source_url": "https://www.google.com/maps/place/Ricerca+perdite+d%27acqua+a+Ravenna,+Rimini+Forl%C3%AC-Cesena./data=!4m7!3m6!1s0x607b3b2087f09d41:0xb93e6e635215dbd9!8m2!3d44.1805564!4d12.2351676!16s%2Fg%2F11wx5w534b!19sChIJQZ3whyA7e2AR2dsVUmNuPrk?authuser=0&hl=tr&rclk=1",
    "website_url": "https://idraulicoh24.it/",
    "rating_text": "",
    "stars": null,
    "number_of_reviews": null,
    "price_level": "",
    "open_hours": "",
    "extraction_timestamp": "2025-06-07T15:46:17.476Z",
    "source_name": "google",
    "source_query": "Irrigation Equipment",
    "source_country": "IT",
    "country": "Italy",
    "state": "Emilia-Romagna",
    "city": "Torriana"
  },
  {
    "source_id": "ChIJcQG6ul7df0cR3VxKiu5OPBs",
    "name": "Scova Impianti Srl",
    "category": "Scova Impianti Srl",
    "formatted_address": "4,5(64)",
    "phone_number": "+39059923202",
    "source_url": "https://www.google.com/maps/place/Scova+Impianti+Srl/data=!4m7!3m6!1s0x477fdd5ebaba0171:0x1b3c4eee8a4a5cdd!8m2!3d44.6018135!4d11.032294!16s%2Fg%2F1tfzwbfb!19sChIJcQG6ul7df0cR3VxKiu5OPBs?authuser=0&hl=tr&rclk=1",
    "website_url": "https://www.scovaimpianti.com/",
    "rating_text": "4,5",
    "stars": null,
    "number_of_reviews": null,
    "price_level": "",
    "open_hours": "",
    "extraction_timestamp": "2025-06-07T15:46:17.477Z",
    "source_name": "google",
    "source_query": "Irrigation Equipment",
    "source_country": "IT",
    "country": "Italy",
    "state": "Emilia-Romagna",
    "city": "Torriana"
  },
  {
    "source_id": "ChIJybvZAARSKxMRqloC4SCpmz8",
    "name": "Vulcano Srl",
    "category": "Vulcano Srl",
    "formatted_address": "4,6(44)",
    "phone_number": "+390546682161",
    "source_url": "https://www.google.com/maps/place/Vulcano+Srl/data=!4m7!3m6!1s0x132b520400d9bbc9:0x3f9ba920e1025aaa!8m2!3d44.3085748!4d11.8952435!16s%2Fg%2F11b6hwzlkq!19sChIJybvZAARSKxMRqloC4SCpmz8?authuser=0&hl=tr&rclk=1",
    "website_url": "http://www.vulcanoatomizzatori.it/",
    "rating_text": "4,6",
    "stars": null,
    "number_of_reviews": null,
    "price_level": "",
    "open_hours": "",
    "extraction_timestamp": "2025-06-07T15:46:17.478Z",
    "source_name": "google",
    "source_query": "Irrigation Equipment",
    "source_country": "IT",
    "country": "Italy",
    "state": "Emilia-Romagna",
    "city": "Torriana"
  },
  {
    "source_id": "ChIJJZ6bnCYgfkcRAJlIqmbsRJ0",
    "name": "O.R.M.A. S.r.l.",
    "category": "O.R.M.A. S.r.l.",
    "formatted_address": "4,3(16)",
    "phone_number": "+39054255095",
    "source_url": "https://www.google.com/maps/place/O.R.M.A.+S.r.l./data=!4m7!3m6!1s0x477e20269c9b9e25:0x9d44ec66aa489900!8m2!3d44.4221829!4d11.7101008!16s%2Fg%2F1tjl4rb7!19sChIJJZ6bnCYgfkcRAJlIqmbsRJ0?authuser=0&hl=tr&rclk=1",
    "website_url": "http://www.ormasrl.info/",
    "rating_text": "4,3",
    "stars": null,
    "number_of_reviews": null,
    "price_level": "",
    "open_hours": "",
    "extraction_timestamp": "2025-06-07T15:46:17.479Z",
    "source_name": "google",
    "source_query": "Irrigation Equipment",
    "source_country": "IT",
    "country": "Italy",
    "state": "Emilia-Romagna",
    "city": "Torriana"
  },
  {
    "source_id": "ChIJIZ--0Hu7LBMRsAwRWW9yZP8",
    "name": "Irritalia Di Vecchi Andrea & C. S.N.C.",
    "category": "Irritalia Di Vecchi Andrea & C. S.N.C.",
    "formatted_address": "Üretici ·  · Via Archimede, 200Kapalı ⋅ Açılış zamanı: Pzt 08:00 · +39 0547 301569",
    "phone_number": "+390547301569",
    "source_url": "https://www.google.com/maps/place/Irritalia+Di+Vecchi+Andrea+%26+C.+S.N.C./data=!4m7!3m6!1s0x132cbb7bd0be9f21:0xff64726f59110cb0!8m2!3d44.1175203!4d12.2941807!16s%2Fg%2F1th2n8t5!19sChIJIZ--0Hu7LBMRsAwRWW9yZP8?authuser=0&hl=tr&rclk=1",
    "website_url": "http://www.irritalia.com/contatti.php",
    "rating_text": "",
    "stars": null,
    "number_of_reviews": null,
    "price_level": "",
    "open_hours": "",
    "extraction_timestamp": "2025-06-07T15:46:17.481Z",
    "source_name": "google",
    "source_query": "Irrigation Equipment",
    "source_country": "IT",
    "country": "Italy",
    "state": "Emilia-Romagna",
    "city": "Torriana"
  },
  {
    "source_id": "ChIJidPVj1CPLRMRUHL23rAYSOE",
    "name": "Idrotec Srl",
    "category": "Idrotec Srl",
    "formatted_address": "4,5(13)",
    "phone_number": "+390717200050",
    "source_url": "https://www.google.com/maps/place/Idrotec+Srl/data=!4m7!3m6!1s0x132d8f508fd5d389:0xe14818b0def67250!8m2!3d43.4458779!4d13.441524!16s%2Fg%2F1tgw_8gy!19sChIJidPVj1CPLRMRUHL23rAYSOE?authuser=0&hl=tr&rclk=1",
    "website_url": "http://www.idrotec.net/",
    "rating_text": "4,5",
    "stars": null,
    "number_of_reviews": null,
    "price_level": "",
    "open_hours": "",
    "extraction_timestamp": "2025-06-07T15:46:17.482Z",
    "source_name": "google",
    "source_query": "Irrigation Equipment",
    "source_country": "IT",
    "country": "Italy",
    "state": "Emilia-Romagna",
    "city": "Torriana"
  },
  {
    "source_id": "ChIJ94K6gP67LBMRszZaLyurIo8",
    "name": "Neri Marco",
    "category": "Neri Marco",
    "formatted_address": "Çim Yağmurlama Sistemi Yüklenicisi · Via Roncolo, 1320+39 0547 54274",
    "phone_number": "+39054754274",
    "source_url": "https://www.google.com/maps/place/Neri+Marco/data=!4m7!3m6!1s0x132cbbfe80ba82f7:0x8f22ab2b2f5a36b3!8m2!3d44.1085632!4d12.3484719!16s%2Fg%2F11g_5kkz8!19sChIJ94K6gP67LBMRszZaLyurIo8?authuser=0&hl=tr&rclk=1",
    "website_url": "",
    "rating_text": "",
    "stars": null,
    "number_of_reviews": null,
    "price_level": "",
    "open_hours": "",
    "extraction_timestamp": "2025-06-07T15:46:17.482Z",
    "source_name": "google",
    "source_query": "Irrigation Equipment",
    "source_country": "IT",
    "country": "Italy",
    "state": "Emilia-Romagna",
    "city": "Torriana"
  },
  {
    "source_id": "ChIJv4T9X4OVLBMRinB7uiEYSUE",
    "name": "Bios Clima",
    "category": "Bios Clima",
    "formatted_address": "Tesisatçı · Via Roma, 46+39 331 441 2241",
    "phone_number": "+393314412241",
    "source_url": "https://www.google.com/maps/place/Bios+Clima/data=!4m7!3m6!1s0x132c95835ffd84bf:0x41491821ba7b708a!8m2!3d43.9853624!4d12.3852895!16s%2Fg%2F11j22t9cwj!19sChIJv4T9X4OVLBMRinB7uiEYSUE?authuser=0&hl=tr&rclk=1",
    "website_url": "",
    "rating_text": "",
    "stars": null,
    "number_of_reviews": null,
    "price_level": "",
    "open_hours": "",
    "extraction_timestamp": "2025-06-07T15:46:17.483Z",
    "source_name": "google",
    "source_query": "Irrigation Equipment",
    "source_country": "IT",
    "country": "Italy",
    "state": "Emilia-Romagna",
    "city": "Torriana"
  }
]
