[
  {
    "source_id": "ChIJj5BKJ4MOgEcRi-Yr0jO6lQ4",
    "name": "Fornovo Gas S.p.A.",
    "category": "Fornovo Gas S.p.A.",
    "formatted_address": "3,8(24)",
    "phone_number": "+3905211553844",
    "source_url": "https://www.google.com/maps/place/Fornovo+Gas+S.p.A./data=!4m7!3m6!1s0x47800e83274a908f:0xe95ba33d22be68b!8m2!3d44.64866!4d10.3856974!16s%2Fg%2F1hc3hrfms!19sChIJj5BKJ4MOgEcRi-Yr0jO6lQ4?authuser=0&hl=tr&rclk=1",
    "website_url": "",
    "rating_text": "3,8",
    "stars": null,
    "number_of_reviews": null,
    "price_level": "",
    "open_hours": "",
    "extraction_timestamp": "2025-06-07T16:16:06.345Z",
    "source_name": "google",
    "source_query": "Irrigation Equipment",
    "source_country": "IT",
    "country": "Italy",
    "state": "Emilia-Romagna",
    "city": "Traversetolo"
  },
  {
    "source_id": "ChIJP3W9AjMMgEcRR-7LYDlxrPA",
    "name": "Mentani Srl",
    "category": "Mentani Srl",
    "formatted_address": "5,0(2)",
    "phone_number": "+390521842128",
    "source_url": "https://www.google.com/maps/place/Mentani+Srl/data=!4m7!3m6!1s0x47800c3302bd753f:0xf0ac713960cbee47!8m2!3d44.6471783!4d10.3777348!16s%2Fg%2F1thbvhzz!19sChIJP3W9AjMMgEcRR-7LYDlxrPA?authuser=0&hl=tr&rclk=1",
    "website_url": "",
    "rating_text": "5,0",
    "stars": null,
    "number_of_reviews": null,
    "price_level": "",
    "open_hours": "",
    "extraction_timestamp": "2025-06-07T16:16:06.345Z",
    "source_name": "google",
    "source_query": "Irrigation Equipment",
    "source_country": "IT",
    "country": "Italy",
    "state": "Emilia-Romagna",
    "city": "Traversetolo"
  },
  {
    "source_id": "ChIJP6wAy9ENgEcRxLzDjOCp8jY",
    "name": "Ferramenta Galvani s.r.l.",
    "category": "Ferramenta Galvani s.r.l.",
    "formatted_address": "4,0(36)",
    "phone_number": "+390521841519",
    "source_url": "https://www.google.com/maps/place/Ferramenta+Galvani+s.r.l./data=!4m7!3m6!1s0x47800dd1cb00ac3f:0x36f2a9e08cc3bcc4!8m2!3d44.6460357!4d10.381393!16s%2Fg%2F1tcz751y!19sChIJP6wAy9ENgEcRxLzDjOCp8jY?authuser=0&hl=tr&rclk=1",
    "website_url": "",
    "rating_text": "4,0",
    "stars": null,
    "number_of_reviews": null,
    "price_level": "",
    "open_hours": "",
    "extraction_timestamp": "2025-06-07T16:16:06.345Z",
    "source_name": "google",
    "source_query": "Irrigation Equipment",
    "source_country": "IT",
    "country": "Italy",
    "state": "Emilia-Romagna",
    "city": "Traversetolo"
  },
  {
    "source_id": "ChIJOYwGlIYOgEcRoOe71cnw7Ws",
    "name": "Puro s.r.l.",
    "category": "Puro s.r.l.",
    "formatted_address": "5,0(2)",
    "phone_number": "+390521340813",
    "source_url": "https://www.google.com/maps/place/Puro+s.r.l./data=!4m7!3m6!1s0x47800e8694068c39:0x6bedf0c9d5bbe7a0!8m2!3d44.6552709!4d10.3700315!16s%2Fg%2F1tlbhds9!19sChIJOYwGlIYOgEcRoOe71cnw7Ws?authuser=0&hl=tr&rclk=1",
    "website_url": "",
    "rating_text": "5,0",
    "stars": null,
    "number_of_reviews": null,
    "price_level": "",
    "open_hours": "",
    "extraction_timestamp": "2025-06-07T16:16:06.346Z",
    "source_name": "google",
    "source_query": "Irrigation Equipment",
    "source_country": "IT",
    "country": "Italy",
    "state": "Emilia-Romagna",
    "city": "Traversetolo"
  },
  {
    "source_id": "ChIJi6Yl69QNgEcR-uctAMffK_s",
    "name": "Esseci Impianti di Spotti Claudio",
    "category": "Esseci Impianti di Spotti Claudio",
    "formatted_address": "5,0(2)",
    "phone_number": "+390521841190",
    "source_url": "https://www.google.com/maps/place/Esseci+Impianti+di+Spotti+Claudio/data=!4m7!3m6!1s0x47800dd4eb25a68b:0xfb2bdfc7002de7fa!8m2!3d44.6393504!4d10.3863131!16s%2Fg%2F1tjmchzk!19sChIJi6Yl69QNgEcR-uctAMffK_s?authuser=0&hl=tr&rclk=1",
    "website_url": "",
    "rating_text": "5,0",
    "stars": null,
    "number_of_reviews": null,
    "price_level": "",
    "open_hours": "",
    "extraction_timestamp": "2025-06-07T16:16:06.346Z",
    "source_name": "google",
    "source_query": "Irrigation Equipment",
    "source_country": "IT",
    "country": "Italy",
    "state": "Emilia-Romagna",
    "city": "Traversetolo"
  },
  {
    "source_id": "ChIJtVDkNgRFgEcRqc6umwWIJuI",
    "name": "Rm Spa",
    "category": "Rm Spa",
    "formatted_address": "4,6(81)",
    "phone_number": "+390521872321",
    "source_url": "https://www.google.com/maps/place/Rm+Spa/data=!4m7!3m6!1s0x4780450436e450b5:0xe22688059baecea9!8m2!3d44.9105406!4d10.2583785!16s%2Fg%2F12hl93byl!19sChIJtVDkNgRFgEcRqc6umwWIJuI?authuser=0&hl=tr&rclk=1",
    "website_url": "",
    "rating_text": "4,6",
    "stars": null,
    "number_of_reviews": null,
    "price_level": "",
    "open_hours": "",
    "extraction_timestamp": "2025-06-07T16:16:06.346Z",
    "source_name": "google",
    "source_query": "Irrigation Equipment",
    "source_country": "IT",
    "country": "Italy",
    "state": "Emilia-Romagna",
    "city": "Traversetolo"
  },
  {
    "source_id": "ChIJKfVsLNMNgEcRFLXnSVPZGgg",
    "name": "Tema Sport Sas",
    "category": "Tema Sport Sas",
    "formatted_address": "4,6(27)",
    "phone_number": "+390521844008",
    "source_url": "https://www.google.com/maps/place/Tema+Sport+Sas/data=!4m7!3m6!1s0x47800dd32c6cf529:0x81ad95349e7b514!8m2!3d44.6393963!4d10.3815154!16s%2Fg%2F1tf9rp1f!19sChIJKfVsLNMNgEcRFLXnSVPZGgg?authuser=0&hl=tr&rclk=1",
    "website_url": "",
    "rating_text": "4,6",
    "stars": null,
    "number_of_reviews": null,
    "price_level": "",
    "open_hours": "",
    "extraction_timestamp": "2025-06-07T16:16:06.347Z",
    "source_name": "google",
    "source_query": "Irrigation Equipment",
    "source_country": "IT",
    "country": "Italy",
    "state": "Emilia-Romagna",
    "city": "Traversetolo"
  },
  {
    "source_id": "ChIJ5_Cxf80NgEcRUklfL_YHiTk",
    "name": "ACD Sistemi",
    "category": "ACD Sistemi",
    "formatted_address": "5,0(2)",
    "phone_number": "+390521637314",
    "source_url": "https://www.google.com/maps/place/ACD+Sistemi/data=!4m7!3m6!1s0x47800dcd7fb1f0e7:0x398907f62f5f4952!8m2!3d44.640516!4d10.3821004!16s%2Fg%2F11h2nq5rp6!19sChIJ5_Cxf80NgEcRUklfL_YHiTk?authuser=0&hl=tr&rclk=1",
    "website_url": "",
    "rating_text": "5,0",
    "stars": null,
    "number_of_reviews": null,
    "price_level": "",
    "open_hours": "",
    "extraction_timestamp": "2025-06-07T16:16:06.348Z",
    "source_name": "google",
    "source_query": "Irrigation Equipment",
    "source_country": "IT",
    "country": "Italy",
    "state": "Emilia-Romagna",
    "city": "Traversetolo"
  },
  {
    "source_id": "ChIJV6Ulku8NgEcROnhoI-qw8QE",
    "name": "Brico Ok - Traversetolo",
    "category": "Brico Ok - Traversetolo",
    "formatted_address": "3,9(309)",
    "phone_number": "+3905211732042",
    "source_url": "https://www.google.com/maps/place/Brico+Ok+-+Traversetolo/data=!4m7!3m6!1s0x47800def9225a557:0x1f1b0ea2368783a!8m2!3d44.6473685!4d10.383599!16s%2Fg%2F11mw63r7ck!19sChIJV6Ulku8NgEcROnhoI-qw8QE?authuser=0&hl=tr&rclk=1",
    "website_url": "",
    "rating_text": "3,9",
    "stars": null,
    "number_of_reviews": null,
    "price_level": "",
    "open_hours": "",
    "extraction_timestamp": "2025-06-07T16:16:06.348Z",
    "source_name": "google",
    "source_query": "Irrigation Equipment",
    "source_country": "IT",
    "country": "Italy",
    "state": "Emilia-Romagna",
    "city": "Traversetolo"
  },
  {
    "source_id": "ChIJ96ADm9QNgEcREfN2eQq7r18",
    "name": "Termoimpianti di Bonilauri Davide",
    "category": "Termoimpianti di Bonilauri Davide",
    "formatted_address": "4,8(8)",
    "phone_number": "+393403165090",
    "source_url": "https://www.google.com/maps/place/Termoimpianti+di+Bonilauri+Davide/data=!4m7!3m6!1s0x47800dd49b03a0f7:0x5fafbb0a7976f311!8m2!3d44.6405169!4d10.384923!16s%2Fg%2F11f01006s7!19sChIJ96ADm9QNgEcREfN2eQq7r18?authuser=0&hl=tr&rclk=1",
    "website_url": "",
    "rating_text": "4,8",
    "stars": null,
    "number_of_reviews": null,
    "price_level": "",
    "open_hours": "",
    "extraction_timestamp": "2025-06-07T16:16:06.348Z",
    "source_name": "google",
    "source_query": "Irrigation Equipment",
    "source_country": "IT",
    "country": "Italy",
    "state": "Emilia-Romagna",
    "city": "Traversetolo"
  },
  {
    "source_id": "ChIJ5wEGeiwMgEcRpY9FMdE3dVo",
    "name": "Expert City Pianza Traversetolo",
    "category": "Expert City Pianza Traversetolo",
    "formatted_address": "4,6(185)",
    "phone_number": "+390521842777",
    "source_url": "https://www.google.com/maps/place/Expert+City+Pianza+Traversetolo/data=!4m7!3m6!1s0x47800c2c7a0601e7:0x5a7537d131458fa5!8m2!3d44.636205!4d10.3824718!16s%2Fg%2F1thgfwhx!19sChIJ5wEGeiwMgEcRpY9FMdE3dVo?authuser=0&hl=tr&rclk=1",
    "website_url": "",
    "rating_text": "4,6",
    "stars": null,
    "number_of_reviews": null,
    "price_level": "",
    "open_hours": "",
    "extraction_timestamp": "2025-06-07T16:16:06.349Z",
    "source_name": "google",
    "source_query": "Irrigation Equipment",
    "source_country": "IT",
    "country": "Italy",
    "state": "Emilia-Romagna",
    "city": "Traversetolo"
  },
  {
    "source_id": "ChIJcQG6ul7df0cR3VxKiu5OPBs",
    "name": "Scova Impianti Srl",
    "category": "Scova Impianti Srl",
    "formatted_address": "4,5(64)",
    "phone_number": "+39059923202",
    "source_url": "https://www.google.com/maps/place/Scova+Impianti+Srl/data=!4m7!3m6!1s0x477fdd5ebaba0171:0x1b3c4eee8a4a5cdd!8m2!3d44.6018135!4d11.032294!16s%2Fg%2F1tfzwbfb!19sChIJcQG6ul7df0cR3VxKiu5OPBs?authuser=0&hl=tr&rclk=1",
    "website_url": "",
    "rating_text": "4,5",
    "stars": null,
    "number_of_reviews": null,
    "price_level": "",
    "open_hours": "",
    "extraction_timestamp": "2025-06-07T16:16:06.349Z",
    "source_name": "google",
    "source_query": "Irrigation Equipment",
    "source_country": "IT",
    "country": "Italy",
    "state": "Emilia-Romagna",
    "city": "Traversetolo"
  },
  {
    "source_id": "ChIJFQtCK9MNgEcRW0zshIaYcjQ",
    "name": "Chiastra Renato Snc Di Chiastra Igino Silvia E Maria Cristina",
    "category": "Chiastra Renato Snc Di Chiastra Igino Silvia E Maria Cristina",
    "formatted_address": "4,8(12)",
    "phone_number": "+390521842716",
    "source_url": "https://www.google.com/maps/place/Chiastra+Renato+Snc+Di+Chiastra+Igino+Silvia+E+Maria+Cristina/data=!4m7!3m6!1s0x47800dd32b420b15:0x3472988684ec4c5b!8m2!3d44.6392063!4d10.3811292!16s%2Fg%2F1td5q3ft!19sChIJFQtCK9MNgEcRW0zshIaYcjQ?authuser=0&hl=tr&rclk=1",
    "website_url": "",
    "rating_text": "4,8",
    "stars": null,
    "number_of_reviews": null,
    "price_level": "",
    "open_hours": "",
    "extraction_timestamp": "2025-06-07T16:16:06.349Z",
    "source_name": "google",
    "source_query": "Irrigation Equipment",
    "source_country": "IT",
    "country": "Italy",
    "state": "Emilia-Romagna",
    "city": "Traversetolo"
  },
  {
    "source_id": "ChIJdbm3gucNgEcR4xvSJ5bl2fQ",
    "name": "Ferramenta e casalinghi di Guarnieri Maria Francesca",
    "category": "Ferramenta e casalinghi di Guarnieri Maria Francesca",
    "formatted_address": "5,0(1)",
    "phone_number": "+393457615902",
    "source_url": "https://www.google.com/maps/place/Ferramenta+e+casalinghi+di+Guarnieri+Maria+Francesca/data=!4m7!3m6!1s0x47800de782b7b975:0xf4d9e59627d21be3!8m2!3d44.6406989!4d10.3811302!16s%2Fg%2F11ftccbl_p!19sChIJdbm3gucNgEcR4xvSJ5bl2fQ?authuser=0&hl=tr&rclk=1",
    "website_url": "",
    "rating_text": "5,0",
    "stars": null,
    "number_of_reviews": null,
    "price_level": "",
    "open_hours": "",
    "extraction_timestamp": "2025-06-07T16:16:06.350Z",
    "source_name": "google",
    "source_query": "Irrigation Equipment",
    "source_country": "IT",
    "country": "Italy",
    "state": "Emilia-Romagna",
    "city": "Traversetolo"
  },
  {
    "source_id": "ChIJw966YtMNgEcRvB_LWx4Jn6g",
    "name": "Luigi Bertoletti Impianti Di Maurizio Bertoletti",
    "category": "Luigi Bertoletti Impianti Di Maurizio Bertoletti",
    "formatted_address": "3,7(3)",
    "phone_number": "+390521842702",
    "source_url": "https://www.google.com/maps/place/Luigi+Bertoletti+Impianti+Di+Maurizio+Bertoletti/data=!4m7!3m6!1s0x47800dd362badec3:0xa89f091e5bcb1fbc!8m2!3d44.640593!4d10.3844972!16s%2Fg%2F1tjs3svs!19sChIJw966YtMNgEcRvB_LWx4Jn6g?authuser=0&hl=tr&rclk=1",
    "website_url": "",
    "rating_text": "3,7",
    "stars": null,
    "number_of_reviews": null,
    "price_level": "",
    "open_hours": "",
    "extraction_timestamp": "2025-06-07T16:16:06.350Z",
    "source_name": "google",
    "source_query": "Irrigation Equipment",
    "source_country": "IT",
    "country": "Italy",
    "state": "Emilia-Romagna",
    "city": "Traversetolo"
  }
]
