[
  {
    "source_id": "ChIJmffnew_FKhMRc8-f-K8VtOM",
    "name": "AGRI RENO SAS di Iacopo Santamaria & C.",
    "category": "AGRI RENO SAS di Iacopo Santamaria & C.",
    "formatted_address": "4,6(42)",
    "phone_number": "+390510113637",
    "source_url": "https://www.google.com/maps/place/AGRI+RENO+SAS+di+Iacopo+Santamaria+%26+C./data=!4m7!3m6!1s0x132ac50f7be7f799:0xe3b415aff89fcf73!8m2!3d44.3025846!4d11.1286177!16s%2Fg%2F11f653srnk!19sChIJmffnew_FKhMRc8-f-K8VtOM?authuser=0&hl=tr&rclk=1",
    "website_url": "http://www.agrireno.it/",
    "rating_text": "4,6",
    "stars": null,
    "number_of_reviews": null,
    "price_level": "",
    "open_hours": "",
    "extraction_timestamp": "2025-06-07T15:54:47.675Z",
    "source_name": "google",
    "source_query": "Irrigation Equipment",
    "source_country": "IT",
    "country": "Italy",
    "state": "Emilia-Romagna",
    "city": "Vergato"
  },
  {
    "source_id": "ChIJazMFRdLFKhMRvI4mTJoZkRw",
    "name": "Mato Srl",
    "category": "Mato Srl",
    "formatted_address": "4,7(7)",
    "phone_number": "+393493035039",
    "source_url": "https://www.google.com/maps/place/Mato+Srl/data=!4m7!3m6!1s0x132ac5d24505336b:0x1c91199a4c268ebc!8m2!3d44.2891758!4d11.0933892!16s%2Fg%2F11h_ms0ms9!19sChIJazMFRdLFKhMRvI4mTJoZkRw?authuser=0&hl=tr&rclk=1",
    "website_url": "https://matosrl.com/",
    "rating_text": "4,7",
    "stars": null,
    "number_of_reviews": null,
    "price_level": "",
    "open_hours": "",
    "extraction_timestamp": "2025-06-07T15:54:47.675Z",
    "source_name": "google",
    "source_query": "Irrigation Equipment",
    "source_country": "IT",
    "country": "Italy",
    "state": "Emilia-Romagna",
    "city": "Vergato"
  },
  {
    "source_id": "ChIJ_SYf2IMsfkcRVw9xVhrnjyI",
    "name": "Irrigazione Bragaglia",
    "category": "Irrigazione Bragaglia",
    "formatted_address": "4,7(30)",
    "phone_number": "+39051534865",
    "source_url": "https://www.google.com/maps/place/Irrigazione+Bragaglia/data=!4m7!3m6!1s0x477e2c83d81f26fd:0x228fe71a56710f57!8m2!3d44.5053735!4d11.412403!16s%2Fg%2F1vp6z0gf!19sChIJ_SYf2IMsfkcRVw9xVhrnjyI?authuser=0&hl=tr&rclk=1",
    "website_url": "http://www.irrigazionebragaglia.it/",
    "rating_text": "4,7",
    "stars": null,
    "number_of_reviews": null,
    "price_level": "",
    "open_hours": "",
    "extraction_timestamp": "2025-06-07T15:54:47.675Z",
    "source_name": "google",
    "source_query": "Irrigation Equipment",
    "source_country": "IT",
    "country": "Italy",
    "state": "Emilia-Romagna",
    "city": "Vergato"
  },
  {
    "source_id": "ChIJPTNVovjRKhMRPzk_x5jCUlU",
    "name": "PLC impianti SRL",
    "category": "PLC impianti SRL",
    "formatted_address": "4,0(2)",
    "phone_number": "+393355819507",
    "source_url": "https://www.google.com/maps/place/PLC+impianti+SRL/data=!4m7!3m6!1s0x132ad1f8a255333d:0x5552c298c73f393f!8m2!3d44.3458926!4d11.1790138!16s%2Fg%2F11l_g_4v3m!19sChIJPTNVovjRKhMRPzk_x5jCUlU?authuser=0&hl=tr&rclk=1",
    "website_url": "",
    "rating_text": "4,0",
    "stars": null,
    "number_of_reviews": null,
    "price_level": "",
    "open_hours": "",
    "extraction_timestamp": "2025-06-07T15:54:47.676Z",
    "source_name": "google",
    "source_query": "Irrigation Equipment",
    "source_country": "IT",
    "country": "Italy",
    "state": "Emilia-Romagna",
    "city": "Vergato"
  },
  {
    "source_id": "ChIJE_3jOnMtfkcRkxtTFj3Ym9E",
    "name": "Irrigation Scarabelli Srl",
    "category": "Irrigation Scarabelli Srl",
    "formatted_address": "4,5(23)",
    "phone_number": "+39051763363",
    "source_url": "https://www.google.com/maps/place/Irrigation+Scarabelli+Srl/data=!4m7!3m6!1s0x477e2d733ae3fd13:0xd19bd83d16531b93!8m2!3d44.5426053!4d11.4189136!16s%2Fg%2F11gzdz6vf!19sChIJE_3jOnMtfkcRkxtTFj3Ym9E?authuser=0&hl=tr&rclk=1",
    "website_url": "",
    "rating_text": "4,5",
    "stars": null,
    "number_of_reviews": null,
    "price_level": "",
    "open_hours": "",
    "extraction_timestamp": "2025-06-07T15:54:47.676Z",
    "source_name": "google",
    "source_query": "Irrigation Equipment",
    "source_country": "IT",
    "country": "Italy",
    "state": "Emilia-Romagna",
    "city": "Vergato"
  },
  {
    "source_id": "ChIJZc6cLK_FKhMRHZG6jNUbbjk",
    "name": "Fiori Viviano Srl",
    "category": "Fiori Viviano Srl",
    "formatted_address": "4,8(381)",
    "phone_number": "+39051911295",
    "source_url": "https://www.google.com/maps/place/Fiori+Viviano+Srl/data=!4m7!3m6!1s0x132ac5af2c9cce65:0x396e1bd58cba911d!8m2!3d44.2751884!4d11.1118297!16s%2Fg%2F11bc7sl2f4!19sChIJZc6cLK_FKhMRHZG6jNUbbjk?authuser=0&hl=tr&rclk=1",
    "website_url": "",
    "rating_text": "4,8",
    "stars": null,
    "number_of_reviews": null,
    "price_level": "",
    "open_hours": "",
    "extraction_timestamp": "2025-06-07T15:54:47.676Z",
    "source_name": "google",
    "source_query": "Irrigation Equipment",
    "source_country": "IT",
    "country": "Italy",
    "state": "Emilia-Romagna",
    "city": "Vergato"
  },
  {
    "source_id": "ChIJ75bBdBLEKhMRuoPmkZfns0o",
    "name": "Pietro Galliani SpA - Vergato plant",
    "category": "Pietro Galliani SpA - Vergato plant",
    "formatted_address": "4,7(7)",
    "phone_number": "+390516740082",
    "source_url": "https://www.google.com/maps/place/Pietro+Galliani+SpA+-+Vergato+plant/data=!4m7!3m6!1s0x132ac41274c196ef:0x4ab3e79791e683ba!8m2!3d44.2443928!4d11.0884029!16s%2Fg%2F1td8wb_c!19sChIJ75bBdBLEKhMRuoPmkZfns0o?authuser=0&hl=tr&rclk=1",
    "website_url": "http://www.pietrogalliani.com/",
    "rating_text": "4,7",
    "stars": null,
    "number_of_reviews": null,
    "price_level": "",
    "open_hours": "",
    "extraction_timestamp": "2025-06-07T15:54:47.677Z",
    "source_name": "google",
    "source_query": "Irrigation Equipment",
    "source_country": "IT",
    "country": "Italy",
    "state": "Emilia-Romagna",
    "city": "Vergato"
  },
  {
    "source_id": "ChIJZ7Xwp6XFKhMR1EDHfnRDwzs",
    "name": "Agriserra Di Serra Elisa",
    "category": "Agriserra Di Serra Elisa",
    "formatted_address": "4,7(40)",
    "phone_number": "+39051910602",
    "source_url": "https://www.google.com/maps/place/Agriserra+Di+Serra+Elisa/data=!4m7!3m6!1s0x132ac5a5a7f0b567:0x3bc343747ec740d4!8m2!3d44.2819248!4d11.1135839!16s%2Fg%2F1tf896h_!19sChIJZ7Xwp6XFKhMR1EDHfnRDwzs?authuser=0&hl=tr&rclk=1",
    "website_url": "",
    "rating_text": "4,7",
    "stars": null,
    "number_of_reviews": null,
    "price_level": "",
    "open_hours": "",
    "extraction_timestamp": "2025-06-07T15:54:47.677Z",
    "source_name": "google",
    "source_query": "Irrigation Equipment",
    "source_country": "IT",
    "country": "Italy",
    "state": "Emilia-Romagna",
    "city": "Vergato"
  },
  {
    "source_id": "ChIJs3VPTKTFKhMRtJMW5jFUtQY",
    "name": "Green Power Service Srl",
    "category": "Green Power Service Srl",
    "formatted_address": "4,6(16)",
    "phone_number": "+390516740974",
    "source_url": "https://www.google.com/maps/place/Green+Power+Service+Srl/data=!4m7!3m6!1s0x132ac5a44c4f75b3:0x6b55431e61693b4!8m2!3d44.3021279!4d11.129204!16s%2Fg%2F1vsmv4kg!19sChIJs3VPTKTFKhMRtJMW5jFUtQY?authuser=0&hl=tr&rclk=1",
    "website_url": "https://www.greenpowerservice.it/",
    "rating_text": "4,6",
    "stars": null,
    "number_of_reviews": null,
    "price_level": "",
    "open_hours": "",
    "extraction_timestamp": "2025-06-07T15:54:47.677Z",
    "source_name": "google",
    "source_query": "Irrigation Equipment",
    "source_country": "IT",
    "country": "Italy",
    "state": "Emilia-Romagna",
    "city": "Vergato"
  },
  {
    "source_id": "ChIJtaY3QqbFKhMRPdSFNxbhX0k",
    "name": "Ferramenta F.lli Benassi",
    "category": "Ferramenta F.lli Benassi",
    "formatted_address": "4,5(142)",
    "phone_number": "+39051910401",
    "source_url": "https://www.google.com/maps/place/Ferramenta+F.lli+Benassi/data=!4m7!3m6!1s0x132ac5a64237a6b5:0x495fe1163785d43d!8m2!3d44.2819533!4d11.1121553!16s%2Fg%2F1vc8ll86!19sChIJtaY3QqbFKhMRPdSFNxbhX0k?authuser=0&hl=tr&rclk=1",
    "website_url": "http://www.ferramenta-benassi-vergato.com/",
    "rating_text": "4,5",
    "stars": null,
    "number_of_reviews": null,
    "price_level": "",
    "open_hours": "",
    "extraction_timestamp": "2025-06-07T15:54:47.678Z",
    "source_name": "google",
    "source_query": "Irrigation Equipment",
    "source_country": "IT",
    "country": "Italy",
    "state": "Emilia-Romagna",
    "city": "Vergato"
  },
  {
    "source_id": "ChIJh3Nd8G0sfkcR_m7VewEmxXM",
    "name": "Irrigarden",
    "category": "Irrigarden",
    "formatted_address": "4,7(158)",
    "phone_number": "+39051782013",
    "source_url": "https://www.google.com/maps/place/Irrigarden/data=!4m7!3m6!1s0x477e2c6df05d7387:0x73c526017bd56efe!8m2!3d44.5096266!4d11.4390897!16s%2Fg%2F1vgw_l7w!19sChIJh3Nd8G0sfkcR_m7VewEmxXM?authuser=0&hl=tr&rclk=1",
    "website_url": "https://www.irrigarden-bo.it/",
    "rating_text": "4,7",
    "stars": null,
    "number_of_reviews": null,
    "price_level": "",
    "open_hours": "",
    "extraction_timestamp": "2025-06-07T15:54:47.678Z",
    "source_name": "google",
    "source_query": "Irrigation Equipment",
    "source_country": "IT",
    "country": "Italy",
    "state": "Emilia-Romagna",
    "city": "Vergato"
  },
  {
    "source_id": "ChIJk_qjGVHEKhMR6i0o40gkLDw",
    "name": "EFFEGI IMPIANTI SRL",
    "category": "EFFEGI IMPIANTI SRL",
    "formatted_address": "4,6(16)",
    "phone_number": "+390516745411",
    "source_url": "https://www.google.com/maps/place/EFFEGI+IMPIANTI+SRL/data=!4m7!3m6!1s0x132ac45119a3fa93:0x3c2c2448e3282dea!8m2!3d44.2648334!4d11.1089725!16s%2Fg%2F1th897ks!19sChIJk_qjGVHEKhMR6i0o40gkLDw?authuser=0&hl=tr&rclk=1",
    "website_url": "http://www.effegiimpianti.com/",
    "rating_text": "4,6",
    "stars": null,
    "number_of_reviews": null,
    "price_level": "",
    "open_hours": "",
    "extraction_timestamp": "2025-06-07T15:54:47.678Z",
    "source_name": "google",
    "source_query": "Irrigation Equipment",
    "source_country": "IT",
    "country": "Italy",
    "state": "Emilia-Romagna",
    "city": "Vergato"
  },
  {
    "source_id": "ChIJhT-kpAXff0cRKJQqKYwIulA",
    "name": "Irrigo",
    "category": "Irrigo",
    "formatted_address": "4,7(36)",
    "phone_number": "+393473096499",
    "source_url": "https://www.google.com/maps/place/Irrigo/data=!4m7!3m6!1s0x477fdf05a4a43f85:0x50ba088c292a9428!8m2!3d44.5018172!4d11.005272!16s%2Fg%2F11hdjcp5pk!19sChIJhT-kpAXff0cRKJQqKYwIulA?authuser=0&hl=tr&rclk=1",
    "website_url": "https://www.irrigovignola.it/",
    "rating_text": "4,7",
    "stars": null,
    "number_of_reviews": null,
    "price_level": "",
    "open_hours": "",
    "extraction_timestamp": "2025-06-07T15:54:47.678Z",
    "source_name": "google",
    "source_query": "Irrigation Equipment",
    "source_country": "IT",
    "country": "Italy",
    "state": "Emilia-Romagna",
    "city": "Vergato"
  },
  {
    "source_id": "ChIJyXgg68QrfkcRAaJCOMJ3PxY",
    "name": "hidrisistem",
    "category": "hidrisistem",
    "formatted_address": "5,0(1)",
    "phone_number": "+39366448310824",
    "source_url": "https://www.google.com/maps/place/hidrisistem/data=!4m7!3m6!1s0x477e2bc4eb2078c9:0x163f77c23842a201!8m2!3d44.496029!4d11.402638!16s%2Fg%2F11w_zjhjy3!19sChIJyXgg68QrfkcRAaJCOMJ3PxY?authuser=0&hl=tr&rclk=1",
    "website_url": "",
    "rating_text": "5,0",
    "stars": null,
    "number_of_reviews": null,
    "price_level": "",
    "open_hours": "",
    "extraction_timestamp": "2025-06-07T15:54:47.679Z",
    "source_name": "google",
    "source_query": "Irrigation Equipment",
    "source_country": "IT",
    "country": "Italy",
    "state": "Emilia-Romagna",
    "city": "Vergato"
  },
  {
    "source_id": "ChIJK0_yXXDFKhMR2eyqjUUc-5w",
    "name": "Zooplanet",
    "category": "Zooplanet",
    "formatted_address": "4,4(161)",
    "phone_number": "+390516740212",
    "source_url": "https://www.google.com/maps/place/Zooplanet/data=!4m7!3m6!1s0x132ac5705df24f2b:0x9cfb1c458daaecd9!8m2!3d44.2795599!4d11.1112098!16s%2Fg%2F11f5vdyrsy!19sChIJK0_yXXDFKhMR2eyqjUUc-5w?authuser=0&hl=tr&rclk=1",
    "website_url": "",
    "rating_text": "4,4",
    "stars": null,
    "number_of_reviews": null,
    "price_level": "",
    "open_hours": "",
    "extraction_timestamp": "2025-06-07T15:54:47.679Z",
    "source_name": "google",
    "source_query": "Irrigation Equipment",
    "source_country": "IT",
    "country": "Italy",
    "state": "Emilia-Romagna",
    "city": "Vergato"
  }
]
