[
  {
    "source_id": "ChIJtVDkNgRFgEcRqc6umwWIJuI",
    "name": "Rm Spa",
    "category": "Rm Spa",
    "formatted_address": "4,6(81)",
    "phone_number": "+390521872321",
    "source_url": "https://www.google.com/maps/place/Rm+Spa/data=!4m7!3m6!1s0x4780450436e450b5:0xe22688059baecea9!8m2!3d44.9105406!4d10.2583785!16s%2Fg%2F12hl93byl!19sChIJtVDkNgRFgEcRqc6umwWIJuI?authuser=0&hl=tr&rclk=1",
    "website_url": "http://www.rmirrigation.com/",
    "rating_text": "4,6",
    "stars": null,
    "number_of_reviews": null,
    "price_level": "",
    "open_hours": "",
    "extraction_timestamp": "2025-06-07T15:43:34.948Z",
    "source_name": "google",
    "source_query": "Irrigation Equipment",
    "source_country": "IT",
    "country": "Italy",
    "state": "Emilia-Romagna",
    "city": "Vernasca"
  },
  {
    "source_id": "ChIJE_3jOnMtfkcRkxtTFj3Ym9E",
    "name": "Irrigation Scarabelli Srl",
    "category": "Irrigation Scarabelli Srl",
    "formatted_address": "4,5(23)",
    "phone_number": "+39051763363",
    "source_url": "https://www.google.com/maps/place/Irrigation+Scarabelli+Srl/data=!4m7!3m6!1s0x477e2d733ae3fd13:0xd19bd83d16531b93!8m2!3d44.5426053!4d11.4189136!16s%2Fg%2F11gzdz6vf!19sChIJE_3jOnMtfkcRkxtTFj3Ym9E?authuser=0&hl=tr&rclk=1",
    "website_url": "",
    "rating_text": "4,5",
    "stars": null,
    "number_of_reviews": null,
    "price_level": "",
    "open_hours": "",
    "extraction_timestamp": "2025-06-07T15:43:34.948Z",
    "source_name": "google",
    "source_query": "Irrigation Equipment",
    "source_country": "IT",
    "country": "Italy",
    "state": "Emilia-Romagna",
    "city": "Vernasca"
  },
  {
    "source_id": "ChIJcQG6ul7df0cR3VxKiu5OPBs",
    "name": "Scova Impianti Srl",
    "category": "Scova Impianti Srl",
    "formatted_address": "4,5(64)",
    "phone_number": "+39059923202",
    "source_url": "https://www.google.com/maps/place/Scova+Impianti+Srl/data=!4m7!3m6!1s0x477fdd5ebaba0171:0x1b3c4eee8a4a5cdd!8m2!3d44.6018135!4d11.032294!16s%2Fg%2F1tfzwbfb!19sChIJcQG6ul7df0cR3VxKiu5OPBs?authuser=0&hl=tr&rclk=1",
    "website_url": "https://www.scovaimpianti.com/",
    "rating_text": "4,5",
    "stars": null,
    "number_of_reviews": null,
    "price_level": "",
    "open_hours": "",
    "extraction_timestamp": "2025-06-07T15:43:34.948Z",
    "source_name": "google",
    "source_query": "Irrigation Equipment",
    "source_country": "IT",
    "country": "Italy",
    "state": "Emilia-Romagna",
    "city": "Vernasca"
  },
  {
    "source_id": "ChIJP-CISQ3-gEcRXwl1yi9NW2Q",
    "name": "SIIP - Società Impianti di irrigazione a pioggia",
    "category": "SIIP - Società Impianti di irrigazione a pioggia",
    "formatted_address": "5,0(2)",
    "phone_number": "+393356863605",
    "source_url": "https://www.google.com/maps/place/SIIP+-+Societ%C3%A0+Impianti+di+irrigazione+a+pioggia/data=!4m7!3m6!1s0x4780fe0d4988e03f:0x645b4d2fca75095f!8m2!3d45.1417827!4d10.0200624!16s%2Fg%2F1vqtfn9y!19sChIJP-CISQ3-gEcRXwl1yi9NW2Q?authuser=0&hl=tr&rclk=1",
    "website_url": "https://www.impiantiirrigazionicremona.com/",
    "rating_text": "5,0",
    "stars": null,
    "number_of_reviews": null,
    "price_level": "",
    "open_hours": "",
    "extraction_timestamp": "2025-06-07T15:43:34.949Z",
    "source_name": "google",
    "source_query": "Irrigation Equipment",
    "source_country": "IT",
    "country": "Italy",
    "state": "Emilia-Romagna",
    "city": "Vernasca"
  }
]
