[
  {
    "source_id": "ChIJcQG6ul7df0cR3VxKiu5OPBs",
    "name": "Scova Impianti Srl",
    "category": "Scova Impianti Srl",
    "formatted_address": "4,5(64)",
    "phone_number": "+39059923202",
    "source_url": "https://www.google.com/maps/place/Scova+Impianti+Srl/data=!4m7!3m6!1s0x477fdd5ebaba0171:0x1b3c4eee8a4a5cdd!8m2!3d44.6018135!4d11.032294!16s%2Fg%2F1tfzwbfb!19sChIJcQG6ul7df0cR3VxKiu5OPBs?authuser=0&hl=tr&rclk=1",
    "website_url": "https://www.scovaimpianti.com/",
    "rating_text": "4,5",
    "stars": null,
    "number_of_reviews": null,
    "price_level": "",
    "open_hours": "",
    "extraction_timestamp": "2025-06-07T17:04:15.297Z",
    "source_name": "google",
    "source_query": "Irrigation Equipment",
    "source_country": "IT",
    "country": "Italy",
    "state": "Emilia-Romagna",
    "city": "Viano"
  },
  {
    "source_id": "ChIJ8S_H450fgEcRen1BwvkupIc",
    "name": "Agro-system Snc di Bassoli - Piscine e Macchine giardino - Reggio Emilia",
    "category": "Agro-system Snc di Bassoli - Piscine e Macchine giardino - Reggio Emilia",
    "formatted_address": "4,6(88)",
    "phone_number": "+390522954100",
    "source_url": "https://www.google.com/maps/place/Agro-system+Snc+di+Bassoli+-+Piscine+e+Macchine+giardino+-+Reggio+Emilia/data=!4m7!3m6!1s0x47801f9de3c72ff1:0x87a42ef9c2417d7a!8m2!3d44.797091!4d10.686568!16s%2Fg%2F1tfb5f45!19sChIJ8S_H450fgEcRen1BwvkupIc?authuser=0&hl=tr&rclk=1",
    "website_url": "https://agrosystem.info/",
    "rating_text": "4,6",
    "stars": null,
    "number_of_reviews": null,
    "price_level": "",
    "open_hours": "",
    "extraction_timestamp": "2025-06-07T17:04:15.298Z",
    "source_name": "google",
    "source_query": "Irrigation Equipment",
    "source_country": "IT",
    "country": "Italy",
    "state": "Emilia-Romagna",
    "city": "Viano"
  },
  {
    "source_id": "ChIJQyDw8N_0f0cRhE_m36C06SU",
    "name": "Irrigreen",
    "category": "Irrigreen",
    "formatted_address": "4,3(3)",
    "phone_number": "+390522642318",
    "source_url": "https://www.google.com/maps/place/Irrigreen/data=!4m7!3m6!1s0x477ff4dff0f02043:0x25e9b4a0dfe64f84!8m2!3d45.1836109!4d10.6267461!16s%2Fg%2F1tddwm9t!19sChIJQyDw8N_0f0cRhE_m36C06SU?authuser=0&hl=tr&rclk=1",
    "website_url": "http://www.irrigreen.it/",
    "rating_text": "4,3",
    "stars": null,
    "number_of_reviews": null,
    "price_level": "",
    "open_hours": "",
    "extraction_timestamp": "2025-06-07T17:04:15.298Z",
    "source_name": "google",
    "source_query": "Irrigation Equipment",
    "source_country": "IT",
    "country": "Italy",
    "state": "Emilia-Romagna",
    "city": "Viano"
  },
  {
    "source_id": "ChIJzWyZEf8dgEcRM0sVtbJE3TI",
    "name": "Impiantistica LAVONE",
    "category": "Impiantistica LAVONE",
    "formatted_address": "5,0(3)",
    "phone_number": "+393514759408",
    "source_url": "https://www.google.com/maps/place/Impiantistica+LAVONE/data=!4m7!3m6!1s0x47801dff11996ccd:0x32dd44b2b5154b33!8m2!3d44.7120611!4d10.6241549!16s%2Fg%2F11lp1gdrnd!19sChIJzWyZEf8dgEcRM0sVtbJE3TI?authuser=0&hl=tr&rclk=1",
    "website_url": "",
    "rating_text": "5,0",
    "stars": null,
    "number_of_reviews": null,
    "price_level": "",
    "open_hours": "",
    "extraction_timestamp": "2025-06-07T17:04:15.298Z",
    "source_name": "google",
    "source_query": "Irrigation Equipment",
    "source_country": "IT",
    "country": "Italy",
    "state": "Emilia-Romagna",
    "city": "Viano"
  },
  {
    "source_id": "ChIJiVSvsQIdgEcR0PUcMFDq-Yg",
    "name": "Idrotim",
    "category": "Idrotim",
    "formatted_address": "5,0(5)",
    "phone_number": "+393387675768",
    "source_url": "https://www.google.com/maps/place/Idrotim/data=!4m7!3m6!1s0x47801d02b1af5489:0x88f9ea50301cf5d0!8m2!3d44.642221!4d10.671266!16s%2Fg%2F1tnhx5lh!19sChIJiVSvsQIdgEcR0PUcMFDq-Yg?authuser=0&hl=tr&rclk=1",
    "website_url": "http://www.idrotim.it/",
    "rating_text": "5,0",
    "stars": null,
    "number_of_reviews": null,
    "price_level": "",
    "open_hours": "",
    "extraction_timestamp": "2025-06-07T17:04:15.299Z",
    "source_name": "google",
    "source_query": "Irrigation Equipment",
    "source_country": "IT",
    "country": "Italy",
    "state": "Emilia-Romagna",
    "city": "Viano"
  },
  {
    "source_id": "ChIJh3Nd8G0sfkcR_m7VewEmxXM",
    "name": "Irrigarden",
    "category": "Irrigarden",
    "formatted_address": "4,7(158)",
    "phone_number": "+39051782013",
    "source_url": "https://www.google.com/maps/place/Irrigarden/data=!4m7!3m6!1s0x477e2c6df05d7387:0x73c526017bd56efe!8m2!3d44.5096266!4d11.4390897!16s%2Fg%2F1vgw_l7w!19sChIJh3Nd8G0sfkcR_m7VewEmxXM?authuser=0&hl=tr&rclk=1",
    "website_url": "https://www.irrigarden-bo.it/",
    "rating_text": "4,7",
    "stars": null,
    "number_of_reviews": null,
    "price_level": "",
    "open_hours": "",
    "extraction_timestamp": "2025-06-07T17:04:15.299Z",
    "source_name": "google",
    "source_query": "Irrigation Equipment",
    "source_country": "IT",
    "country": "Italy",
    "state": "Emilia-Romagna",
    "city": "Viano"
  },
  {
    "source_id": "ChIJtVDkNgRFgEcRqc6umwWIJuI",
    "name": "Rm Spa",
    "category": "Rm Spa",
    "formatted_address": "4,6(81)",
    "phone_number": "+390521872321",
    "source_url": "https://www.google.com/maps/place/Rm+Spa/data=!4m7!3m6!1s0x4780450436e450b5:0xe22688059baecea9!8m2!3d44.9105406!4d10.2583785!16s%2Fg%2F12hl93byl!19sChIJtVDkNgRFgEcRqc6umwWIJuI?authuser=0&hl=tr&rclk=1",
    "website_url": "http://www.rmirrigation.com/",
    "rating_text": "4,6",
    "stars": null,
    "number_of_reviews": null,
    "price_level": "",
    "open_hours": "",
    "extraction_timestamp": "2025-06-07T17:04:15.299Z",
    "source_name": "google",
    "source_query": "Irrigation Equipment",
    "source_country": "IT",
    "country": "Italy",
    "state": "Emilia-Romagna",
    "city": "Viano"
  },
  {
    "source_id": "ChIJveAeFroEgEcRZfa9xqlB6vM",
    "name": "Morelli Irrigazioni",
    "category": "Morelli Irrigazioni",
    "formatted_address": "1,0(1)",
    "phone_number": "+393480042122",
    "source_url": "https://www.google.com/maps/place/Morelli+Irrigazioni/data=!4m7!3m6!1s0x478004ba161ee0bd:0xf3ea41a9c6bdf665!8m2!3d44.649256!4d10.5636837!16s%2Fg%2F11gy01p0bd!19sChIJveAeFroEgEcRZfa9xqlB6vM?authuser=0&hl=tr&rclk=1",
    "website_url": "http://irrigazionimorelli.it/",
    "rating_text": "1,0",
    "stars": null,
    "number_of_reviews": null,
    "price_level": "",
    "open_hours": "",
    "extraction_timestamp": "2025-06-07T17:04:15.300Z",
    "source_name": "google",
    "source_query": "Irrigation Equipment",
    "source_country": "IT",
    "country": "Italy",
    "state": "Emilia-Romagna",
    "city": "Viano"
  }
]
