[
  {
    "source_id": "ChIJtVDkNgRFgEcRqc6umwWIJuI",
    "name": "Rm Spa",
    "category": "Rm Spa",
    "formatted_address": "4,6(81)",
    "phone_number": "+390521872321",
    "source_url": "https://www.google.com/maps/place/Rm+Spa/data=!4m7!3m6!1s0x4780450436e450b5:0xe22688059baecea9!8m2!3d44.9105406!4d10.2583785!16s%2Fg%2F12hl93byl!19sChIJtVDkNgRFgEcRqc6umwWIJuI?authuser=0&hl=tr&rclk=1",
    "website_url": "http://www.rmirrigation.com/",
    "rating_text": "4,6",
    "stars": null,
    "number_of_reviews": null,
    "price_level": "",
    "open_hours": "",
    "extraction_timestamp": "2025-06-07T16:24:49.318Z",
    "source_name": "google",
    "source_query": "Irrigation Equipment",
    "source_country": "IT",
    "country": "Italy",
    "state": "Emilia-Romagna",
    "city": "Vicofertile"
  },
  {
    "source_id": "ChIJaVJpA0FrgEcRKXfS87gA26s",
    "name": "Cambielli S.p.A.",
    "category": "Cambielli S.p.A.",
    "formatted_address": "4,5(17)",
    "phone_number": "+390521804264",
    "source_url": "https://www.google.com/maps/place/Cambielli+S.p.A./data=!4m7!3m6!1s0x47806b4103695269:0xabdb00b8f3d27729!8m2!3d44.7727947!4d10.2602099!16s%2Fg%2F11gnpl3klv!19sChIJaVJpA0FrgEcRKXfS87gA26s?authuser=0&hl=tr&rclk=1",
    "website_url": "https://www.cambielli.it/",
    "rating_text": "4,5",
    "stars": null,
    "number_of_reviews": null,
    "price_level": "",
    "open_hours": "",
    "extraction_timestamp": "2025-06-07T16:24:49.321Z",
    "source_name": "google",
    "source_query": "Irrigation Equipment",
    "source_country": "IT",
    "country": "Italy",
    "state": "Emilia-Romagna",
    "city": "Vicofertile"
  },
  {
    "source_id": "ChIJvWESljtqgEcRyACWMGuoih0",
    "name": "Idro Verde",
    "category": "Idro Verde",
    "formatted_address": "Çim Yağmurlama Sistemi Yüklenicisi ·  · Via Emilia Ovest, 129Açık ⋅ Kapanış saati: 21:00 · +39 338 397 2503",
    "phone_number": "+393383972503",
    "source_url": "https://www.google.com/maps/place/Idro+Verde/data=!4m7!3m6!1s0x47806a3b961261bd:0x1d8aa86b309600c8!8m2!3d44.8113047!4d10.2811005!16s%2Fg%2F11c6y_k67v!19sChIJvWESljtqgEcRyACWMGuoih0?authuser=0&hl=tr&rclk=1",
    "website_url": "http://idroverdeparma.it/",
    "rating_text": "",
    "stars": null,
    "number_of_reviews": null,
    "price_level": "",
    "open_hours": "",
    "extraction_timestamp": "2025-06-07T16:24:49.323Z",
    "source_name": "google",
    "source_query": "Irrigation Equipment",
    "source_country": "IT",
    "country": "Italy",
    "state": "Emilia-Romagna",
    "city": "Vicofertile"
  },
  {
    "source_id": "ChIJcQG6ul7df0cR3VxKiu5OPBs",
    "name": "Scova Impianti Srl",
    "category": "Scova Impianti Srl",
    "formatted_address": "4,5(64)",
    "phone_number": "+39059923202",
    "source_url": "https://www.google.com/maps/place/Scova+Impianti+Srl/data=!4m7!3m6!1s0x477fdd5ebaba0171:0x1b3c4eee8a4a5cdd!8m2!3d44.6018135!4d11.032294!16s%2Fg%2F1tfzwbfb!19sChIJcQG6ul7df0cR3VxKiu5OPBs?authuser=0&hl=tr&rclk=1",
    "website_url": "https://www.scovaimpianti.com/",
    "rating_text": "4,5",
    "stars": null,
    "number_of_reviews": null,
    "price_level": "",
    "open_hours": "",
    "extraction_timestamp": "2025-06-07T16:24:49.325Z",
    "source_name": "google",
    "source_query": "Irrigation Equipment",
    "source_country": "IT",
    "country": "Italy",
    "state": "Emilia-Romagna",
    "city": "Vicofertile"
  },
  {
    "source_id": "ChIJuTBT1m5rgEcRVQ_ZF0oIntc",
    "name": "Exito Srl",
    "category": "Exito Srl",
    "formatted_address": "5,0(4)",
    "phone_number": "+3905211562418",
    "source_url": "https://www.google.com/maps/place/Exito+Srl/data=!4m7!3m6!1s0x47806b6ed65330b9:0xd79e084a17d90f55!8m2!3d44.7903558!4d10.2783538!16s%2Fg%2F11h6v77hv9!19sChIJuTBT1m5rgEcRVQ_ZF0oIntc?authuser=0&hl=tr&rclk=1",
    "website_url": "https://www.exitosrl.eu/",
    "rating_text": "5,0",
    "stars": null,
    "number_of_reviews": null,
    "price_level": "",
    "open_hours": "",
    "extraction_timestamp": "2025-06-07T16:24:49.326Z",
    "source_name": "google",
    "source_query": "Irrigation Equipment",
    "source_country": "IT",
    "country": "Italy",
    "state": "Emilia-Romagna",
    "city": "Vicofertile"
  },
  {
    "source_id": "ChIJR0cLXhQkgEcRi9oI9GALzlg",
    "name": "IRRILAND",
    "category": "IRRILAND",
    "formatted_address": "4,0(4)",
    "phone_number": "+390522831544",
    "source_url": "https://www.google.com/maps/place/IRRILAND/data=!4m7!3m6!1s0x478024145e0b4747:0x58ce0b60f408da8b!8m2!3d44.891987!4d10.650983!16s%2Fg%2F1tczjb0h!19sChIJR0cLXhQkgEcRi9oI9GALzlg?authuser=0&hl=tr&rclk=1",
    "website_url": "http://www.irriland.it/",
    "rating_text": "4,0",
    "stars": null,
    "number_of_reviews": null,
    "price_level": "",
    "open_hours": "",
    "extraction_timestamp": "2025-06-07T16:24:49.328Z",
    "source_name": "google",
    "source_query": "Irrigation Equipment",
    "source_country": "IT",
    "country": "Italy",
    "state": "Emilia-Romagna",
    "city": "Vicofertile"
  },
  {
    "source_id": "ChIJE_3jOnMtfkcRkxtTFj3Ym9E",
    "name": "Irrigation Scarabelli Srl",
    "category": "Irrigation Scarabelli Srl",
    "formatted_address": "4,5(23)",
    "phone_number": "+39051763363",
    "source_url": "https://www.google.com/maps/place/Irrigation+Scarabelli+Srl/data=!4m7!3m6!1s0x477e2d733ae3fd13:0xd19bd83d16531b93!8m2!3d44.5426053!4d11.4189136!16s%2Fg%2F11gzdz6vf!19sChIJE_3jOnMtfkcRkxtTFj3Ym9E?authuser=0&hl=tr&rclk=1",
    "website_url": "",
    "rating_text": "4,5",
    "stars": null,
    "number_of_reviews": null,
    "price_level": "",
    "open_hours": "",
    "extraction_timestamp": "2025-06-07T16:24:49.330Z",
    "source_name": "google",
    "source_query": "Irrigation Equipment",
    "source_country": "IT",
    "country": "Italy",
    "state": "Emilia-Romagna",
    "city": "Vicofertile"
  },
  {
    "source_id": "ChIJFaj7Jt9rgEcRRHqUfg0hFBM",
    "name": "Gelateria Splash",
    "category": "Gelateria Splash",
    "formatted_address": "4,2(32) · ₺",
    "phone_number": "+390521673103",
    "source_url": "https://www.google.com/maps/place/Gelateria+Splash/data=!4m7!3m6!1s0x47806bdf26fba815:0x1314210d7e947a44!8m2!3d44.7856827!4d10.2588109!16s%2Fg%2F1tfvx_l8!19sChIJFaj7Jt9rgEcRRHqUfg0hFBM?authuser=0&hl=tr&rclk=1",
    "website_url": "http://www.gelateriasplash.com/",
    "rating_text": "4,2",
    "stars": null,
    "number_of_reviews": null,
    "price_level": "",
    "open_hours": "",
    "extraction_timestamp": "2025-06-07T16:24:49.332Z",
    "source_name": "google",
    "source_query": "Irrigation Equipment",
    "source_country": "IT",
    "country": "Italy",
    "state": "Emilia-Romagna",
    "city": "Vicofertile"
  },
  {
    "source_id": "ChIJsWbLwTIVgEcRDoIwxX_V4Eo",
    "name": "GEA Mechanical Equipment Italia S.p.a.",
    "category": "GEA Mechanical Equipment Italia S.p.a.",
    "formatted_address": "4,4(73)",
    "phone_number": "+390521965411",
    "source_url": "https://www.google.com/maps/place/GEA+Mechanical+Equipment+Italia+S.p.a./data=!4m7!3m6!1s0x47801532c1cb66b1:0x4ae0d57fc530820e!8m2!3d44.8012441!4d10.3575458!16s%2Fg%2F1v2yxqpy!19sChIJsWbLwTIVgEcRDoIwxX_V4Eo?authuser=0&hl=tr&rclk=1",
    "website_url": "http://www.gea.com/",
    "rating_text": "4,4",
    "stars": null,
    "number_of_reviews": null,
    "price_level": "",
    "open_hours": "",
    "extraction_timestamp": "2025-06-07T16:24:49.333Z",
    "source_name": "google",
    "source_query": "Irrigation Equipment",
    "source_country": "IT",
    "country": "Italy",
    "state": "Emilia-Romagna",
    "city": "Vicofertile"
  },
  {
    "source_id": "ChIJ69PdR1EvgEcRzaszzDo7sjQ",
    "name": "Nodolini s.n.c.",
    "category": "Nodolini s.n.c.",
    "formatted_address": "5,0(8)",
    "phone_number": "+390522977491",
    "source_url": "https://www.google.com/maps/place/Nodolini+s.n.c./data=!4m7!3m6!1s0x47802f5147ddd3eb:0x34b23b3acc33abcd!8m2!3d44.9541974!4d10.6879499!16s%2Fg%2F11b6j0n4vm!19sChIJ69PdR1EvgEcRzaszzDo7sjQ?authuser=0&hl=tr&rclk=1",
    "website_url": "http://www.nodolini.com/",
    "rating_text": "5,0",
    "stars": null,
    "number_of_reviews": null,
    "price_level": "",
    "open_hours": "",
    "extraction_timestamp": "2025-06-07T16:24:49.335Z",
    "source_name": "google",
    "source_query": "Irrigation Equipment",
    "source_country": "IT",
    "country": "Italy",
    "state": "Emilia-Romagna",
    "city": "Vicofertile"
  }
]
