[
  {
    "source_id": "ChIJ-eLL5ShMfkcRkJZIiiw4RaU",
    "name": "P.M. di Peverati M. srl",
    "category": "P.M. di Peverati M. srl",
    "formatted_address": "4,7(50)",
    "phone_number": "+39053294452",
    "source_url": "https://www.google.com/maps/place/P.M.+di+Peverati+M.+srl/data=!4m7!3m6!1s0x477e4c28e5cbe2f9:0xa545382c8a489690!8m2!3d44.8147477!4d11.5887959!16s%2Fg%2F1thp6v8g!19sChIJ-eLL5ShMfkcRkJZIiiw4RaU?authuser=0&hl=tr&rclk=1",
    "website_url": "http://www.pmpeverati.it/",
    "rating_text": "4,7",
    "stars": null,
    "number_of_reviews": null,
    "price_level": "",
    "open_hours": "",
    "extraction_timestamp": "2025-06-07T16:52:24.609Z",
    "source_name": "google",
    "source_query": "Irrigation Equipment",
    "source_country": "IT",
    "country": "Italy",
    "state": "Emilia-Romagna",
    "city": "Vigarano Mainarda"
  },
  {
    "source_id": "ChIJv1yW8cyyf0cRciHpm1I7XQ8",
    "name": "Imprima Srl",
    "category": "Imprima Srl",
    "formatted_address": "4,7(23)",
    "phone_number": "+390532739611",
    "source_url": "https://www.google.com/maps/place/Imprima+Srl/data=!4m7!3m6!1s0x477fb2ccf1965cbf:0xf5d3b529be92172!8m2!3d44.8432731!4d11.506978!16s%2Fg%2F1thxv1ms!19sChIJv1yW8cyyf0cRciHpm1I7XQ8?authuser=0&hl=tr&rclk=1",
    "website_url": "http://www.imprima.it/",
    "rating_text": "4,7",
    "stars": null,
    "number_of_reviews": null,
    "price_level": "",
    "open_hours": "",
    "extraction_timestamp": "2025-06-07T16:52:24.609Z",
    "source_name": "google",
    "source_query": "Irrigation Equipment",
    "source_country": "IT",
    "country": "Italy",
    "state": "Emilia-Romagna",
    "city": "Vigarano Mainarda"
  },
  {
    "source_id": "ChIJcQ8T3qS2f0cRALNsVLNyFew",
    "name": "HYDROFER SSRL",
    "category": "HYDROFER SSRL",
    "formatted_address": "4,8(14)",
    "phone_number": "+3905321772422",
    "source_url": "https://www.google.com/maps/place/HYDROFER+SSRL/data=!4m7!3m6!1s0x477fb6a4de130f71:0xec1572b3546cb300!8m2!3d44.7932927!4d11.3818114!16s%2Fg%2F1tk8mfrd!19sChIJcQ8T3qS2f0cRALNsVLNyFew?authuser=0&hl=tr&rclk=1",
    "website_url": "http://www.hydrofer.it/",
    "rating_text": "4,8",
    "stars": null,
    "number_of_reviews": null,
    "price_level": "",
    "open_hours": "",
    "extraction_timestamp": "2025-06-07T16:52:24.610Z",
    "source_name": "google",
    "source_query": "Irrigation Equipment",
    "source_country": "IT",
    "country": "Italy",
    "state": "Emilia-Romagna",
    "city": "Vigarano Mainarda"
  },
  {
    "source_id": "ChIJU9tCM1JNfkcRC0iB-aoG2J4",
    "name": "Hydraulic cylinder repring",
    "category": "Hydraulic cylinder repring",
    "formatted_address": "5,0(6)",
    "phone_number": "",
    "source_url": "https://www.google.com/maps/place/Hydraulic+cylinder+repring/data=!4m7!3m6!1s0x477e4d523342db53:0x9ed806aaf981480b!8m2!3d44.8597192!4d11.5196845!16s%2Fg%2F11c1wsp_zs!19sChIJU9tCM1JNfkcRC0iB-aoG2J4?authuser=0&hl=tr&rclk=1",
    "website_url": "http://hydraulicservice.it/",
    "rating_text": "5,0",
    "stars": null,
    "number_of_reviews": null,
    "price_level": "",
    "open_hours": "",
    "extraction_timestamp": "2025-06-07T16:52:24.610Z",
    "source_name": "google",
    "source_query": "Irrigation Equipment",
    "source_country": "IT",
    "country": "Italy",
    "state": "Emilia-Romagna",
    "city": "Vigarano Mainarda"
  },
  {
    "source_id": "ChIJT6Jbjs2yf0cRgc0ZB7KXFns",
    "name": "Sgarzi Maurizio - Idraulico",
    "category": "Sgarzi Maurizio - Idraulico",
    "formatted_address": "4,7(9)",
    "phone_number": "+393356757668",
    "source_url": "https://www.google.com/maps/place/Sgarzi+Maurizio+-+Idraulico/data=!4m7!3m6!1s0x477fb2cd8e5ba24f:0x7b1697b20719cd81!8m2!3d44.8430189!4d11.5147302!16s%2Fg%2F1wd3tx82!19sChIJT6Jbjs2yf0cRgc0ZB7KXFns?authuser=0&hl=tr&rclk=1",
    "website_url": "https://www.sgarzimaurizio.it/",
    "rating_text": "4,7",
    "stars": null,
    "number_of_reviews": null,
    "price_level": "",
    "open_hours": "",
    "extraction_timestamp": "2025-06-07T16:52:24.610Z",
    "source_name": "google",
    "source_query": "Irrigation Equipment",
    "source_country": "IT",
    "country": "Italy",
    "state": "Emilia-Romagna",
    "city": "Vigarano Mainarda"
  },
  {
    "source_id": "ChIJv1yW8cyyf0cReHdhMUTu8RQ",
    "name": "TECHNOSISTEMI DIFFUSION srls",
    "category": "TECHNOSISTEMI DIFFUSION srls",
    "formatted_address": "4,1(7)",
    "phone_number": "+390532437075",
    "source_url": "https://www.google.com/maps/place/TECHNOSISTEMI+DIFFUSION+srls/data=!4m7!3m6!1s0x477fb2ccf1965cbf:0x14f1ee4431617778!8m2!3d44.8403758!4d11.4930582!16s%2Fg%2F1tr7bnmj!19sChIJv1yW8cyyf0cReHdhMUTu8RQ?authuser=0&hl=tr&rclk=1",
    "website_url": "http://www.technosistemidiffusion.it/",
    "rating_text": "4,1",
    "stars": null,
    "number_of_reviews": null,
    "price_level": "",
    "open_hours": "",
    "extraction_timestamp": "2025-06-07T16:52:24.610Z",
    "source_name": "google",
    "source_query": "Irrigation Equipment",
    "source_country": "IT",
    "country": "Italy",
    "state": "Emilia-Romagna",
    "city": "Vigarano Mainarda"
  },
  {
    "source_id": "ChIJBRqkYK6yf0cRbA3Ba3i3FFM",
    "name": "GSM S.r.l.",
    "category": "GSM S.r.l.",
    "formatted_address": "3,0(1)",
    "phone_number": "+390532715711",
    "source_url": "https://www.google.com/maps/place/GSM+S.r.l./data=!4m7!3m6!1s0x477fb2ae60a41a05:0x5314b7786bc10d6c!8m2!3d44.8605541!4d11.5074099!16s%2Fg%2F1tcvn3ld!19sChIJBRqkYK6yf0cRbA3Ba3i3FFM?authuser=0&hl=tr&rclk=1",
    "website_url": "https://www.gsmtecnica.it/",
    "rating_text": "3,0",
    "stars": null,
    "number_of_reviews": null,
    "price_level": "",
    "open_hours": "",
    "extraction_timestamp": "2025-06-07T16:52:24.611Z",
    "source_name": "google",
    "source_query": "Irrigation Equipment",
    "source_country": "IT",
    "country": "Italy",
    "state": "Emilia-Romagna",
    "city": "Vigarano Mainarda"
  },
  {
    "source_id": "ChIJ34-uhcSyf0cRCd67EDOsFgg",
    "name": "Punto Giardino di Calgaro Alessandro",
    "category": "Punto Giardino di Calgaro Alessandro",
    "formatted_address": "5,0(1)",
    "phone_number": "+393478198073",
    "source_url": "https://www.google.com/maps/place/Punto+Giardino+di+Calgaro+Alessandro/data=!4m7!3m6!1s0x477fb2c485ae8fdf:0x816ac3310bbde09!8m2!3d44.8435471!4d11.4909792!16s%2Fg%2F1pv5wd16b!19sChIJ34-uhcSyf0cRCd67EDOsFgg?authuser=0&hl=tr&rclk=1",
    "website_url": "https://www.puntogiardino.it/",
    "rating_text": "5,0",
    "stars": null,
    "number_of_reviews": null,
    "price_level": "",
    "open_hours": "",
    "extraction_timestamp": "2025-06-07T16:52:24.611Z",
    "source_name": "google",
    "source_query": "Irrigation Equipment",
    "source_country": "IT",
    "country": "Italy",
    "state": "Emilia-Romagna",
    "city": "Vigarano Mainarda"
  },
  {
    "source_id": "ChIJcQG6ul7df0cR3VxKiu5OPBs",
    "name": "Scova Impianti Srl",
    "category": "Scova Impianti Srl",
    "formatted_address": "4,5(64)",
    "phone_number": "+39059923202",
    "source_url": "https://www.google.com/maps/place/Scova+Impianti+Srl/data=!4m7!3m6!1s0x477fdd5ebaba0171:0x1b3c4eee8a4a5cdd!8m2!3d44.6018135!4d11.032294!16s%2Fg%2F1tfzwbfb!19sChIJcQG6ul7df0cR3VxKiu5OPBs?authuser=0&hl=tr&rclk=1",
    "website_url": "https://www.scovaimpianti.com/",
    "rating_text": "4,5",
    "stars": null,
    "number_of_reviews": null,
    "price_level": "",
    "open_hours": "",
    "extraction_timestamp": "2025-06-07T16:52:24.611Z",
    "source_name": "google",
    "source_query": "Irrigation Equipment",
    "source_country": "IT",
    "country": "Italy",
    "state": "Emilia-Romagna",
    "city": "Vigarano Mainarda"
  },
  {
    "source_id": "ChIJu_ca3CdMfkcRostX9B4Dtg4",
    "name": "P.R. Ricambi Agricoli Di Balboni Paolo E Roberto",
    "category": "P.R. Ricambi Agricoli Di Balboni Paolo E Roberto",
    "formatted_address": "4,5(71)",
    "phone_number": "+393775462393",
    "source_url": "https://www.google.com/maps/place/P.R.+Ricambi+Agricoli+Di+Balboni+Paolo+E+Roberto/data=!4m7!3m6!1s0x477e4c27dc1af7bb:0xeb6031ef457cba2!8m2!3d44.8142108!4d11.5948954!16s%2Fg%2F1tkmlcx1!19sChIJu_ca3CdMfkcRostX9B4Dtg4?authuser=0&hl=tr&rclk=1",
    "website_url": "http://baluganiricambi.it/",
    "rating_text": "4,5",
    "stars": null,
    "number_of_reviews": null,
    "price_level": "",
    "open_hours": "",
    "extraction_timestamp": "2025-06-07T16:52:24.612Z",
    "source_name": "google",
    "source_query": "Irrigation Equipment",
    "source_country": "IT",
    "country": "Italy",
    "state": "Emilia-Romagna",
    "city": "Vigarano Mainarda"
  },
  {
    "source_id": "ChIJMbKQ2NGyf0cRwsVJrH1lMnc",
    "name": "Casetti Roberto",
    "category": "Casetti Roberto",
    "formatted_address": "Tesisatçı · Via Argine Reno, 27+39 0532 436062",
    "phone_number": "+390532436062",
    "source_url": "https://www.google.com/maps/place/Casetti+Roberto/data=!4m7!3m6!1s0x477fb2d1d890b231:0x7732657dac49c5c2!8m2!3d44.8406011!4d11.4992799!16s%2Fg%2F1tfb9_m1!19sChIJMbKQ2NGyf0cRwsVJrH1lMnc?authuser=0&hl=tr&rclk=1",
    "website_url": "",
    "rating_text": "",
    "stars": null,
    "number_of_reviews": null,
    "price_level": "",
    "open_hours": "",
    "extraction_timestamp": "2025-06-07T16:52:24.612Z",
    "source_name": "google",
    "source_query": "Irrigation Equipment",
    "source_country": "IT",
    "country": "Italy",
    "state": "Emilia-Romagna",
    "city": "Vigarano Mainarda"
  }
]
