[
  {
    "source_id": "ChIJ-eLL5ShMfkcRkJZIiiw4RaU",
    "name": "P.M. di Peverati M. srl",
    "category": "P.M. di Peverati M. srl",
    "formatted_address": "4,7(50)",
    "phone_number": "+39053294452",
    "source_url": "https://www.google.com/maps/place/P.M.+di+Peverati+M.+srl/data=!4m7!3m6!1s0x477e4c28e5cbe2f9:0xa545382c8a489690!8m2!3d44.8147477!4d11.5887959!16s%2Fg%2F1thp6v8g!19sChIJ-eLL5ShMfkcRkJZIiiw4RaU?authuser=0&hl=tr&rclk=1",
    "website_url": "http://www.pmpeverati.it/",
    "rating_text": "4,7",
    "stars": null,
    "number_of_reviews": null,
    "price_level": "",
    "open_hours": "",
    "extraction_timestamp": "2025-06-07T16:44:27.192Z",
    "source_name": "google",
    "source_query": "Irrigation Equipment",
    "source_country": "IT",
    "country": "Italy",
    "state": "Emilia-Romagna",
    "city": "Vigarano Pieve"
  },
  {
    "source_id": "ChIJh3Nd8G0sfkcR_m7VewEmxXM",
    "name": "Irrigarden",
    "category": "Irrigarden",
    "formatted_address": "4,7(158)",
    "phone_number": "+39051782013",
    "source_url": "https://www.google.com/maps/place/Irrigarden/data=!4m7!3m6!1s0x477e2c6df05d7387:0x73c526017bd56efe!8m2!3d44.5096266!4d11.4390897!16s%2Fg%2F1vgw_l7w!19sChIJh3Nd8G0sfkcR_m7VewEmxXM?authuser=0&hl=tr&rclk=1",
    "website_url": "https://www.irrigarden-bo.it/",
    "rating_text": "4,7",
    "stars": null,
    "number_of_reviews": null,
    "price_level": "",
    "open_hours": "",
    "extraction_timestamp": "2025-06-07T16:44:27.193Z",
    "source_name": "google",
    "source_query": "Irrigation Equipment",
    "source_country": "IT",
    "country": "Italy",
    "state": "Emilia-Romagna",
    "city": "Vigarano Pieve"
  },
  {
    "source_id": "ChIJISlyN8fVfkcRP1ghb3uyg-o",
    "name": "Import Irrigation Systems S.R.L.",
    "category": "Import Irrigation Systems S.R.L.",
    "formatted_address": "Üretici ·  · Via Salvo d'Acquisto, 5Kapalı ⋅ Açılış zamanı: Pzt 08:30 · +39 049 559 1020",
    "phone_number": "+390495591020",
    "source_url": "https://www.google.com/maps/place/Import+Irrigation+Systems+S.R.L./data=!4m7!3m6!1s0x477ed5c737722921:0xea83b27b6f21583f!8m2!3d45.5362842!4d11.825368!16s%2Fg%2F1tsjchn3!19sChIJISlyN8fVfkcRP1ghb3uyg-o?authuser=0&hl=tr&rclk=1",
    "website_url": "http://www.importirrigation.com/",
    "rating_text": "",
    "stars": null,
    "number_of_reviews": null,
    "price_level": "",
    "open_hours": "",
    "extraction_timestamp": "2025-06-07T16:44:27.193Z",
    "source_name": "google",
    "source_query": "Irrigation Equipment",
    "source_country": "IT",
    "country": "Italy",
    "state": "Emilia-Romagna",
    "city": "Vigarano Pieve"
  },
  {
    "source_id": "ChIJE_3jOnMtfkcRkxtTFj3Ym9E",
    "name": "Irrigation Scarabelli Srl",
    "category": "Irrigation Scarabelli Srl",
    "formatted_address": "4,5(23)",
    "phone_number": "+39051763363",
    "source_url": "https://www.google.com/maps/place/Irrigation+Scarabelli+Srl/data=!4m7!3m6!1s0x477e2d733ae3fd13:0xd19bd83d16531b93!8m2!3d44.5426053!4d11.4189136!16s%2Fg%2F11gzdz6vf!19sChIJE_3jOnMtfkcRkxtTFj3Ym9E?authuser=0&hl=tr&rclk=1",
    "website_url": "",
    "rating_text": "4,5",
    "stars": null,
    "number_of_reviews": null,
    "price_level": "",
    "open_hours": "",
    "extraction_timestamp": "2025-06-07T16:44:27.193Z",
    "source_name": "google",
    "source_query": "Irrigation Equipment",
    "source_country": "IT",
    "country": "Italy",
    "state": "Emilia-Romagna",
    "city": "Vigarano Pieve"
  },
  {
    "source_id": "ChIJqdtsqMTaf0cRFSqvzNBB5Tw",
    "name": "Ricchetti Irrigazione Snc Di Alberghini Paolo E C.",
    "category": "Ricchetti Irrigazione Snc Di Alberghini Paolo E C.",
    "formatted_address": "4,9(31)",
    "phone_number": "+39051950115",
    "source_url": "https://www.google.com/maps/place/Ricchetti+Irrigazione+Snc+Di+Alberghini+Paolo+E+C./data=!4m7!3m6!1s0x477fdac4a86cdba9:0x3ce541d0ccaf2a15!8m2!3d44.5883369!4d11.1803569!16s%2Fg%2F1vfn5hgh!19sChIJqdtsqMTaf0cRFSqvzNBB5Tw?authuser=0&hl=tr&rclk=1",
    "website_url": "http://www.ricchetti-irrigatori.it/",
    "rating_text": "4,9",
    "stars": null,
    "number_of_reviews": null,
    "price_level": "",
    "open_hours": "",
    "extraction_timestamp": "2025-06-07T16:44:27.194Z",
    "source_name": "google",
    "source_query": "Irrigation Equipment",
    "source_country": "IT",
    "country": "Italy",
    "state": "Emilia-Romagna",
    "city": "Vigarano Pieve"
  },
  {
    "source_id": "ChIJcQG6ul7df0cR3VxKiu5OPBs",
    "name": "Scova Impianti Srl",
    "category": "Scova Impianti Srl",
    "formatted_address": "4,5(64)",
    "phone_number": "+39059923202",
    "source_url": "https://www.google.com/maps/place/Scova+Impianti+Srl/data=!4m7!3m6!1s0x477fdd5ebaba0171:0x1b3c4eee8a4a5cdd!8m2!3d44.6018135!4d11.032294!16s%2Fg%2F1tfzwbfb!19sChIJcQG6ul7df0cR3VxKiu5OPBs?authuser=0&hl=tr&rclk=1",
    "website_url": "https://www.scovaimpianti.com/",
    "rating_text": "4,5",
    "stars": null,
    "number_of_reviews": null,
    "price_level": "",
    "open_hours": "",
    "extraction_timestamp": "2025-06-07T16:44:27.194Z",
    "source_name": "google",
    "source_query": "Irrigation Equipment",
    "source_country": "IT",
    "country": "Italy",
    "state": "Emilia-Romagna",
    "city": "Vigarano Pieve"
  },
  {
    "source_id": "ChIJcQ8T3qS2f0cRALNsVLNyFew",
    "name": "HYDROFER SSRL",
    "category": "HYDROFER SSRL",
    "formatted_address": "4,8(14)",
    "phone_number": "+3905321772422",
    "source_url": "https://www.google.com/maps/place/HYDROFER+SSRL/data=!4m7!3m6!1s0x477fb6a4de130f71:0xec1572b3546cb300!8m2!3d44.7932927!4d11.3818114!16s%2Fg%2F1tk8mfrd!19sChIJcQ8T3qS2f0cRALNsVLNyFew?authuser=0&hl=tr&rclk=1",
    "website_url": "http://www.hydrofer.it/",
    "rating_text": "4,8",
    "stars": null,
    "number_of_reviews": null,
    "price_level": "",
    "open_hours": "",
    "extraction_timestamp": "2025-06-07T16:44:27.195Z",
    "source_name": "google",
    "source_query": "Irrigation Equipment",
    "source_country": "IT",
    "country": "Italy",
    "state": "Emilia-Romagna",
    "city": "Vigarano Pieve"
  },
  {
    "source_id": "ChIJ_SYf2IMsfkcRVw9xVhrnjyI",
    "name": "Irrigazione Bragaglia",
    "category": "Irrigazione Bragaglia",
    "formatted_address": "4,7(30)",
    "phone_number": "+39051534865",
    "source_url": "https://www.google.com/maps/place/Irrigazione+Bragaglia/data=!4m7!3m6!1s0x477e2c83d81f26fd:0x228fe71a56710f57!8m2!3d44.5053735!4d11.412403!16s%2Fg%2F1vp6z0gf!19sChIJ_SYf2IMsfkcRVw9xVhrnjyI?authuser=0&hl=tr&rclk=1",
    "website_url": "http://www.irrigazionebragaglia.it/",
    "rating_text": "4,7",
    "stars": null,
    "number_of_reviews": null,
    "price_level": "",
    "open_hours": "",
    "extraction_timestamp": "2025-06-07T16:44:27.195Z",
    "source_name": "google",
    "source_query": "Irrigation Equipment",
    "source_country": "IT",
    "country": "Italy",
    "state": "Emilia-Romagna",
    "city": "Vigarano Pieve"
  },
  {
    "source_id": "ChIJJddIIMQof0cRpzpXRqpwRSY",
    "name": "My4Garden",
    "category": "My4Garden",
    "formatted_address": "My4Garden",
    "phone_number": "+390495591020",
    "source_url": "https://www.google.com/maps/place/My4Garden/data=!4m7!3m6!1s0x477f28c42048d725:0x264570aa46573aa7!8m2!3d45.5360043!4d11.8251398!16s%2Fg%2F1td6lhkv!19sChIJJddIIMQof0cRpzpXRqpwRSY?authuser=0&hl=tr&rclk=1",
    "website_url": "https://www.my4garden.com/",
    "rating_text": "4,6",
    "stars": null,
    "number_of_reviews": null,
    "price_level": "",
    "open_hours": "",
    "extraction_timestamp": "2025-06-07T16:44:27.195Z",
    "source_name": "google",
    "source_query": "Irrigation Equipment",
    "source_country": "IT",
    "country": "Italy",
    "state": "Emilia-Romagna",
    "city": "Vigarano Pieve"
  },
  {
    "source_id": "ChIJhT-kpAXff0cRKJQqKYwIulA",
    "name": "Irrigo",
    "category": "Irrigo",
    "formatted_address": "4,7(36)",
    "phone_number": "+393473096499",
    "source_url": "https://www.google.com/maps/place/Irrigo/data=!4m7!3m6!1s0x477fdf05a4a43f85:0x50ba088c292a9428!8m2!3d44.5018172!4d11.005272!16s%2Fg%2F11hdjcp5pk!19sChIJhT-kpAXff0cRKJQqKYwIulA?authuser=0&hl=tr&rclk=1",
    "website_url": "https://www.irrigovignola.it/",
    "rating_text": "4,7",
    "stars": null,
    "number_of_reviews": null,
    "price_level": "",
    "open_hours": "",
    "extraction_timestamp": "2025-06-07T16:44:27.196Z",
    "source_name": "google",
    "source_query": "Irrigation Equipment",
    "source_country": "IT",
    "country": "Italy",
    "state": "Emilia-Romagna",
    "city": "Vigarano Pieve"
  },
  {
    "source_id": "ChIJ90M5rjikf0cRsV0md3bV2Ng",
    "name": "Guaresi Spa",
    "category": "Guaresi Spa",
    "formatted_address": "4,7(63)",
    "phone_number": "+390532883373",
    "source_url": "https://www.google.com/maps/place/Guaresi+Spa/data=!4m7!3m6!1s0x477fa438ae3943f7:0xd8d8d57677265db1!8m2!3d44.947486!4d11.2887767!16s%2Fg%2F1tzztbz3!19sChIJ90M5rjikf0cRsV0md3bV2Ng?authuser=0&hl=tr&rclk=1",
    "website_url": "http://guaresi.com/",
    "rating_text": "4,7",
    "stars": null,
    "number_of_reviews": null,
    "price_level": "",
    "open_hours": "",
    "extraction_timestamp": "2025-06-07T16:44:27.196Z",
    "source_name": "google",
    "source_query": "Irrigation Equipment",
    "source_country": "IT",
    "country": "Italy",
    "state": "Emilia-Romagna",
    "city": "Vigarano Pieve"
  },
  {
    "source_id": "ChIJQyDw8N_0f0cRhE_m36C06SU",
    "name": "Irrigreen",
    "category": "Irrigreen",
    "formatted_address": "4,3(3)",
    "phone_number": "+390522642318",
    "source_url": "https://www.google.com/maps/place/Irrigreen/data=!4m7!3m6!1s0x477ff4dff0f02043:0x25e9b4a0dfe64f84!8m2!3d45.1836109!4d10.6267461!16s%2Fg%2F1tddwm9t!19sChIJQyDw8N_0f0cRhE_m36C06SU?authuser=0&hl=tr&rclk=1",
    "website_url": "http://www.irrigreen.it/",
    "rating_text": "4,3",
    "stars": null,
    "number_of_reviews": null,
    "price_level": "",
    "open_hours": "",
    "extraction_timestamp": "2025-06-07T16:44:27.196Z",
    "source_name": "google",
    "source_query": "Irrigation Equipment",
    "source_country": "IT",
    "country": "Italy",
    "state": "Emilia-Romagna",
    "city": "Vigarano Pieve"
  },
  {
    "source_id": "ChIJa-er_rg1fkcR91VT6-rG3xU",
    "name": "Reni Technology",
    "category": "Reni Technology",
    "formatted_address": "5,0(1)",
    "phone_number": "+393351025315",
    "source_url": "https://www.google.com/maps/place/Reni+Technology/data=!4m7!3m6!1s0x477e35b8feabe76b:0x15dfc6eaeb5355f7!8m2!3d44.6801953!4d11.4932506!16s%2Fg%2F11vkp3f3qd!19sChIJa-er_rg1fkcR91VT6-rG3xU?authuser=0&hl=tr&rclk=1",
    "website_url": "https://www.renitechnology.net/",
    "rating_text": "5,0",
    "stars": null,
    "number_of_reviews": null,
    "price_level": "",
    "open_hours": "",
    "extraction_timestamp": "2025-06-07T16:44:27.196Z",
    "source_name": "google",
    "source_query": "Irrigation Equipment",
    "source_country": "IT",
    "country": "Italy",
    "state": "Emilia-Romagna",
    "city": "Vigarano Pieve"
  },
  {
    "source_id": "ChIJBRqkYK6yf0cRbA3Ba3i3FFM",
    "name": "GSM S.r.l.",
    "category": "GSM S.r.l.",
    "formatted_address": "3,0(1)",
    "phone_number": "+390532715711",
    "source_url": "https://www.google.com/maps/place/GSM+S.r.l./data=!4m7!3m6!1s0x477fb2ae60a41a05:0x5314b7786bc10d6c!8m2!3d44.8605541!4d11.5074099!16s%2Fg%2F1tcvn3ld!19sChIJBRqkYK6yf0cRbA3Ba3i3FFM?authuser=0&hl=tr&rclk=1",
    "website_url": "https://www.gsmtecnica.it/",
    "rating_text": "3,0",
    "stars": null,
    "number_of_reviews": null,
    "price_level": "",
    "open_hours": "",
    "extraction_timestamp": "2025-06-07T16:44:27.197Z",
    "source_name": "google",
    "source_query": "Irrigation Equipment",
    "source_country": "IT",
    "country": "Italy",
    "state": "Emilia-Romagna",
    "city": "Vigarano Pieve"
  }
]
