[
  {
    "source_id": "ChIJy805WcDcgEcRtmGWlwosXQc",
    "name": "IRRIMEC SRL",
    "category": "IRRIMEC SRL",
    "formatted_address": "4,5(90)",
    "phone_number": "+390523760441",
    "source_url": "https://www.google.com/maps/place/IRRIMEC+SRL/data=!4m7!3m6!1s0x4780dcc05939cdcb:0x75d2c0a979661b6!8m2!3d45.0612353!4d9.630829!16s%2Fg%2F1tdgt7d_!19sChIJy805WcDcgEcRtmGWlwosXQc?authuser=0&hl=tr&rclk=1",
    "website_url": "http://www.irrimec.com/",
    "rating_text": "4,5",
    "stars": null,
    "number_of_reviews": null,
    "price_level": "",
    "open_hours": "",
    "extraction_timestamp": "2025-06-07T16:27:12.234Z",
    "source_name": "google",
    "source_query": "Irrigation Equipment",
    "source_country": "IT",
    "country": "Italy",
    "state": "Emilia-Romagna",
    "city": "Vigolzone"
  },
  {
    "source_id": "ChIJlfKaqSlRfksRNvergECjVi8",
    "name": "Mannino Sistemi Trattamento Acqua",
    "category": "Mannino Sistemi Trattamento Acqua",
    "formatted_address": "4,8(16)",
    "phone_number": "+393505784936",
    "source_url": "https://www.google.com/maps/place/Mannino+Sistemi+Trattamento+Acqua/data=!4m7!3m6!1s0x4b7e5129a99af295:0x2f56a34080abf736!8m2!3d45.0422201!4d9.6981487!16s%2Fg%2F11q3q46xvv!19sChIJlfKaqSlRfksRNvergECjVi8?authuser=0&hl=tr&rclk=1",
    "website_url": "http://manninodepurazione.it/",
    "rating_text": "4,8",
    "stars": null,
    "number_of_reviews": null,
    "price_level": "",
    "open_hours": "",
    "extraction_timestamp": "2025-06-07T16:27:12.236Z",
    "source_name": "google",
    "source_query": "Irrigation Equipment",
    "source_country": "IT",
    "country": "Italy",
    "state": "Emilia-Romagna",
    "city": "Vigolzone"
  },
  {
    "source_id": "ChIJBUT9_L7BgEcRjMYaL_ndhlc",
    "name": "Euroacque",
    "category": "Euroacque",
    "formatted_address": "4,0(61)",
    "phone_number": "+390523952272",
    "source_url": "https://www.google.com/maps/place/Euroacque/data=!4m7!3m6!1s0x4780c1befcfd4405:0x5786ddf92f1ac68c!8m2!3d44.9480377!4d9.6371961!16s%2Fg%2F1tdn7jcw!19sChIJBUT9_L7BgEcRjMYaL_ndhlc?authuser=0&hl=tr&rclk=1",
    "website_url": "http://www.addolcitori.it/",
    "rating_text": "4,0",
    "stars": null,
    "number_of_reviews": null,
    "price_level": "",
    "open_hours": "",
    "extraction_timestamp": "2025-06-07T16:27:12.238Z",
    "source_name": "google",
    "source_query": "Irrigation Equipment",
    "source_country": "IT",
    "country": "Italy",
    "state": "Emilia-Romagna",
    "city": "Vigolzone"
  },
  {
    "source_id": "ChIJBTV9bmGVgEcRIczqle9G4bM",
    "name": "Tramelli Gabriele Srl Termoidraulica",
    "category": "Tramelli Gabriele Srl Termoidraulica",
    "formatted_address": "5,0(31)",
    "phone_number": "+390523875340",
    "source_url": "https://www.google.com/maps/place/Tramelli+Gabriele+Srl+Termoidraulica/data=!4m7!3m6!1s0x478095616e7d3505:0xb3e146ef95eacc21!8m2!3d44.8686074!4d9.6392771!16s%2Fg%2F1v76yhn1!19sChIJBTV9bmGVgEcRIczqle9G4bM?authuser=0&hl=tr&rclk=1",
    "website_url": "http://www.tramelligabriele.it/",
    "rating_text": "5,0",
    "stars": null,
    "number_of_reviews": null,
    "price_level": "",
    "open_hours": "",
    "extraction_timestamp": "2025-06-07T16:27:12.239Z",
    "source_name": "google",
    "source_query": "Irrigation Equipment",
    "source_country": "IT",
    "country": "Italy",
    "state": "Emilia-Romagna",
    "city": "Vigolzone"
  },
  {
    "source_id": "ChIJ9V7VUGIbEQ4Rd0H8gwcDqwk",
    "name": "Mannino Sistemi Trattamento Acqua",
    "category": "Mannino Sistemi Trattamento Acqua",
    "formatted_address": "3,7(3)",
    "phone_number": "+393505784936",
    "source_url": "https://www.google.com/maps/place/Mannino+Sistemi+Trattamento+Acqua/data=!4m7!3m6!1s0xe111b6250d55ef5:0x9ab030783fc4177!8m2!3d45.0422201!4d9.6981487!16s%2Fg%2F11s33q_spp!19sChIJ9V7VUGIbEQ4Rd0H8gwcDqwk?authuser=0&hl=tr&rclk=1",
    "website_url": "http://www.manninodepurazione.it/",
    "rating_text": "3,7",
    "stars": null,
    "number_of_reviews": null,
    "price_level": "",
    "open_hours": "",
    "extraction_timestamp": "2025-06-07T16:27:12.241Z",
    "source_name": "google",
    "source_query": "Irrigation Equipment",
    "source_country": "IT",
    "country": "Italy",
    "state": "Emilia-Romagna",
    "city": "Vigolzone"
  },
  {
    "source_id": "ChIJSaPB0L_BgEcR3OdIXHXfmmU",
    "name": "EQ S.r.l.",
    "category": "EQ S.r.l.",
    "formatted_address": "1,0(2)",
    "phone_number": "+390523953064",
    "source_url": "https://www.google.com/maps/place/EQ+S.r.l./data=!4m7!3m6!1s0x4780c1bfd0c1a349:0x659adf755c48e7dc!8m2!3d41.29085!4d12.71216!16s%2Fg%2F11f5jqn6sf!19sChIJSaPB0L_BgEcR3OdIXHXfmmU?authuser=0&hl=tr&rclk=1",
    "website_url": "",
    "rating_text": "1,0",
    "stars": null,
    "number_of_reviews": null,
    "price_level": "",
    "open_hours": "",
    "extraction_timestamp": "2025-06-07T16:27:12.242Z",
    "source_name": "google",
    "source_query": "Irrigation Equipment",
    "source_country": "IT",
    "country": "Italy",
    "state": "Emilia-Romagna",
    "city": "Vigolzone"
  },
  {
    "source_id": "ChIJR1uDwqjBgEcRZ9zHA5m55r8",
    "name": "Aquafiltra S.r.l. Rivergaro",
    "category": "Aquafiltra S.r.l. Rivergaro",
    "formatted_address": "Su Yumuşatma Ekipmanları Tedarikçisi · Via Giulio Pastore, 2+39 0523 951838",
    "phone_number": "+390523951838",
    "source_url": "https://www.google.com/maps/place/Aquafiltra+S.r.l.+Rivergaro/data=!4m7!3m6!1s0x4780c1a8c2835b47:0xbfe6b99903c7dc67!8m2!3d44.9483412!4d9.6373541!16s%2Fg%2F11k4jcs2bn!19sChIJR1uDwqjBgEcRZ9zHA5m55r8?authuser=0&hl=tr&rclk=1",
    "website_url": "",
    "rating_text": "",
    "stars": null,
    "number_of_reviews": null,
    "price_level": "",
    "open_hours": "",
    "extraction_timestamp": "2025-06-07T16:27:12.244Z",
    "source_name": "google",
    "source_query": "Irrigation Equipment",
    "source_country": "IT",
    "country": "Italy",
    "state": "Emilia-Romagna",
    "city": "Vigolzone"
  },
  {
    "source_id": "ChIJ391B9xDBgEcRgq9shzN7xVA",
    "name": "Padel Niviano",
    "category": "Padel Niviano",
    "formatted_address": "4,8(32)",
    "phone_number": "+393920598989",
    "source_url": "https://www.google.com/maps/place/Padel+Niviano/data=!4m7!3m6!1s0x4780c110f741dddf:0x50c57b33876caf82!8m2!3d44.9491656!4d9.6363643!16s%2Fg%2F11t7xsxn9z!19sChIJ391B9xDBgEcRgq9shzN7xVA?authuser=0&hl=tr&rclk=1",
    "website_url": "https://www.padelniviano.it/",
    "rating_text": "4,8",
    "stars": null,
    "number_of_reviews": null,
    "price_level": "",
    "open_hours": "",
    "extraction_timestamp": "2025-06-07T16:27:12.245Z",
    "source_name": "google",
    "source_query": "Irrigation Equipment",
    "source_country": "IT",
    "country": "Italy",
    "state": "Emilia-Romagna",
    "city": "Vigolzone"
  },
  {
    "source_id": "ChIJP4ZNSAV720MRKzxQGw-onx0",
    "name": "Mannino Sistemi Trattamento",
    "category": "Mannino Sistemi Trattamento",
    "formatted_address": "",
    "phone_number": "+393505784936",
    "source_url": "https://www.google.com/maps/place/Mannino+Sistemi+Trattamento/data=!4m7!3m6!1s0x43db7b05484d863f:0x1d9fa80f1b503c2b!8m2!3d44.4355116!4d10.9767761!16s%2Fg%2F11q4bd04zw!19sChIJP4ZNSAV720MRKzxQGw-onx0?authuser=0&hl=tr&rclk=1",
    "website_url": "http://manninodepurazione.it/",
    "rating_text": "",
    "stars": null,
    "number_of_reviews": null,
    "price_level": "",
    "open_hours": "",
    "extraction_timestamp": "2025-06-07T16:27:12.247Z",
    "source_name": "google",
    "source_query": "Irrigation Equipment",
    "source_country": "IT",
    "country": "Italy",
    "state": "Emilia-Romagna",
    "city": "Vigolzone"
  },
  {
    "source_id": "ChIJF1HWePfrgEcRhPD9IoZcGJ4",
    "name": "Brico Ok - Podenzano",
    "category": "Brico Ok - Podenzano",
    "formatted_address": "4,3(357)",
    "phone_number": "+3905231610625",
    "source_url": "https://www.google.com/maps/place/Brico+Ok+-+Podenzano/data=!4m7!3m6!1s0x4780ebf778d65117:0x9e185c8622fdf084!8m2!3d44.9543631!4d9.6829344!16s%2Fg%2F11j6wqnr9v!19sChIJF1HWePfrgEcRhPD9IoZcGJ4?authuser=0&hl=tr&rclk=1",
    "website_url": "http://www.bricook.it/",
    "rating_text": "4,3",
    "stars": null,
    "number_of_reviews": null,
    "price_level": "",
    "open_hours": "",
    "extraction_timestamp": "2025-06-07T16:27:12.249Z",
    "source_name": "google",
    "source_query": "Irrigation Equipment",
    "source_country": "IT",
    "country": "Italy",
    "state": "Emilia-Romagna",
    "city": "Vigolzone"
  },
  {
    "source_id": "ChIJp89q87XrgEcRSwDPpmLJJiU",
    "name": "Farmainforma",
    "category": "Farmainforma",
    "formatted_address": "5,0(10)",
    "phone_number": "+390523556688",
    "source_url": "https://www.google.com/maps/place/Farmainforma/data=!4m7!3m6!1s0x4780ebb5f36acfa7:0x2526c962a6cf004b!8m2!3d44.9604806!4d9.682031!16s%2Fg%2F11n95qvcw7!19sChIJp89q87XrgEcRSwDPpmLJJiU?authuser=0&hl=tr&rclk=1",
    "website_url": "https://www.farmainforma.net/",
    "rating_text": "5,0",
    "stars": null,
    "number_of_reviews": null,
    "price_level": "",
    "open_hours": "",
    "extraction_timestamp": "2025-06-07T16:27:12.251Z",
    "source_name": "google",
    "source_query": "Irrigation Equipment",
    "source_country": "IT",
    "country": "Italy",
    "state": "Emilia-Romagna",
    "city": "Vigolzone"
  },
  {
    "source_id": "ChIJQxnaBoDBgEcRm4YkIkFJx5U",
    "name": "Aquafiltra Srl",
    "category": "Aquafiltra Srl",
    "formatted_address": "1,0(2)",
    "phone_number": "+393911551050",
    "source_url": "https://www.google.com/maps/place/Aquafiltra+Srl/data=!4m7!3m6!1s0x4780c18006da1943:0x95c749412224869b!8m2!3d41.29085!4d12.71216!16s%2Fg%2F11j24fs1m6!19sChIJQxnaBoDBgEcRm4YkIkFJx5U?authuser=0&hl=tr&rclk=1",
    "website_url": "http://www.aquafiltra.it/",
    "rating_text": "1,0",
    "stars": null,
    "number_of_reviews": null,
    "price_level": "",
    "open_hours": "",
    "extraction_timestamp": "2025-06-07T16:27:12.252Z",
    "source_name": "google",
    "source_query": "Irrigation Equipment",
    "source_country": "IT",
    "country": "Italy",
    "state": "Emilia-Romagna",
    "city": "Vigolzone"
  }
]
