[
  {
    "source_id": "ChIJ9X_DI6LDLBMR84MeChQNUCU",
    "name": "Irriverde - Il Paesaggio S.r.l.",
    "category": "Irriverde - Il Paesaggio S.r.l.",
    "formatted_address": "4,8(15)",
    "phone_number": "+393939275801",
    "source_url": "https://www.google.com/maps/place/Irriverde+-+Il+Paesaggio+S.r.l./data=!4m7!3m6!1s0x132cc3a223c37ff5:0x25500d140a1e83f3!8m2!3d43.982224!4d12.5281091!16s%2Fg%2F1ptz65rjr!19sChIJ9X_DI6LDLBMR84MeChQNUCU?authuser=0&hl=tr&rclk=1",
    "website_url": "",
    "rating_text": "4,8",
    "stars": null,
    "number_of_reviews": null,
    "price_level": "",
    "open_hours": "",
    "extraction_timestamp": "2025-06-07T16:03:47.523Z",
    "source_name": "google",
    "source_query": "Irrigation Equipment",
    "source_country": "IT",
    "country": "Italy",
    "state": "Emilia-Romagna",
    "city": "Villa Verucchio"
  },
  {
    "source_id": "ChIJM4b1Qx6VLBMR8m-C9rGPQWY",
    "name": "Squadrani di Squadrani Daniele",
    "category": "Squadrani di Squadrani Daniele",
    "formatted_address": "4,3(25)",
    "phone_number": "+390541678005",
    "source_url": "https://www.google.com/maps/place/Squadrani+di+Squadrani+Daniele/data=!4m7!3m6!1s0x132c951e43f58633:0x66418fb1f6826ff2!8m2!3d43.9833978!4d12.4084436!16s%2Fg%2F11hd22h1m0!19sChIJM4b1Qx6VLBMR8m-C9rGPQWY?authuser=0&hl=tr&rclk=1",
    "website_url": "",
    "rating_text": "4,3",
    "stars": null,
    "number_of_reviews": null,
    "price_level": "",
    "open_hours": "",
    "extraction_timestamp": "2025-06-07T16:03:47.523Z",
    "source_name": "google",
    "source_query": "Irrigation Equipment",
    "source_country": "IT",
    "country": "Italy",
    "state": "Emilia-Romagna",
    "city": "Villa Verucchio"
  },
  {
    "source_id": "ChIJUehaujeVLBMRD5PoxbBTES4",
    "name": "Agricoltura e Giardinaggio di Moretti Mauro",
    "category": "Agricoltura e Giardinaggio di Moretti Mauro",
    "formatted_address": "4,7(36)",
    "phone_number": "+390541670392",
    "source_url": "https://www.google.com/maps/place/Agricoltura+e+Giardinaggio+di+Moretti+Mauro/data=!4m7!3m6!1s0x132c9537ba5ae851:0x2e1153b0c5e8930f!8m2!3d44.0012115!4d12.4285678!16s%2Fg%2F11cm4b3w0_!19sChIJUehaujeVLBMRD5PoxbBTES4?authuser=0&hl=tr&rclk=1",
    "website_url": "",
    "rating_text": "4,7",
    "stars": null,
    "number_of_reviews": null,
    "price_level": "",
    "open_hours": "",
    "extraction_timestamp": "2025-06-07T16:03:47.524Z",
    "source_name": "google",
    "source_query": "Irrigation Equipment",
    "source_country": "IT",
    "country": "Italy",
    "state": "Emilia-Romagna",
    "city": "Villa Verucchio"
  },
  {
    "source_id": "ChIJ3929VDmVLBMR8VgFaN83fI8",
    "name": "Tecno Azzurra S.R.L.",
    "category": "Tecno Azzurra S.R.L.",
    "formatted_address": "5,0(1)",
    "phone_number": "+390541678078",
    "source_url": "https://www.google.com/maps/place/Tecno+Azzurra+S.R.L./data=!4m7!3m6!1s0x132c953954bddddf:0x8f7c37df680558f1!8m2!3d43.998861!4d12.422273!16s%2Fg%2F1tdj6bq9!19sChIJ3929VDmVLBMR8VgFaN83fI8?authuser=0&hl=tr&rclk=1",
    "website_url": "",
    "rating_text": "5,0",
    "stars": null,
    "number_of_reviews": null,
    "price_level": "",
    "open_hours": "",
    "extraction_timestamp": "2025-06-07T16:03:47.524Z",
    "source_name": "google",
    "source_query": "Irrigation Equipment",
    "source_country": "IT",
    "country": "Italy",
    "state": "Emilia-Romagna",
    "city": "Villa Verucchio"
  },
  {
    "source_id": "ChIJMUpDhEuVLBMRZ86C1Yw1DUQ",
    "name": "Tecno Gas",
    "category": "Tecno Gas",
    "formatted_address": "4,5(26)",
    "phone_number": "+390541678920",
    "source_url": "https://www.google.com/maps/place/Tecno+Gas/data=!4m7!3m6!1s0x132c954b84434a31:0x440d358cd582ce67!8m2!3d44.0063941!4d12.4346297!16s%2Fg%2F1tfwgmj7!19sChIJMUpDhEuVLBMRZ86C1Yw1DUQ?authuser=0&hl=tr&rclk=1",
    "website_url": "",
    "rating_text": "4,5",
    "stars": null,
    "number_of_reviews": null,
    "price_level": "",
    "open_hours": "",
    "extraction_timestamp": "2025-06-07T16:03:47.525Z",
    "source_name": "google",
    "source_query": "Irrigation Equipment",
    "source_country": "IT",
    "country": "Italy",
    "state": "Emilia-Romagna",
    "city": "Villa Verucchio"
  },
  {
    "source_id": "ChIJy4AVn9C-LBMRn6nsnuZl82A",
    "name": "Ramilli Irrigazioni S.R.L.",
    "category": "Ramilli Irrigazioni S.R.L.",
    "formatted_address": "4,3(52)",
    "phone_number": "+390541945335",
    "source_url": "https://www.google.com/maps/place/Ramilli+Irrigazioni+S.R.L./data=!4m7!3m6!1s0x132cbed09f1580cb:0x60f365e69eeca99f!8m2!3d44.0923156!4d12.3843691!16s%2Fg%2F1ts2ls1r!19sChIJy4AVn9C-LBMRn6nsnuZl82A?authuser=0&hl=tr&rclk=1",
    "website_url": "",
    "rating_text": "4,3",
    "stars": null,
    "number_of_reviews": null,
    "price_level": "",
    "open_hours": "",
    "extraction_timestamp": "2025-06-07T16:03:47.525Z",
    "source_name": "google",
    "source_query": "Irrigation Equipment",
    "source_country": "IT",
    "country": "Italy",
    "state": "Emilia-Romagna",
    "city": "Villa Verucchio"
  },
  {
    "source_id": "ChIJLaAPTNiULBMRv2Q0t6qI068",
    "name": "Balducci Ferramenta E Casalinghi Sas Di Pazzini Marco E C.",
    "category": "Balducci Ferramenta E Casalinghi Sas Di Pazzini Marco E C.",
    "formatted_address": "4,7(87)",
    "phone_number": "+390541677305",
    "source_url": "https://www.google.com/maps/place/Balducci+Ferramenta+E+Casalinghi+Sas+Di+Pazzini+Marco+E+C./data=!4m7!3m6!1s0x132c94d84c0fa02d:0xafd388aab73464bf!8m2!3d44.0037286!4d12.4326191!16s%2Fg%2F1v8yzlgh!19sChIJLaAPTNiULBMRv2Q0t6qI068?authuser=0&hl=tr&rclk=1",
    "website_url": "",
    "rating_text": "4,7",
    "stars": null,
    "number_of_reviews": null,
    "price_level": "",
    "open_hours": "",
    "extraction_timestamp": "2025-06-07T16:03:47.525Z",
    "source_name": "google",
    "source_query": "Irrigation Equipment",
    "source_country": "IT",
    "country": "Italy",
    "state": "Emilia-Romagna",
    "city": "Villa Verucchio"
  },
  {
    "source_id": "ChIJz4bSRrLqLBMRMqAwCki8b6Q",
    "name": "Clima In Snc Di Fabbri Gilberto e C. snc",
    "category": "Clima In Snc Di Fabbri Gilberto e C. snc",
    "formatted_address": "4,6(17)",
    "phone_number": "+390541670363",
    "source_url": "https://www.google.com/maps/place/Clima+In+Snc+Di+Fabbri+Gilberto+e+C.+snc/data=!4m7!3m6!1s0x132ceab246d286cf:0xa46fbc480a30a032!8m2!3d43.9930979!4d12.4177672!16s%2Fg%2F1tf4h4cw!19sChIJz4bSRrLqLBMRMqAwCki8b6Q?authuser=0&hl=tr&rclk=1",
    "website_url": "",
    "rating_text": "4,6",
    "stars": null,
    "number_of_reviews": null,
    "price_level": "",
    "open_hours": "",
    "extraction_timestamp": "2025-06-07T16:03:47.526Z",
    "source_name": "google",
    "source_query": "Irrigation Equipment",
    "source_country": "IT",
    "country": "Italy",
    "state": "Emilia-Romagna",
    "city": "Villa Verucchio"
  },
  {
    "source_id": "ChIJXymBuR3ALBMRASFJw1zn8-o",
    "name": "Techwater S.r.l. - Impianti trattamento acque",
    "category": "Techwater S.r.l. - Impianti trattamento acque",
    "formatted_address": "5,0(4)",
    "phone_number": "+390541758444",
    "source_url": "https://www.google.com/maps/place/Techwater+S.r.l.+-+Impianti+trattamento+acque/data=!4m7!3m6!1s0x132cc01db981295f:0xeaf3e75cc3492101!8m2!3d44.02023!4d12.453504!16s%2Fg%2F1tg3d6rp!19sChIJXymBuR3ALBMRASFJw1zn8-o?authuser=0&hl=tr&rclk=1",
    "website_url": "",
    "rating_text": "5,0",
    "stars": null,
    "number_of_reviews": null,
    "price_level": "",
    "open_hours": "",
    "extraction_timestamp": "2025-06-07T16:03:47.526Z",
    "source_name": "google",
    "source_query": "Irrigation Equipment",
    "source_country": "IT",
    "country": "Italy",
    "state": "Emilia-Romagna",
    "city": "Villa Verucchio"
  },
  {
    "source_id": "ChIJk1O4CK_rLBMR_bhIhui2eCQ",
    "name": "PiùMe Villa Verucchio",
    "category": "PiùMe Villa Verucchio",
    "formatted_address": "4,8(43)",
    "phone_number": "+390541921807",
    "source_url": "https://www.google.com/maps/place/Pi%C3%B9Me+Villa+Verucchio/data=!4m7!3m6!1s0x132cebaf08b85393:0x2478b6e88648b8fd!8m2!3d44.0081804!4d12.4409475!16s%2Fg%2F11vljpvk36!19sChIJk1O4CK_rLBMR_bhIhui2eCQ?authuser=0&hl=tr&rclk=1",
    "website_url": "",
    "rating_text": "4,8",
    "stars": null,
    "number_of_reviews": null,
    "price_level": "",
    "open_hours": "",
    "extraction_timestamp": "2025-06-07T16:03:47.526Z",
    "source_name": "google",
    "source_query": "Irrigation Equipment",
    "source_country": "IT",
    "country": "Italy",
    "state": "Emilia-Romagna",
    "city": "Villa Verucchio"
  },
  {
    "source_id": "ChIJDdL0-DiVLBMRO3SJ1dKPe4w",
    "name": "FD Solutions s.r.l.",
    "category": "FD Solutions s.r.l.",
    "formatted_address": "4,8(12)",
    "phone_number": "+390541678786",
    "source_url": "https://www.google.com/maps/place/FD+Solutions+s.r.l./data=!4m7!3m6!1s0x132c9538f8f4d20d:0x8c7b8fd2d589743b!8m2!3d44.0012474!4d12.4241142!16s%2Fg%2F11c610bl4g!19sChIJDdL0-DiVLBMRO3SJ1dKPe4w?authuser=0&hl=tr&rclk=1",
    "website_url": "",
    "rating_text": "4,8",
    "stars": null,
    "number_of_reviews": null,
    "price_level": "",
    "open_hours": "",
    "extraction_timestamp": "2025-06-07T16:03:47.527Z",
    "source_name": "google",
    "source_query": "Irrigation Equipment",
    "source_country": "IT",
    "country": "Italy",
    "state": "Emilia-Romagna",
    "city": "Villa Verucchio"
  },
  {
    "source_id": "ChIJvXaBkF7S2y4RzzP0yjLoza4",
    "name": "Pianeta Idraulica s.r.l.",
    "category": "Pianeta Idraulica s.r.l.",
    "formatted_address": "",
    "phone_number": "+390541679079",
    "source_url": "https://www.google.com/maps/place/Pianeta+Idraulica+s.r.l./data=!4m7!3m6!1s0x2edbd25e908176bd:0xaecde832caf433cf!8m2!3d44.0534634!4d12.574687!16s%2Fg%2F11rq4tfxry!19sChIJvXaBkF7S2y4RzzP0yjLoza4?authuser=0&hl=tr&rclk=1",
    "website_url": "",
    "rating_text": "",
    "stars": null,
    "number_of_reviews": null,
    "price_level": "",
    "open_hours": "",
    "extraction_timestamp": "2025-06-07T16:03:47.527Z",
    "source_name": "google",
    "source_query": "Irrigation Equipment",
    "source_country": "IT",
    "country": "Italy",
    "state": "Emilia-Romagna",
    "city": "Villa Verucchio"
  },
  {
    "source_id": "ChIJL1StzTmVLBMRuOmx8czlG-I",
    "name": "Autoplanet officina di autoriparazione snc",
    "category": "Autoplanet officina di autoriparazione snc",
    "formatted_address": "4,9(25)",
    "phone_number": "+390541679020",
    "source_url": "https://www.google.com/maps/place/Autoplanet+officina+di+autoriparazione+snc/data=!4m7!3m6!1s0x132c9539cdad542f:0xe21be5ccf1b1e9b8!8m2!3d44.0006436!4d12.4256444!16s%2Fg%2F1tf5yjv6!19sChIJL1StzTmVLBMRuOmx8czlG-I?authuser=0&hl=tr&rclk=1",
    "website_url": "",
    "rating_text": "4,9",
    "stars": null,
    "number_of_reviews": null,
    "price_level": "",
    "open_hours": "",
    "extraction_timestamp": "2025-06-07T16:03:47.527Z",
    "source_name": "google",
    "source_query": "Irrigation Equipment",
    "source_country": "IT",
    "country": "Italy",
    "state": "Emilia-Romagna",
    "city": "Villa Verucchio"
  },
  {
    "source_id": "ChIJpyQCFLPqLBMRCWJB7HzG7ns",
    "name": "Fercolor Di Rocchi Emilio E Rocchi Marco Snc",
    "category": "Fercolor Di Rocchi Emilio E Rocchi Marco Snc",
    "formatted_address": "4,5(53)",
    "phone_number": "+390541670340",
    "source_url": "https://www.google.com/maps/place/Fercolor+Di+Rocchi+Emilio+E+Rocchi+Marco+Snc/data=!4m7!3m6!1s0x132ceab3140224a7:0x7beec67cec416209!8m2!3d44.007659!4d12.440176!16s%2Fg%2F1tj5t4z0!19sChIJpyQCFLPqLBMRCWJB7HzG7ns?authuser=0&hl=tr&rclk=1",
    "website_url": "",
    "rating_text": "4,5",
    "stars": null,
    "number_of_reviews": null,
    "price_level": "",
    "open_hours": "",
    "extraction_timestamp": "2025-06-07T16:03:47.528Z",
    "source_name": "google",
    "source_query": "Irrigation Equipment",
    "source_country": "IT",
    "country": "Italy",
    "state": "Emilia-Romagna",
    "city": "Villa Verucchio"
  }
]
