[
  {
    "source_id": "ChIJsaKjhzvIKhMR-OgdYtY3cBM",
    "name": "Giesse di Sandrolini Giovanni",
    "category": "Giesse di Sandrolini Giovanni",
    "formatted_address": "4,8(12)",
    "phone_number": "+39059986565",
    "source_url": "https://www.google.com/maps/place/Giesse+di+Sandrolini+Giovanni/data=!4m7!3m6!1s0x132ac83b87a3a2b1:0x137037d6621de8f8!8m2!3d44.3447163!4d10.9957568!16s%2Fg%2F1tpfg4ch!19sChIJsaKjhzvIKhMR-OgdYtY3cBM?authuser=0&hl=tr&rclk=1",
    "website_url": "",
    "rating_text": "4,8",
    "stars": null,
    "number_of_reviews": null,
    "price_level": "",
    "open_hours": "",
    "extraction_timestamp": "2025-06-07T15:46:52.834Z",
    "source_name": "google",
    "source_query": "Irrigation Equipment",
    "source_country": "IT",
    "country": "Italy",
    "state": "Emilia-Romagna",
    "city": "Zocca"
  },
  {
    "source_id": "ChIJcQG6ul7df0cR3VxKiu5OPBs",
    "name": "Scova Impianti Srl",
    "category": "Scova Impianti Srl",
    "formatted_address": "4,5(64)",
    "phone_number": "+39059923202",
    "source_url": "https://www.google.com/maps/place/Scova+Impianti+Srl/data=!4m7!3m6!1s0x477fdd5ebaba0171:0x1b3c4eee8a4a5cdd!8m2!3d44.6018135!4d11.032294!16s%2Fg%2F1tfzwbfb!19sChIJcQG6ul7df0cR3VxKiu5OPBs?authuser=0&hl=tr&rclk=1",
    "website_url": "https://www.scovaimpianti.com/",
    "rating_text": "4,5",
    "stars": null,
    "number_of_reviews": null,
    "price_level": "",
    "open_hours": "",
    "extraction_timestamp": "2025-06-07T15:46:52.834Z",
    "source_name": "google",
    "source_query": "Irrigation Equipment",
    "source_country": "IT",
    "country": "Italy",
    "state": "Emilia-Romagna",
    "city": "Zocca"
  },
  {
    "source_id": "ChIJwQ-qLibIKhMRTyODAmIL6TY",
    "name": "F.lli.Lamandini srl",
    "category": "F.lli.Lamandini srl",
    "formatted_address": "4,8(39)",
    "phone_number": "+39059987150",
    "source_url": "https://www.google.com/maps/place/F.lli.Lamandini+srl/data=!4m7!3m6!1s0x132ac8262eaa0fc1:0x36e90b620283234f!8m2!3d44.3494539!4d10.9840547!16s%2Fg%2F1hc8xscm5!19sChIJwQ-qLibIKhMRTyODAmIL6TY?authuser=0&hl=tr&rclk=1",
    "website_url": "http://www.immergas.com/",
    "rating_text": "4,8",
    "stars": null,
    "number_of_reviews": null,
    "price_level": "",
    "open_hours": "",
    "extraction_timestamp": "2025-06-07T15:46:52.835Z",
    "source_name": "google",
    "source_query": "Irrigation Equipment",
    "source_country": "IT",
    "country": "Italy",
    "state": "Emilia-Romagna",
    "city": "Zocca"
  },
  {
    "source_id": "ChIJJ6V6lMDgf0cR1SpFsfjDuHg",
    "name": "Ocmis Irrigazione Spa",
    "category": "Ocmis Irrigazione Spa",
    "formatted_address": "3,5(31)",
    "phone_number": "+39059702150",
    "source_url": "https://www.google.com/maps/place/Ocmis+Irrigazione+Spa/data=!4m7!3m6!1s0x477fe0c0947aa527:0x78b8c3f8b1452ad5!8m2!3d44.530494!4d10.9794578!16s%2Fg%2F1vd3tn19!19sChIJJ6V6lMDgf0cR1SpFsfjDuHg?authuser=0&hl=tr&rclk=1",
    "website_url": "http://www.ocmis-irrigazione.it/",
    "rating_text": "3,5",
    "stars": null,
    "number_of_reviews": null,
    "price_level": "",
    "open_hours": "",
    "extraction_timestamp": "2025-06-07T15:46:52.835Z",
    "source_name": "google",
    "source_query": "Irrigation Equipment",
    "source_country": "IT",
    "country": "Italy",
    "state": "Emilia-Romagna",
    "city": "Zocca"
  },
  {
    "source_id": "ChIJhT-kpAXff0cRKJQqKYwIulA",
    "name": "Irrigo",
    "category": "Irrigo",
    "formatted_address": "4,7(36)",
    "phone_number": "+393473096499",
    "source_url": "https://www.google.com/maps/place/Irrigo/data=!4m7!3m6!1s0x477fdf05a4a43f85:0x50ba088c292a9428!8m2!3d44.5018172!4d11.005272!16s%2Fg%2F11hdjcp5pk!19sChIJhT-kpAXff0cRKJQqKYwIulA?authuser=0&hl=tr&rclk=1",
    "website_url": "https://www.irrigovignola.it/",
    "rating_text": "4,7",
    "stars": null,
    "number_of_reviews": null,
    "price_level": "",
    "open_hours": "",
    "extraction_timestamp": "2025-06-07T15:46:52.835Z",
    "source_name": "google",
    "source_query": "Irrigation Equipment",
    "source_country": "IT",
    "country": "Italy",
    "state": "Emilia-Romagna",
    "city": "Zocca"
  },
  {
    "source_id": "ChIJuQod9zrIKhMRbKQMgn7NvTQ",
    "name": "Righetti 1911 Ferramenta Casalinghi Articoli Da Regalo",
    "category": "Righetti 1911 Ferramenta Casalinghi Articoli Da Regalo",
    "formatted_address": "4,5(21)",
    "phone_number": "+39059987034",
    "source_url": "https://www.google.com/maps/place/Righetti+1911+Ferramenta+Casalinghi+Articoli+Da+Regalo/data=!4m7!3m6!1s0x132ac83af71d0ab9:0x34bdcd7e820ca46c!8m2!3d44.346387!4d10.9944961!16s%2Fg%2F1tcwbmbd!19sChIJuQod9zrIKhMRbKQMgn7NvTQ?authuser=0&hl=tr&rclk=1",
    "website_url": "http://www.facebook.com/ferramentarighetti",
    "rating_text": "4,5",
    "stars": null,
    "number_of_reviews": null,
    "price_level": "",
    "open_hours": "",
    "extraction_timestamp": "2025-06-07T15:46:52.836Z",
    "source_name": "google",
    "source_query": "Irrigation Equipment",
    "source_country": "IT",
    "country": "Italy",
    "state": "Emilia-Romagna",
    "city": "Zocca"
  },
  {
    "source_id": "ChIJR2Cz4hjIKhMRaxLV1sc8Os0",
    "name": "Newsteel Casa e Ferramenta",
    "category": "Newsteel Casa e Ferramenta",
    "formatted_address": "4,6(80)",
    "phone_number": "+39059987744",
    "source_url": "https://www.google.com/maps/place/Newsteel+Casa+e+Ferramenta/data=!4m7!3m6!1s0x132ac818e2b36047:0xcd3a3cc7d6d5126b!8m2!3d44.3454651!4d10.9939684!16s%2Fg%2F1tmv0b9n!19sChIJR2Cz4hjIKhMRaxLV1sc8Os0?authuser=0&hl=tr&rclk=1",
    "website_url": "",
    "rating_text": "4,6",
    "stars": null,
    "number_of_reviews": null,
    "price_level": "",
    "open_hours": "",
    "extraction_timestamp": "2025-06-07T15:46:52.836Z",
    "source_name": "google",
    "source_query": "Irrigation Equipment",
    "source_country": "IT",
    "country": "Italy",
    "state": "Emilia-Romagna",
    "city": "Zocca"
  },
  {
    "source_id": "ChIJE_3jOnMtfkcRkxtTFj3Ym9E",
    "name": "Irrigation Scarabelli Srl",
    "category": "Irrigation Scarabelli Srl",
    "formatted_address": "4,5(23)",
    "phone_number": "+39051763363",
    "source_url": "https://www.google.com/maps/place/Irrigation+Scarabelli+Srl/data=!4m7!3m6!1s0x477e2d733ae3fd13:0xd19bd83d16531b93!8m2!3d44.5426053!4d11.4189136!16s%2Fg%2F11gzdz6vf!19sChIJE_3jOnMtfkcRkxtTFj3Ym9E?authuser=0&hl=tr&rclk=1",
    "website_url": "",
    "rating_text": "4,5",
    "stars": null,
    "number_of_reviews": null,
    "price_level": "",
    "open_hours": "",
    "extraction_timestamp": "2025-06-07T15:46:52.836Z",
    "source_name": "google",
    "source_query": "Irrigation Equipment",
    "source_country": "IT",
    "country": "Italy",
    "state": "Emilia-Romagna",
    "city": "Zocca"
  }
]
