[
  {
    "source_id": "ChIJE_3jOnMtfkcRkxtTFj3Ym9E",
    "name": "Irrigation Scarabelli Srl",
    "category": "Irrigation Scarabelli Srl",
    "formatted_address": "4,5(23)",
    "phone_number": "+39051763363",
    "source_url": "https://www.google.com/maps/place/Irrigation+Scarabelli+Srl/data=!4m7!3m6!1s0x477e2d733ae3fd13:0xd19bd83d16531b93!8m2!3d44.5426053!4d11.4189136!16s%2Fg%2F11gzdz6vf!19sChIJE_3jOnMtfkcRkxtTFj3Ym9E?authuser=0&hl=tr&rclk=1",
    "website_url": "",
    "rating_text": "4,5",
    "stars": null,
    "number_of_reviews": null,
    "price_level": "",
    "open_hours": "",
    "extraction_timestamp": "2025-06-07T16:44:52.214Z",
    "source_name": "google",
    "source_query": "Irrigation Equipment",
    "source_country": "IT",
    "country": "Italy",
    "state": "Emilia-Romagna",
    "city": "Zola Predosa"
  },
  {
    "source_id": "ChIJ_SYf2IMsfkcRVw9xVhrnjyI",
    "name": "Irrigazione Bragaglia",
    "category": "Irrigazione Bragaglia",
    "formatted_address": "4,7(30)",
    "phone_number": "+39051534865",
    "source_url": "https://www.google.com/maps/place/Irrigazione+Bragaglia/data=!4m7!3m6!1s0x477e2c83d81f26fd:0x228fe71a56710f57!8m2!3d44.5053735!4d11.412403!16s%2Fg%2F1vp6z0gf!19sChIJ_SYf2IMsfkcRVw9xVhrnjyI?authuser=0&hl=tr&rclk=1",
    "website_url": "http://www.irrigazionebragaglia.it/",
    "rating_text": "4,7",
    "stars": null,
    "number_of_reviews": null,
    "price_level": "",
    "open_hours": "",
    "extraction_timestamp": "2025-06-07T16:44:52.215Z",
    "source_name": "google",
    "source_query": "Irrigation Equipment",
    "source_country": "IT",
    "country": "Italy",
    "state": "Emilia-Romagna",
    "city": "Zola Predosa"
  },
  {
    "source_id": "ChIJi4GPjvrWf0cRVFtoiC8aPbc",
    "name": "Hydrapac Italia Srl - Oleodinamica - Hydraulic System & Components",
    "category": "Hydrapac Italia Srl - Oleodinamica - Hydraulic System & Components",
    "formatted_address": "5,0(8)",
    "phone_number": "+39051755082",
    "source_url": "https://www.google.com/maps/place/Hydrapac+Italia+Srl+-+Oleodinamica+-+Hydraulic+System+%26+Components/data=!4m7!3m6!1s0x477fd6fa8e8f818b:0xb73d1a2f88685b54!8m2!3d44.4905569!4d11.2347018!16s%2Fg%2F1wn_4z24!19sChIJi4GPjvrWf0cRVFtoiC8aPbc?authuser=0&hl=tr&rclk=1",
    "website_url": "https://www.hydrapac.it/",
    "rating_text": "5,0",
    "stars": null,
    "number_of_reviews": null,
    "price_level": "",
    "open_hours": "",
    "extraction_timestamp": "2025-06-07T16:44:52.215Z",
    "source_name": "google",
    "source_query": "Irrigation Equipment",
    "source_country": "IT",
    "country": "Italy",
    "state": "Emilia-Romagna",
    "city": "Zola Predosa"
  },
  {
    "source_id": "ChIJyXgg68QrfkcRAaJCOMJ3PxY",
    "name": "hidrisistem",
    "category": "hidrisistem",
    "formatted_address": "5,0(1)",
    "phone_number": "+39366448310824",
    "source_url": "https://www.google.com/maps/place/hidrisistem/data=!4m7!3m6!1s0x477e2bc4eb2078c9:0x163f77c23842a201!8m2!3d44.496029!4d11.402638!16s%2Fg%2F11w_zjhjy3!19sChIJyXgg68QrfkcRAaJCOMJ3PxY?authuser=0&hl=tr&rclk=1",
    "website_url": "",
    "rating_text": "5,0",
    "stars": null,
    "number_of_reviews": null,
    "price_level": "",
    "open_hours": "",
    "extraction_timestamp": "2025-06-07T16:44:52.215Z",
    "source_name": "google",
    "source_query": "Irrigation Equipment",
    "source_country": "IT",
    "country": "Italy",
    "state": "Emilia-Romagna",
    "city": "Zola Predosa"
  },
  {
    "source_id": "ChIJh3Nd8G0sfkcR_m7VewEmxXM",
    "name": "Irrigarden",
    "category": "Irrigarden",
    "formatted_address": "4,7(158)",
    "phone_number": "+39051782013",
    "source_url": "https://www.google.com/maps/place/Irrigarden/data=!4m7!3m6!1s0x477e2c6df05d7387:0x73c526017bd56efe!8m2!3d44.5096266!4d11.4390897!16s%2Fg%2F1vgw_l7w!19sChIJh3Nd8G0sfkcR_m7VewEmxXM?authuser=0&hl=tr&rclk=1",
    "website_url": "https://www.irrigarden-bo.it/",
    "rating_text": "4,7",
    "stars": null,
    "number_of_reviews": null,
    "price_level": "",
    "open_hours": "",
    "extraction_timestamp": "2025-06-07T16:44:52.216Z",
    "source_name": "google",
    "source_query": "Irrigation Equipment",
    "source_country": "IT",
    "country": "Italy",
    "state": "Emilia-Romagna",
    "city": "Zola Predosa"
  },
  {
    "source_id": "ChIJk-eFJLbSKhMR64UCht73IW0",
    "name": "Seico Impianti",
    "category": "Seico Impianti",
    "formatted_address": "5,0(1)",
    "phone_number": "+390516760040",
    "source_url": "https://www.google.com/maps/place/Seico+Impianti/data=!4m7!3m6!1s0x132ad2b62485e793:0x6d21f7de860285eb!8m2!3d44.4939447!4d11.2425111!16s%2Fg%2F1vy9j5rf!19sChIJk-eFJLbSKhMR64UCht73IW0?authuser=0&hl=tr&rclk=1",
    "website_url": "http://www.seicoimpianti.it/",
    "rating_text": "5,0",
    "stars": null,
    "number_of_reviews": null,
    "price_level": "",
    "open_hours": "",
    "extraction_timestamp": "2025-06-07T16:44:52.216Z",
    "source_name": "google",
    "source_query": "Irrigation Equipment",
    "source_country": "IT",
    "country": "Italy",
    "state": "Emilia-Romagna",
    "city": "Zola Predosa"
  },
  {
    "source_id": "ChIJ-e_9W-_Wf0cRUuNwRZEIJAE",
    "name": "Carboni ITS S.r.l.",
    "category": "Carboni ITS S.r.l.",
    "formatted_address": "4,7(13)",
    "phone_number": "+390516167190",
    "source_url": "https://www.google.com/maps/place/Carboni+ITS+S.r.l./data=!4m7!3m6!1s0x477fd6ef5bfdeff9:0x12408914570e352!8m2!3d44.4958331!4d11.2374916!16s%2Fg%2F11bwm3cs09!19sChIJ-e_9W-_Wf0cRUuNwRZEIJAE?authuser=0&hl=tr&rclk=1",
    "website_url": "https://www.carboni.com/",
    "rating_text": "4,7",
    "stars": null,
    "number_of_reviews": null,
    "price_level": "",
    "open_hours": "",
    "extraction_timestamp": "2025-06-07T16:44:52.217Z",
    "source_name": "google",
    "source_query": "Irrigation Equipment",
    "source_country": "IT",
    "country": "Italy",
    "state": "Emilia-Romagna",
    "city": "Zola Predosa"
  },
  {
    "source_id": "ChIJYfWSQufWf0cR5zTMzyoJeRg",
    "name": "Marzocchi Pompe S.p.A. Headquarters",
    "category": "Marzocchi Pompe S.p.A. Headquarters",
    "formatted_address": "4,6(15)",
    "phone_number": "+390516137511",
    "source_url": "https://www.google.com/maps/place/Marzocchi+Pompe+S.p.A.+Headquarters/data=!4m7!3m6!1s0x477fd6e74292f561:0x1879092acfcc34e7!8m2!3d44.5010068!4d11.2355006!16s%2Fg%2F11c56by3z8!19sChIJYfWSQufWf0cR5zTMzyoJeRg?authuser=0&hl=tr&rclk=1",
    "website_url": "http://www.marzocchipompe.com/",
    "rating_text": "4,6",
    "stars": null,
    "number_of_reviews": null,
    "price_level": "",
    "open_hours": "",
    "extraction_timestamp": "2025-06-07T16:44:52.217Z",
    "source_name": "google",
    "source_query": "Irrigation Equipment",
    "source_country": "IT",
    "country": "Italy",
    "state": "Emilia-Romagna",
    "city": "Zola Predosa"
  },
  {
    "source_id": "ChIJR7QLOyDXf0cRAropnQ_w_4E",
    "name": "HydraBuy - Hydraulic Systems & Components Store Online",
    "category": "HydraBuy - Hydraulic Systems & Components Store Online",
    "formatted_address": "5,0(2)",
    "phone_number": "+39051755082",
    "source_url": "https://www.google.com/maps/place/HydraBuy+-+Hydraulic+Systems+%26+Components+Store+Online/data=!4m7!3m6!1s0x477fd7203b0bb447:0x81fff00f9d29ba02!8m2!3d44.4905569!4d11.2347018!16s%2Fg%2F11h2qth71p!19sChIJR7QLOyDXf0cRAropnQ_w_4E?authuser=0&hl=tr&rclk=1",
    "website_url": "https://www.hydrabuy.com/",
    "rating_text": "5,0",
    "stars": null,
    "number_of_reviews": null,
    "price_level": "",
    "open_hours": "",
    "extraction_timestamp": "2025-06-07T16:44:52.218Z",
    "source_name": "google",
    "source_query": "Irrigation Equipment",
    "source_country": "IT",
    "country": "Italy",
    "state": "Emilia-Romagna",
    "city": "Zola Predosa"
  },
  {
    "source_id": "ChIJUw7HYAHXf0cRZfYHpK_hu5w",
    "name": "ACQUATECH Impianti srl",
    "category": "ACQUATECH Impianti srl",
    "formatted_address": "Su Tesisatı Malzemeleri Satıcısı ·  · Via Dante, 17Kapalı ⋅ Açılış zamanı: Pzt 08:00 · +39 051 616 6146",
    "phone_number": "+390516166146",
    "source_url": "https://www.google.com/maps/place/ACQUATECH+Impianti+srl/data=!4m7!3m6!1s0x477fd70160c70e53:0x9cbbe1afa407f665!8m2!3d44.4890455!4d11.2188146!16s%2Fg%2F11g9nqtl3j!19sChIJUw7HYAHXf0cRZfYHpK_hu5w?authuser=0&hl=tr&rclk=1",
    "website_url": "",
    "rating_text": "",
    "stars": null,
    "number_of_reviews": null,
    "price_level": "",
    "open_hours": "",
    "extraction_timestamp": "2025-06-07T16:44:52.218Z",
    "source_name": "google",
    "source_query": "Irrigation Equipment",
    "source_country": "IT",
    "country": "Italy",
    "state": "Emilia-Romagna",
    "city": "Zola Predosa"
  }
]
