[
  {
    "source_id": "ChIJTQdn7NVAXj4R-zpzOVb8-tg",
    "name": "Trees & Leaves Irrigation LLC- SPC",
    "category": "Trees & Leaves Irrigation LLC- SPC",
    "formatted_address": "4,3(41)",
    "phone_number": "+97125545641",
    "source_url": "https://www.google.com/maps/place/Trees+%26+Leaves+Irrigation+LLC-+SPC/data=!4m7!3m6!1s0x3e5e40d5ec67074d:0xd8fafc5639733afb!8m2!3d24.3739558!4d54.5175733!16s%2Fg%2F11bbwq9vl5!19sChIJTQdn7NVAXj4R-zpzOVb8-tg?authuser=0&hl=tr&rclk=1",
    "website_url": "",
    "rating_text": "4,3",
    "stars": null,
    "number_of_reviews": null,
    "price_level": "",
    "open_hours": "",
    "extraction_timestamp": "2025-06-08T03:41:04.248Z",
    "source_name": "google",
    "source_query": "Irrigation Equipment",
    "source_country": "AE",
    "country": "United Arab Emirates",
    "state": "Abu Dhabi Emirate",
    "city": "Abu Dhabi Island and Internal Islands City"
  },
  {
    "source_id": "ChIJh1iisdU_Xj4RNS4SUl3E46c",
    "name": "United Irrigation Technologies",
    "category": "United Irrigation Technologies",
    "formatted_address": "5,0(10)",
    "phone_number": "+971502347958",
    "source_url": "https://www.google.com/maps/place/United+Irrigation+Technologies/data=!4m7!3m6!1s0x3e5e3fd5b1a25887:0xa7e3c45d52122e35!8m2!3d24.3069375!4d54.4941875!16s%2Fg%2F11y5q5dtv0!19sChIJh1iisdU_Xj4RNS4SUl3E46c?authuser=0&hl=tr&rclk=1",
    "website_url": "https://www.uitpipes.ae/",
    "rating_text": "5,0",
    "stars": null,
    "number_of_reviews": null,
    "price_level": "",
    "open_hours": "",
    "extraction_timestamp": "2025-06-08T03:41:04.249Z",
    "source_name": "google",
    "source_query": "Irrigation Equipment",
    "source_country": "AE",
    "country": "United Arab Emirates",
    "state": "Abu Dhabi Emirate",
    "city": "Abu Dhabi Island and Internal Islands City"
  },
  {
    "source_id": "ChIJT9TqRthnXj4RiXLocAmUP-0",
    "name": "ARID LAND DEVELOPMENT CO.L.L.C - MAIN OFFICE",
    "category": "ARID LAND DEVELOPMENT CO.L.L.C - MAIN OFFICE",
    "formatted_address": "4,4(18)",
    "phone_number": "+97126319244",
    "source_url": "https://www.google.com/maps/place/ARID+LAND+DEVELOPMENT+CO.L.L.C+-+MAIN+OFFICE/data=!4m7!3m6!1s0x3e5e67d846ead44f:0xed3f940970e87289!8m2!3d24.4712728!4d54.3690496!16s%2Fg%2F1pp2tl7hl!19sChIJT9TqRthnXj4RiXLocAmUP-0?authuser=0&hl=tr&rclk=1",
    "website_url": "http://aridlanddevelopment.com/",
    "rating_text": "4,4",
    "stars": null,
    "number_of_reviews": null,
    "price_level": "",
    "open_hours": "",
    "extraction_timestamp": "2025-06-08T03:41:04.250Z",
    "source_name": "google",
    "source_query": "Irrigation Equipment",
    "source_country": "AE",
    "country": "United Arab Emirates",
    "state": "Abu Dhabi Emirate",
    "city": "Abu Dhabi Island and Internal Islands City"
  },
  {
    "source_id": "ChIJ9UIQQpNnXj4RJjvD8StTChk",
    "name": "Arid Land Development Showroom",
    "category": "Arid Land Development Showroom",
    "formatted_address": "4,8(4)",
    "phone_number": "+97126333565",
    "source_url": "https://www.google.com/maps/place/Arid+Land+Development+Showroom/data=!4m7!3m6!1s0x3e5e6793421042f5:0x190a532bf1c33b26!8m2!3d24.482116!4d54.3764228!16s%2Fg%2F11fmgzd92q!19sChIJ9UIQQpNnXj4RJjvD8StTChk?authuser=0&hl=tr&rclk=1",
    "website_url": "http://www.aridlanddevelopment.com/",
    "rating_text": "4,8",
    "stars": null,
    "number_of_reviews": null,
    "price_level": "",
    "open_hours": "",
    "extraction_timestamp": "2025-06-08T03:41:04.251Z",
    "source_name": "google",
    "source_query": "Irrigation Equipment",
    "source_country": "AE",
    "country": "United Arab Emirates",
    "state": "Abu Dhabi Emirate",
    "city": "Abu Dhabi Island and Internal Islands City"
  },
  {
    "source_id": "ChIJqw8RodVAXj4R03YPyNQGKy0",
    "name": "GREEEN VIEW IRRIGATION EQUIPMENT TRADING",
    "category": "GREEEN VIEW IRRIGATION EQUIPMENT TRADING",
    "formatted_address": "3,7(3)",
    "phone_number": "+971507659675",
    "source_url": "https://www.google.com/maps/place/GREEEN+VIEW+IRRIGATION+EQUIPMENT+TRADING/data=!4m7!3m6!1s0x3e5e40d5a1110fab:0x2d2b06d4c80f76d3!8m2!3d24.3739849!4d54.5189073!16s%2Fg%2F11dxb11w9k!19sChIJqw8RodVAXj4R03YPyNQGKy0?authuser=0&hl=tr&rclk=1",
    "website_url": "http://greenview.com/",
    "rating_text": "3,7",
    "stars": null,
    "number_of_reviews": null,
    "price_level": "",
    "open_hours": "",
    "extraction_timestamp": "2025-06-08T03:41:04.252Z",
    "source_name": "google",
    "source_query": "Irrigation Equipment",
    "source_country": "AE",
    "country": "United Arab Emirates",
    "state": "Abu Dhabi Emirate",
    "city": "Abu Dhabi Island and Internal Islands City"
  },
  {
    "source_id": "ChIJq5_g2HZmXj4R9w7od4CdWUc",
    "name": "Al Ain Automatic Irrigation Co",
    "category": "Al Ain Automatic Irrigation Co",
    "formatted_address": "5,0(1)",
    "phone_number": "+97126343484",
    "source_url": "https://www.google.com/maps/place/Al+Ain+Automatic+Irrigation+Co/data=!4m7!3m6!1s0x3e5e6676d8e09fab:0x47599d8077e80ef7!8m2!3d24.4816355!4d54.3512422!16s%2Fg%2F11bbwxlyml!19sChIJq5_g2HZmXj4R9w7od4CdWUc?authuser=0&hl=tr&rclk=1",
    "website_url": "",
    "rating_text": "5,0",
    "stars": null,
    "number_of_reviews": null,
    "price_level": "",
    "open_hours": "",
    "extraction_timestamp": "2025-06-08T03:41:04.253Z",
    "source_name": "google",
    "source_query": "Irrigation Equipment",
    "source_country": "AE",
    "country": "United Arab Emirates",
    "state": "Abu Dhabi Emirate",
    "city": "Abu Dhabi Island and Internal Islands City"
  },
  {
    "source_id": "ChIJDXcJdlxmXj4RUwNUieWHSbw",
    "name": "Orient Irrigation Services LLC",
    "category": "Orient Irrigation Services LLC",
    "formatted_address": "3,3(7)",
    "phone_number": "+97126764040",
    "source_url": "https://www.google.com/maps/place/Orient+Irrigation+Services+LLC/data=!4m7!3m6!1s0x3e5e665c7609770d:0xbc4987e589540353!8m2!3d24.373743!4d54.5076137!16s%2Fg%2F11bbwps0tf!19sChIJDXcJdlxmXj4RUwNUieWHSbw?authuser=0&hl=tr&rclk=1",
    "website_url": "http://www.orientirrigation.com/",
    "rating_text": "3,3",
    "stars": null,
    "number_of_reviews": null,
    "price_level": "",
    "open_hours": "",
    "extraction_timestamp": "2025-06-08T03:41:04.253Z",
    "source_name": "google",
    "source_query": "Irrigation Equipment",
    "source_country": "AE",
    "country": "United Arab Emirates",
    "state": "Abu Dhabi Emirate",
    "city": "Abu Dhabi Island and Internal Islands City"
  },
  {
    "source_id": "ChIJK8uB9FhAXj4RFYJAX_veAWc",
    "name": "Bin Moosa & Daly - Main Branch بن موسى و ديلي - أبو ظبي",
    "category": "Bin Moosa & Daly - Main Branch بن موسى و ديلي - أبو ظبي",
    "formatted_address": "4,0(24)",
    "phone_number": "+97126437220",
    "source_url": "https://www.google.com/maps/place/Bin+Moosa+%26+Daly+-+Main+Branch+%D8%A8%D9%86+%D9%85%D9%88%D8%B3%D9%89+%D9%88+%D8%AF%D9%8A%D9%84%D9%8A+-+%D8%A3%D8%A8%D9%88+%D8%B8%D8%A8%D9%8A%E2%80%AD/data=!4m7!3m6!1s0x3e5e4058f481cb2b:0x6701defb5f408215!8m2!3d24.473469!4d54.3768853!16s%2Fg%2F1vr3bn75!19sChIJK8uB9FhAXj4RFYJAX_veAWc?authuser=0&hl=tr&rclk=1",
    "website_url": "https://www.moosa-daly.com/",
    "rating_text": "4,0",
    "stars": null,
    "number_of_reviews": null,
    "price_level": "",
    "open_hours": "",
    "extraction_timestamp": "2025-06-08T03:41:04.255Z",
    "source_name": "google",
    "source_query": "Irrigation Equipment",
    "source_country": "AE",
    "country": "United Arab Emirates",
    "state": "Abu Dhabi Emirate",
    "city": "Abu Dhabi Island and Internal Islands City"
  },
  {
    "source_id": "ChIJPWC6d3xpXj4R8SXycPf7zlw",
    "name": "SUNLIGHT LANDSCAPE LLC",
    "category": "SUNLIGHT LANDSCAPE LLC",
    "formatted_address": "",
    "phone_number": "+971503736368",
    "source_url": "https://www.google.com/maps/place/SUNLIGHT+LANDSCAPE+LLC/data=!4m7!3m6!1s0x3e5e697c77ba603d:0x5ccefbf770f225f1!8m2!3d24.4350608!4d54.4254586!16s%2Fg%2F11swdl5v0h!19sChIJPWC6d3xpXj4R8SXycPf7zlw?authuser=0&hl=tr&rclk=1",
    "website_url": "",
    "rating_text": "",
    "stars": null,
    "number_of_reviews": null,
    "price_level": "",
    "open_hours": "",
    "extraction_timestamp": "2025-06-08T03:41:04.255Z",
    "source_name": "google",
    "source_query": "Irrigation Equipment",
    "source_country": "AE",
    "country": "United Arab Emirates",
    "state": "Abu Dhabi Emirate",
    "city": "Abu Dhabi Island and Internal Islands City"
  },
  {
    "source_id": "ChIJBU-cjWNnXj4RMZNoTMJ-TF0",
    "name": "Orient Irrigation Services LLC",
    "category": "Orient Irrigation Services LLC",
    "formatted_address": "Peyzaj Mimarı · Haza Bin Zayed the 1st Street, Aradah Street Saif Ali Al Romaithi Building, Office# M4 Abu Dhabi Island, East 19_02 Postbox 53363Kapalı ⋅ Açılış zamanı: Pzt 07:30 · +971 2 676 4040",
    "phone_number": "+97126764040",
    "source_url": "https://www.google.com/maps/place/Orient+Irrigation+Services+LLC/data=!4m7!3m6!1s0x3e5e67638d9c4f05:0x5d4c7ec24c689331!8m2!3d24.4780126!4d54.384172!16s%2Fg%2F11h7dccx6y!19sChIJBU-cjWNnXj4RMZNoTMJ-TF0?authuser=0&hl=tr&rclk=1",
    "website_url": "http://www.orientirrigation.com/",
    "rating_text": "",
    "stars": null,
    "number_of_reviews": null,
    "price_level": "",
    "open_hours": "",
    "extraction_timestamp": "2025-06-08T03:41:04.257Z",
    "source_name": "google",
    "source_query": "Irrigation Equipment",
    "source_country": "AE",
    "country": "United Arab Emirates",
    "state": "Abu Dhabi Emirate",
    "city": "Abu Dhabi Island and Internal Islands City"
  },
  {
    "source_id": "ChIJ_6pnRTBlXj4RyxgZdhJjeqI",
    "name": "Silver Coast International for General Trading",
    "category": "Silver Coast International for General Trading",
    "formatted_address": "",
    "phone_number": "+97124442202",
    "source_url": "https://www.google.com/maps/place/Silver+Coast+International+for+General+Trading/data=!4m7!3m6!1s0x3e5e65304567aaff:0xa27a6312761918cb!8m2!3d24.4585837!4d54.3223244!16s%2Fg%2F11rv9yyhyj!19sChIJ_6pnRTBlXj4RyxgZdhJjeqI?authuser=0&hl=tr&rclk=1",
    "website_url": "http://www.scigt.ae/",
    "rating_text": "",
    "stars": null,
    "number_of_reviews": null,
    "price_level": "",
    "open_hours": "",
    "extraction_timestamp": "2025-06-08T03:41:04.257Z",
    "source_name": "google",
    "source_query": "Irrigation Equipment",
    "source_country": "AE",
    "country": "United Arab Emirates",
    "state": "Abu Dhabi Emirate",
    "city": "Abu Dhabi Island and Internal Islands City"
  },
  {
    "source_id": "ChIJwad5JgBFXj4RUKdZwIaefH4",
    "name": "Irrigations valves",
    "category": "Irrigations valves",
    "formatted_address": "5,0(1)",
    "phone_number": "",
    "source_url": "https://www.google.com/maps/place/Irrigations+valves/data=!4m7!3m6!1s0x3e5e45002679a7c1:0x7e7c9e86c059a750!8m2!3d24.4591978!4d54.5914357!16s%2Fg%2F11vz7txtwr!19sChIJwad5JgBFXj4RUKdZwIaefH4?authuser=0&hl=tr&rclk=1",
    "website_url": "",
    "rating_text": "5,0",
    "stars": null,
    "number_of_reviews": null,
    "price_level": "",
    "open_hours": "",
    "extraction_timestamp": "2025-06-08T03:41:04.258Z",
    "source_name": "google",
    "source_query": "Irrigation Equipment",
    "source_country": "AE",
    "country": "United Arab Emirates",
    "state": "Abu Dhabi Emirate",
    "city": "Abu Dhabi Island and Internal Islands City"
  },
  {
    "source_id": "ChIJs100i1tmXj4RiNuVCKxWQA0",
    "name": "SYSTEMS EQUIPMENT",
    "category": "SYSTEMS EQUIPMENT",
    "formatted_address": "5,0(3)",
    "phone_number": "+97126741296",
    "source_url": "https://www.google.com/maps/place/SYSTEMS+EQUIPMENT/data=!4m7!3m6!1s0x3e5e665b8b345db3:0xd4056ac0895db88!8m2!3d24.4912439!4d54.3712766!16s%2Fg%2F11dx8m5pz5!19sChIJs100i1tmXj4RiNuVCKxWQA0?authuser=0&hl=tr&rclk=1",
    "website_url": "http://www.sysquip.ae/",
    "rating_text": "5,0",
    "stars": null,
    "number_of_reviews": null,
    "price_level": "",
    "open_hours": "",
    "extraction_timestamp": "2025-06-08T03:41:04.259Z",
    "source_name": "google",
    "source_query": "Irrigation Equipment",
    "source_country": "AE",
    "country": "United Arab Emirates",
    "state": "Abu Dhabi Emirate",
    "city": "Abu Dhabi Island and Internal Islands City"
  },
  {
    "source_id": "ChIJTxnpaOhBXj4RD8ez57tbVks",
    "name": "Al Reef Landscape and Garden Design Abu Dhabi",
    "category": "Al Reef Landscape and Garden Design Abu Dhabi",
    "formatted_address": "4,3(51)",
    "phone_number": "+971502195998",
    "source_url": "https://www.google.com/maps/place/Al+Reef+Landscape+and+Garden+Design+Abu+Dhabi/data=!4m7!3m6!1s0x3e5e41e868e9194f:0x4b565bbbe7b3c70f!8m2!3d24.5236023!4d54.6905928!16s%2Fg%2F11h891z_94!19sChIJTxnpaOhBXj4RD8ez57tbVks?authuser=0&hl=tr&rclk=1",
    "website_url": "https://almslandscap.com/",
    "rating_text": "4,3",
    "stars": null,
    "number_of_reviews": null,
    "price_level": "",
    "open_hours": "",
    "extraction_timestamp": "2025-06-08T03:41:04.260Z",
    "source_name": "google",
    "source_query": "Irrigation Equipment",
    "source_country": "AE",
    "country": "United Arab Emirates",
    "state": "Abu Dhabi Emirate",
    "city": "Abu Dhabi Island and Internal Islands City"
  },
  {
    "source_id": "ChIJ-fLh6shAXj4Rv9OrlIj5tog",
    "name": "Alhowar Contracting & Irrigation Establishment",
    "category": "Alhowar Contracting & Irrigation Establishment",
    "formatted_address": "5,0(1)",
    "phone_number": "+97126747708",
    "source_url": "https://www.google.com/maps/place/Alhowar+Contracting+%26+Irrigation+Establishment/data=!4m7!3m6!1s0x3e5e40c8eae1f2f9:0x88b6f98894abd3bf!8m2!3d24.3565667!4d54.5123271!16s%2Fg%2F11bbwpk4jl!19sChIJ-fLh6shAXj4Rv9OrlIj5tog?authuser=0&hl=tr&rclk=1",
    "website_url": "",
    "rating_text": "5,0",
    "stars": null,
    "number_of_reviews": null,
    "price_level": "",
    "open_hours": "",
    "extraction_timestamp": "2025-06-08T03:41:04.261Z",
    "source_name": "google",
    "source_query": "Irrigation Equipment",
    "source_country": "AE",
    "country": "United Arab Emirates",
    "state": "Abu Dhabi Emirate",
    "city": "Abu Dhabi Island and Internal Islands City"
  },
  {
    "source_id": "ChIJAQAAAMm2ij4RtTyc1ivxesE",
    "name": "Al Ain Automatic Irrigation Company LLC",
    "category": "Al Ain Automatic Irrigation Company LLC",
    "formatted_address": "4,2(14)",
    "phone_number": "+97137229406",
    "source_url": "https://www.google.com/maps/place/Al+Ain+Automatic+Irrigation+Company+LLC/data=!4m7!3m6!1s0x3e8ab6c900000001:0xc17af12bd69c3cb5!8m2!3d24.1465315!4d55.8167626!16s%2Fg%2F11bbwnt88h!19sChIJAQAAAMm2ij4RtTyc1ivxesE?authuser=0&hl=tr&rclk=1",
    "website_url": "",
    "rating_text": "4,2",
    "stars": null,
    "number_of_reviews": null,
    "price_level": "",
    "open_hours": "",
    "extraction_timestamp": "2025-06-08T03:41:04.262Z",
    "source_name": "google",
    "source_query": "Irrigation Equipment",
    "source_country": "AE",
    "country": "United Arab Emirates",
    "state": "Abu Dhabi Emirate",
    "city": "Abu Dhabi Island and Internal Islands City"
  },
  {
    "source_id": "ChIJBcyUUClmXj4RO8UpA0kA8NQ",
    "name": "Al Dhafra Irrigation Systems LLC",
    "category": "Al Dhafra Irrigation Systems LLC",
    "formatted_address": "3,4(12)",
    "phone_number": "+201028404341",
    "source_url": "https://www.google.com/maps/place/Al+Dhafra+Irrigation+Systems+LLC/data=!4m7!3m6!1s0x3e5e66295094cc05:0xd4f000490329c53b!8m2!3d24.4672158!4d54.3845563!16s%2Fg%2F11b6rw84gn!19sChIJBcyUUClmXj4RO8UpA0kA8NQ?authuser=0&hl=tr&rclk=1",
    "website_url": "",
    "rating_text": "3,4",
    "stars": null,
    "number_of_reviews": null,
    "price_level": "",
    "open_hours": "",
    "extraction_timestamp": "2025-06-08T03:41:04.263Z",
    "source_name": "google",
    "source_query": "Irrigation Equipment",
    "source_country": "AE",
    "country": "United Arab Emirates",
    "state": "Abu Dhabi Emirate",
    "city": "Abu Dhabi Island and Internal Islands City"
  },
  {
    "source_id": "ChIJr8earzFcXz4RoTCHHGUpGDY",
    "name": "ALAIN AUTOMATIC IRRIGATION Co.LLC",
    "category": "ALAIN AUTOMATIC IRRIGATION Co.LLC",
    "formatted_address": "4,8(8)",
    "phone_number": "+971565532888",
    "source_url": "https://www.google.com/maps/place/ALAIN+AUTOMATIC+IRRIGATION+Co.LLC/data=!4m7!3m6!1s0x3e5f5c31af9ac7af:0x361829651c8730a1!8m2!3d25.2753961!4d55.3902202!16s%2Fg%2F11c45_zf9q!19sChIJr8earzFcXz4RoTCHHGUpGDY?authuser=0&hl=tr&rclk=1",
    "website_url": "https://www.linkedin.com/company/al-ain-automatic-irrigation-co-llc/mycompany/",
    "rating_text": "4,8",
    "stars": null,
    "number_of_reviews": null,
    "price_level": "",
    "open_hours": "",
    "extraction_timestamp": "2025-06-08T03:41:04.264Z",
    "source_name": "google",
    "source_query": "Irrigation Equipment",
    "source_country": "AE",
    "country": "United Arab Emirates",
    "state": "Abu Dhabi Emirate",
    "city": "Abu Dhabi Island and Internal Islands City"
  },
  {
    "source_id": "ChIJXSOOpmI_Xj4RWyI7Px771iM",
    "name": "UIT Pipes",
    "category": "UIT Pipes",
    "formatted_address": "",
    "phone_number": "+971568251745",
    "source_url": "https://www.google.com/maps/place/UIT+Pipes/data=!4m7!3m6!1s0x3e5e3f62a68e235d:0x23d6fb1e3f3b225b!8m2!3d24.2868585!4d54.4818737!16s%2Fg%2F11wh5h2psq!19sChIJXSOOpmI_Xj4RWyI7Px771iM?authuser=0&hl=tr&rclk=1",
    "website_url": "",
    "rating_text": "",
    "stars": null,
    "number_of_reviews": null,
    "price_level": "",
    "open_hours": "",
    "extraction_timestamp": "2025-06-08T03:41:04.265Z",
    "source_name": "google",
    "source_query": "Irrigation Equipment",
    "source_country": "AE",
    "country": "United Arab Emirates",
    "state": "Abu Dhabi Emirate",
    "city": "Abu Dhabi Island and Internal Islands City"
  }
]
