[
  {
    "source_id": "ChIJTQdn7NVAXj4R-zpzOVb8-tg",
    "name": "Trees & Leaves Irrigation LLC- SPC",
    "category": "Trees & Leaves Irrigation LLC- SPC",
    "formatted_address": "4,3(41)",
    "phone_number": "+97125545641",
    "source_url": "https://www.google.com/maps/place/Trees+%26+Leaves+Irrigation+LLC-+SPC/data=!4m7!3m6!1s0x3e5e40d5ec67074d:0xd8fafc5639733afb!8m2!3d24.3739558!4d54.5175733!16s%2Fg%2F11bbwq9vl5!19sChIJTQdn7NVAXj4R-zpzOVb8-tg?authuser=0&hl=tr&rclk=1",
    "website_url": "",
    "rating_text": "4,3",
    "stars": null,
    "number_of_reviews": null,
    "price_level": "",
    "open_hours": "",
    "extraction_timestamp": "2025-06-08T03:40:55.029Z",
    "source_name": "google",
    "source_query": "Irrigation Equipment",
    "source_country": "AE",
    "country": "United Arab Emirates",
    "state": "Abu Dhabi Emirate",
    "city": "Abu Dhabi Municipality"
  },
  {
    "source_id": "ChIJT9TqRthnXj4RiXLocAmUP-0",
    "name": "ARID LAND DEVELOPMENT CO.L.L.C - MAIN OFFICE",
    "category": "ARID LAND DEVELOPMENT CO.L.L.C - MAIN OFFICE",
    "formatted_address": "4,4(18)",
    "phone_number": "+97126319244",
    "source_url": "https://www.google.com/maps/place/ARID+LAND+DEVELOPMENT+CO.L.L.C+-+MAIN+OFFICE/data=!4m7!3m6!1s0x3e5e67d846ead44f:0xed3f940970e87289!8m2!3d24.4712728!4d54.3690496!16s%2Fg%2F1pp2tl7hl!19sChIJT9TqRthnXj4RiXLocAmUP-0?authuser=0&hl=tr&rclk=1",
    "website_url": "http://aridlanddevelopment.com/",
    "rating_text": "4,4",
    "stars": null,
    "number_of_reviews": null,
    "price_level": "",
    "open_hours": "",
    "extraction_timestamp": "2025-06-08T03:40:55.031Z",
    "source_name": "google",
    "source_query": "Irrigation Equipment",
    "source_country": "AE",
    "country": "United Arab Emirates",
    "state": "Abu Dhabi Emirate",
    "city": "Abu Dhabi Municipality"
  },
  {
    "source_id": "ChIJAf9l8tVAXj4R9q7sqfMCVCI",
    "name": "Best Building Materials LLC",
    "category": "Best Building Materials LLC",
    "formatted_address": "4,5(30)",
    "phone_number": "+97125551433",
    "source_url": "https://www.google.com/maps/place/Best+Building+Materials+LLC/data=!4m7!3m6!1s0x3e5e40d5f265ff01:0x225402f3a9ecaef6!8m2!3d24.3739478!4d54.5176595!16s%2Fg%2F11bbwqtmxc!19sChIJAf9l8tVAXj4R9q7sqfMCVCI?authuser=0&hl=tr&rclk=1",
    "website_url": "",
    "rating_text": "4,5",
    "stars": null,
    "number_of_reviews": null,
    "price_level": "",
    "open_hours": "",
    "extraction_timestamp": "2025-06-08T03:40:55.046Z",
    "source_name": "google",
    "source_query": "Irrigation Equipment",
    "source_country": "AE",
    "country": "United Arab Emirates",
    "state": "Abu Dhabi Emirate",
    "city": "Abu Dhabi Municipality"
  },
  {
    "source_id": "ChIJ9UIQQpNnXj4RJjvD8StTChk",
    "name": "Arid Land Development Showroom",
    "category": "Arid Land Development Showroom",
    "formatted_address": "4,8(4)",
    "phone_number": "+97126333565",
    "source_url": "https://www.google.com/maps/place/Arid+Land+Development+Showroom/data=!4m7!3m6!1s0x3e5e6793421042f5:0x190a532bf1c33b26!8m2!3d24.482116!4d54.3764228!16s%2Fg%2F11fmgzd92q!19sChIJ9UIQQpNnXj4RJjvD8StTChk?authuser=0&hl=tr&rclk=1",
    "website_url": "http://www.aridlanddevelopment.com/",
    "rating_text": "4,8",
    "stars": null,
    "number_of_reviews": null,
    "price_level": "",
    "open_hours": "",
    "extraction_timestamp": "2025-06-08T03:40:55.048Z",
    "source_name": "google",
    "source_query": "Irrigation Equipment",
    "source_country": "AE",
    "country": "United Arab Emirates",
    "state": "Abu Dhabi Emirate",
    "city": "Abu Dhabi Municipality"
  },
  {
    "source_id": "ChIJh1iisdU_Xj4RNS4SUl3E46c",
    "name": "United Irrigation Technologies",
    "category": "United Irrigation Technologies",
    "formatted_address": "5,0(10)",
    "phone_number": "+971502347958",
    "source_url": "https://www.google.com/maps/place/United+Irrigation+Technologies/data=!4m7!3m6!1s0x3e5e3fd5b1a25887:0xa7e3c45d52122e35!8m2!3d24.3069375!4d54.4941875!16s%2Fg%2F11y5q5dtv0!19sChIJh1iisdU_Xj4RNS4SUl3E46c?authuser=0&hl=tr&rclk=1",
    "website_url": "https://www.uitpipes.ae/",
    "rating_text": "5,0",
    "stars": null,
    "number_of_reviews": null,
    "price_level": "",
    "open_hours": "",
    "extraction_timestamp": "2025-06-08T03:40:55.050Z",
    "source_name": "google",
    "source_query": "Irrigation Equipment",
    "source_country": "AE",
    "country": "United Arab Emirates",
    "state": "Abu Dhabi Emirate",
    "city": "Abu Dhabi Municipality"
  },
  {
    "source_id": "ChIJHTB3LbBBXj4RXJr-iHdQhYU",
    "name": "Advanced Hydrotech",
    "category": "Advanced Hydrotech",
    "formatted_address": "4,5(6)",
    "phone_number": "+97125570204",
    "source_url": "https://www.google.com/maps/place/Advanced+Hydrotech/data=!4m7!3m6!1s0x3e5e41b02d77301d:0x8585507788fe9a5c!8m2!3d24.3739668!4d54.5178163!16s%2Fg%2F11h3dhzc7w!19sChIJHTB3LbBBXj4RXJr-iHdQhYU?authuser=0&hl=tr&rclk=1",
    "website_url": "",
    "rating_text": "4,5",
    "stars": null,
    "number_of_reviews": null,
    "price_level": "",
    "open_hours": "",
    "extraction_timestamp": "2025-06-08T03:40:55.051Z",
    "source_name": "google",
    "source_query": "Irrigation Equipment",
    "source_country": "AE",
    "country": "United Arab Emirates",
    "state": "Abu Dhabi Emirate",
    "city": "Abu Dhabi Municipality"
  },
  {
    "source_id": "ChIJK8uB9FhAXj4RFYJAX_veAWc",
    "name": "Bin Moosa & Daly - Main Branch بن موسى و ديلي - أبو ظبي",
    "category": "Bin Moosa & Daly - Main Branch بن موسى و ديلي - أبو ظبي",
    "formatted_address": "4,0(24)",
    "phone_number": "+97126437220",
    "source_url": "https://www.google.com/maps/place/Bin+Moosa+%26+Daly+-+Main+Branch+%D8%A8%D9%86+%D9%85%D9%88%D8%B3%D9%89+%D9%88+%D8%AF%D9%8A%D9%84%D9%8A+-+%D8%A3%D8%A8%D9%88+%D8%B8%D8%A8%D9%8A%E2%80%AD/data=!4m7!3m6!1s0x3e5e4058f481cb2b:0x6701defb5f408215!8m2!3d24.473469!4d54.3768853!16s%2Fg%2F1vr3bn75!19sChIJK8uB9FhAXj4RFYJAX_veAWc?authuser=0&hl=tr&rclk=1",
    "website_url": "https://www.moosa-daly.com/",
    "rating_text": "4,0",
    "stars": null,
    "number_of_reviews": null,
    "price_level": "",
    "open_hours": "",
    "extraction_timestamp": "2025-06-08T03:40:55.053Z",
    "source_name": "google",
    "source_query": "Irrigation Equipment",
    "source_country": "AE",
    "country": "United Arab Emirates",
    "state": "Abu Dhabi Emirate",
    "city": "Abu Dhabi Municipality"
  },
  {
    "source_id": "ChIJqw8RodVAXj4R03YPyNQGKy0",
    "name": "GREEEN VIEW IRRIGATION EQUIPMENT TRADING",
    "category": "GREEEN VIEW IRRIGATION EQUIPMENT TRADING",
    "formatted_address": "3,7(3)",
    "phone_number": "+971507659675",
    "source_url": "https://www.google.com/maps/place/GREEEN+VIEW+IRRIGATION+EQUIPMENT+TRADING/data=!4m7!3m6!1s0x3e5e40d5a1110fab:0x2d2b06d4c80f76d3!8m2!3d24.3739849!4d54.5189073!16s%2Fg%2F11dxb11w9k!19sChIJqw8RodVAXj4R03YPyNQGKy0?authuser=0&hl=tr&rclk=1",
    "website_url": "http://greenview.com/",
    "rating_text": "3,7",
    "stars": null,
    "number_of_reviews": null,
    "price_level": "",
    "open_hours": "",
    "extraction_timestamp": "2025-06-08T03:40:55.054Z",
    "source_name": "google",
    "source_query": "Irrigation Equipment",
    "source_country": "AE",
    "country": "United Arab Emirates",
    "state": "Abu Dhabi Emirate",
    "city": "Abu Dhabi Municipality"
  },
  {
    "source_id": "ChIJT3YLBMhnXj4RlIlzDEKaRJ8",
    "name": "PowerTek General Trading",
    "category": "PowerTek General Trading",
    "formatted_address": "4,7(23)",
    "phone_number": "+97125656481",
    "source_url": "https://www.google.com/maps/place/PowerTek+General+Trading/data=!4m7!3m6!1s0x3e5e67c8040b764f:0x9f449a420c738994!8m2!3d24.4887757!4d54.3719499!16s%2Fg%2F11q3qsc4yb!19sChIJT3YLBMhnXj4RlIlzDEKaRJ8?authuser=0&hl=tr&rclk=1",
    "website_url": "http://www.powertekgcc.com/",
    "rating_text": "4,7",
    "stars": null,
    "number_of_reviews": null,
    "price_level": "",
    "open_hours": "",
    "extraction_timestamp": "2025-06-08T03:40:55.055Z",
    "source_name": "google",
    "source_query": "Irrigation Equipment",
    "source_country": "AE",
    "country": "United Arab Emirates",
    "state": "Abu Dhabi Emirate",
    "city": "Abu Dhabi Municipality"
  },
  {
    "source_id": "ChIJq5_g2HZmXj4R9w7od4CdWUc",
    "name": "Al Ain Automatic Irrigation Co",
    "category": "Al Ain Automatic Irrigation Co",
    "formatted_address": "5,0(1)",
    "phone_number": "+97126343484",
    "source_url": "https://www.google.com/maps/place/Al+Ain+Automatic+Irrigation+Co/data=!4m7!3m6!1s0x3e5e6676d8e09fab:0x47599d8077e80ef7!8m2!3d24.4816355!4d54.3512422!16s%2Fg%2F11bbwxlyml!19sChIJq5_g2HZmXj4R9w7od4CdWUc?authuser=0&hl=tr&rclk=1",
    "website_url": "",
    "rating_text": "5,0",
    "stars": null,
    "number_of_reviews": null,
    "price_level": "",
    "open_hours": "",
    "extraction_timestamp": "2025-06-08T03:40:55.056Z",
    "source_name": "google",
    "source_query": "Irrigation Equipment",
    "source_country": "AE",
    "country": "United Arab Emirates",
    "state": "Abu Dhabi Emirate",
    "city": "Abu Dhabi Municipality"
  },
  {
    "source_id": "ChIJOyoHw6tnXj4R5H6Mbrx3HUE",
    "name": "SPOT LIGHT ELECTRICAL AND BUILDING MATERIALS - S.P- L.L.C",
    "category": "SPOT LIGHT ELECTRICAL AND BUILDING MATERIALS - S.P- L.L.C",
    "formatted_address": "4,6(11)",
    "phone_number": "+97126500677",
    "source_url": "https://www.google.com/maps/place/SPOT+LIGHT+ELECTRICAL+AND+BUILDING+MATERIALS+-+S.P-+L.L.C/data=!4m7!3m6!1s0x3e5e67abc3072a3b:0x411d77bc6e8c7ee4!8m2!3d24.4753815!4d54.3799256!16s%2Fg%2F11jmwf94np!19sChIJOyoHw6tnXj4R5H6Mbrx3HUE?authuser=0&hl=tr&rclk=1",
    "website_url": "https://spot-light.business.site/?utm_source=gmb&utm_medium=referral",
    "rating_text": "4,6",
    "stars": null,
    "number_of_reviews": null,
    "price_level": "",
    "open_hours": "",
    "extraction_timestamp": "2025-06-08T03:40:55.058Z",
    "source_name": "google",
    "source_query": "Irrigation Equipment",
    "source_country": "AE",
    "country": "United Arab Emirates",
    "state": "Abu Dhabi Emirate",
    "city": "Abu Dhabi Municipality"
  },
  {
    "source_id": "ChIJDXcJdlxmXj4RUwNUieWHSbw",
    "name": "Orient Irrigation Services LLC",
    "category": "Orient Irrigation Services LLC",
    "formatted_address": "3,3(7)",
    "phone_number": "+97126764040",
    "source_url": "https://www.google.com/maps/place/Orient+Irrigation+Services+LLC/data=!4m7!3m6!1s0x3e5e665c7609770d:0xbc4987e589540353!8m2!3d24.373743!4d54.5076137!16s%2Fg%2F11bbwps0tf!19sChIJDXcJdlxmXj4RUwNUieWHSbw?authuser=0&hl=tr&rclk=1",
    "website_url": "http://www.orientirrigation.com/",
    "rating_text": "3,3",
    "stars": null,
    "number_of_reviews": null,
    "price_level": "",
    "open_hours": "",
    "extraction_timestamp": "2025-06-08T03:40:55.059Z",
    "source_name": "google",
    "source_query": "Irrigation Equipment",
    "source_country": "AE",
    "country": "United Arab Emirates",
    "state": "Abu Dhabi Emirate",
    "city": "Abu Dhabi Municipality"
  },
  {
    "source_id": "ChIJJzS8HUNmXj4RZ4XTcAOdWOY",
    "name": "RAFCO Trading Co.",
    "category": "RAFCO Trading Co.",
    "formatted_address": "3,7(28)",
    "phone_number": "+97126311351",
    "source_url": "https://www.google.com/maps/place/RAFCO+Trading+Co./data=!4m7!3m6!1s0x3e5e66431dbc3427:0xe6589d0370d38567!8m2!3d24.4851482!4d54.3746239!16s%2Fg%2F11xvx0rm6!19sChIJJzS8HUNmXj4RZ4XTcAOdWOY?authuser=0&hl=tr&rclk=1",
    "website_url": "http://www.rafco.ae/",
    "rating_text": "3,7",
    "stars": null,
    "number_of_reviews": null,
    "price_level": "",
    "open_hours": "",
    "extraction_timestamp": "2025-06-08T03:40:55.060Z",
    "source_name": "google",
    "source_query": "Irrigation Equipment",
    "source_country": "AE",
    "country": "United Arab Emirates",
    "state": "Abu Dhabi Emirate",
    "city": "Abu Dhabi Municipality"
  },
  {
    "source_id": "ChIJBcyUUClmXj4RO8UpA0kA8NQ",
    "name": "Al Dhafra Irrigation Systems LLC",
    "category": "Al Dhafra Irrigation Systems LLC",
    "formatted_address": "3,4(12)",
    "phone_number": "+201028404341",
    "source_url": "https://www.google.com/maps/place/Al+Dhafra+Irrigation+Systems+LLC/data=!4m7!3m6!1s0x3e5e66295094cc05:0xd4f000490329c53b!8m2!3d24.4672158!4d54.3845563!16s%2Fg%2F11b6rw84gn!19sChIJBcyUUClmXj4RO8UpA0kA8NQ?authuser=0&hl=tr&rclk=1",
    "website_url": "",
    "rating_text": "3,4",
    "stars": null,
    "number_of_reviews": null,
    "price_level": "",
    "open_hours": "",
    "extraction_timestamp": "2025-06-08T03:40:55.061Z",
    "source_name": "google",
    "source_query": "Irrigation Equipment",
    "source_country": "AE",
    "country": "United Arab Emirates",
    "state": "Abu Dhabi Emirate",
    "city": "Abu Dhabi Municipality"
  },
  {
    "source_id": "ChIJexy_REhBXj4RchETZK_B5sI",
    "name": "EliteblueirrigationUae",
    "category": "EliteblueirrigationUae",
    "formatted_address": "",
    "phone_number": "+971565613759",
    "source_url": "https://www.google.com/maps/place/EliteblueirrigationUae/data=!4m7!3m6!1s0x3e5e414844bf1c7b:0xc2e6c1af64131172!8m2!3d24.35894!4d54.4919161!16s%2Fg%2F11y5464gpc!19sChIJexy_REhBXj4RchETZK_B5sI?authuser=0&hl=tr&rclk=1",
    "website_url": "",
    "rating_text": "",
    "stars": null,
    "number_of_reviews": null,
    "price_level": "",
    "open_hours": "",
    "extraction_timestamp": "2025-06-08T03:40:55.062Z",
    "source_name": "google",
    "source_query": "Irrigation Equipment",
    "source_country": "AE",
    "country": "United Arab Emirates",
    "state": "Abu Dhabi Emirate",
    "city": "Abu Dhabi Municipality"
  }
]
