[
  {
    "source_id": "ChIJAQAAAMm2ij4RtTyc1ivxesE",
    "name": "Al Ain Automatic Irrigation Company LLC",
    "category": "Al Ain Automatic Irrigation Company LLC",
    "formatted_address": "4,2(14)",
    "phone_number": "+97137229406",
    "source_url": "https://www.google.com/maps/place/Al+Ain+Automatic+Irrigation+Company+LLC/data=!4m7!3m6!1s0x3e8ab6c900000001:0xc17af12bd69c3cb5!8m2!3d24.1465315!4d55.8167626!16s%2Fg%2F11bbwnt88h!19sChIJAQAAAMm2ij4RtTyc1ivxesE?authuser=0&hl=tr&rclk=1",
    "website_url": "",
    "rating_text": "4,2",
    "stars": null,
    "number_of_reviews": null,
    "price_level": "",
    "open_hours": "",
    "extraction_timestamp": "2025-06-08T03:39:33.134Z",
    "source_name": "google",
    "source_query": "Irrigation Equipment",
    "source_country": "AE",
    "country": "United Arab Emirates",
    "state": "Abu Dhabi Emirate",
    "city": "Al Ain Municipality"
  },
  {
    "source_id": "ChIJTcRIWja4ij4RmlDHU04hC74",
    "name": "Bin Moosa & Daly - Al Ain بن موسى و ديلي - العين",
    "category": "Bin Moosa & Daly - Al Ain بن موسى و ديلي - العين",
    "formatted_address": "4,5(63)",
    "phone_number": "+97137840852",
    "source_url": "https://www.google.com/maps/place/Bin+Moosa+%26+Daly+-+Al+Ain+%D8%A8%D9%86+%D9%85%D9%88%D8%B3%D9%89+%D9%88+%D8%AF%D9%8A%D9%84%D9%8A+-+%D8%A7%D9%84%D8%B9%D9%8A%D9%86%E2%80%AD/data=!4m7!3m6!1s0x3e8ab8365a48c44d:0xbe0b214e53c7509a!8m2!3d24.1543693!4d55.8092708!16s%2Fg%2F11bbwxbmm0!19sChIJTcRIWja4ij4RmlDHU04hC74?authuser=0&hl=tr&rclk=1",
    "website_url": "",
    "rating_text": "4,5",
    "stars": null,
    "number_of_reviews": null,
    "price_level": "",
    "open_hours": "",
    "extraction_timestamp": "2025-06-08T03:39:33.135Z",
    "source_name": "google",
    "source_query": "Irrigation Equipment",
    "source_country": "AE",
    "country": "United Arab Emirates",
    "state": "Abu Dhabi Emirate",
    "city": "Al Ain Municipality"
  },
  {
    "source_id": "ChIJHbOtfte3ij4R_SCw8XIRdaM",
    "name": "AL MASHKAH BUILDING MATERIALS TRADING",
    "category": "AL MASHKAH BUILDING MATERIALS TRADING",
    "formatted_address": "4,8(11)",
    "phone_number": "+971509939837",
    "source_url": "https://www.google.com/maps/place/AL+MASHKAH+BUILDING+MATERIALS+TRADING/data=!4m7!3m6!1s0x3e8ab7d77eadb31d:0xa3751172f1b020fd!8m2!3d24.1911816!4d55.7612304!16s%2Fg%2F11fqnlxksm!19sChIJHbOtfte3ij4R_SCw8XIRdaM?authuser=0&hl=tr&rclk=1",
    "website_url": "",
    "rating_text": "4,8",
    "stars": null,
    "number_of_reviews": null,
    "price_level": "",
    "open_hours": "",
    "extraction_timestamp": "2025-06-08T03:39:33.136Z",
    "source_name": "google",
    "source_query": "Irrigation Equipment",
    "source_country": "AE",
    "country": "United Arab Emirates",
    "state": "Abu Dhabi Emirate",
    "city": "Al Ain Municipality"
  },
  {
    "source_id": "ChIJ5aWw6jSxij4Rc5kIIdgNWRE",
    "name": "Al Maidoor Agricultural Equipment LLC (Al Ain Branch)",
    "category": "Al Maidoor Agricultural Equipment LLC (Al Ain Branch)",
    "formatted_address": "4,6(16)",
    "phone_number": "+97137620973",
    "source_url": "https://www.google.com/maps/place/Al+Maidoor+Agricultural+Equipment+LLC+%28Al+Ain+Branch%29/data=!4m7!3m6!1s0x3e8ab134eab0a5e5:0x11590dd821089973!8m2!3d24.1949468!4d55.7539777!16s%2Fg%2F11h2b4r157!19sChIJ5aWw6jSxij4Rc5kIIdgNWRE?authuser=0&hl=tr&rclk=1",
    "website_url": "",
    "rating_text": "4,6",
    "stars": null,
    "number_of_reviews": null,
    "price_level": "",
    "open_hours": "",
    "extraction_timestamp": "2025-06-08T03:39:33.137Z",
    "source_name": "google",
    "source_query": "Irrigation Equipment",
    "source_country": "AE",
    "country": "United Arab Emirates",
    "state": "Abu Dhabi Emirate",
    "city": "Al Ain Municipality"
  },
  {
    "source_id": "ChIJ197BlIS5ij4RC4RR1SciT7A",
    "name": "بساتين العين للمعدات الزراعية فرع 1 - Al-Ain Gardens Agricultural Machinery Branch 1",
    "category": "بساتين العين للمعدات الزراعية فرع 1 - Al-Ain Gardens Agricultural Machinery Branch 1",
    "formatted_address": "بساتين العين للمعدات الزراعية فرع 1 - Al-Ain Gardens Agricultural Machinery Branch 1",
    "phone_number": "+971556120077",
    "source_url": "https://www.google.com/maps/place/%D8%A8%D8%B3%D8%A7%D8%AA%D9%8A%D9%86+%D8%A7%D9%84%D8%B9%D9%8A%D9%86+%D9%84%D9%84%D9%85%D8%B9%D8%AF%D8%A7%D8%AA+%D8%A7%D9%84%D8%B2%D8%B1%D8%A7%D8%B9%D9%8A%D8%A9+%D9%81%D8%B1%D8%B9+1+-+Al-Ain+Gardens+Agricultural+Machinery+Branch+1%E2%80%AD/data=!4m7!3m6!1s0x3e8ab98494c1ded7:0xb04f2227d551840b!8m2!3d24.163083!4d55.8096758!16s%2Fg%2F11gy1lnl7d!19sChIJ197BlIS5ij4RC4RR1SciT7A?authuser=0&hl=tr&rclk=1",
    "website_url": "",
    "rating_text": "4,5",
    "stars": null,
    "number_of_reviews": null,
    "price_level": "",
    "open_hours": "",
    "extraction_timestamp": "2025-06-08T03:39:33.138Z",
    "source_name": "google",
    "source_query": "Irrigation Equipment",
    "source_country": "AE",
    "country": "United Arab Emirates",
    "state": "Abu Dhabi Emirate",
    "city": "Al Ain Municipality"
  },
  {
    "source_id": "ChIJM44wcPW3ij4RRzKym6ozJ0E",
    "name": "SHARQ AL WATHBA IRRIGATION AND AGRICULTURE CO",
    "category": "SHARQ AL WATHBA IRRIGATION AND AGRICULTURE CO",
    "formatted_address": "5,0(2)",
    "phone_number": "+971506657775",
    "source_url": "https://www.google.com/maps/place/SHARQ+AL+WATHBA+IRRIGATION+AND+AGRICULTURE+CO/data=!4m7!3m6!1s0x3e8ab7f570308e33:0x412733aa9bb23247!8m2!3d24.14013!4d55.8243125!16s%2Fg%2F11gt_zypny!19sChIJM44wcPW3ij4RRzKym6ozJ0E?authuser=0&hl=tr&rclk=1",
    "website_url": "",
    "rating_text": "5,0",
    "stars": null,
    "number_of_reviews": null,
    "price_level": "",
    "open_hours": "",
    "extraction_timestamp": "2025-06-08T03:39:33.138Z",
    "source_name": "google",
    "source_query": "Irrigation Equipment",
    "source_country": "AE",
    "country": "United Arab Emirates",
    "state": "Abu Dhabi Emirate",
    "city": "Al Ain Municipality"
  },
  {
    "source_id": "ChIJ_yRrrSu5ij4RYlGP2cuAUBc",
    "name": "بساتين العين للمعدات الزراعية - Al-Ain Gardens Agricultural Machinery",
    "category": "بساتين العين للمعدات الزراعية - Al-Ain Gardens Agricultural Machinery",
    "formatted_address": "5,0(13)",
    "phone_number": "+971561442888",
    "source_url": "https://www.google.com/maps/place/%D8%A8%D8%B3%D8%A7%D8%AA%D9%8A%D9%86+%D8%A7%D9%84%D8%B9%D9%8A%D9%86+%D9%84%D9%84%D9%85%D8%B9%D8%AF%D8%A7%D8%AA+%D8%A7%D9%84%D8%B2%D8%B1%D8%A7%D8%B9%D9%8A%D8%A9+-+Al-Ain+Gardens+Agricultural+Machinery%E2%80%AD/data=!4m7!3m6!1s0x3e8ab92bad6b24ff:0x175080cbd98f5162!8m2!3d24.1595001!4d55.8251146!16s%2Fg%2F11w9zdkjbx!19sChIJ_yRrrSu5ij4RYlGP2cuAUBc?authuser=0&hl=tr&rclk=1",
    "website_url": "",
    "rating_text": "5,0",
    "stars": null,
    "number_of_reviews": null,
    "price_level": "",
    "open_hours": "",
    "extraction_timestamp": "2025-06-08T03:39:33.166Z",
    "source_name": "google",
    "source_query": "Irrigation Equipment",
    "source_country": "AE",
    "country": "United Arab Emirates",
    "state": "Abu Dhabi Emirate",
    "city": "Al Ain Municipality"
  },
  {
    "source_id": "ChIJq5_g2HZmXj4R9w7od4CdWUc",
    "name": "Al Ain Automatic Irrigation Co",
    "category": "Al Ain Automatic Irrigation Co",
    "formatted_address": "5,0(1)",
    "phone_number": "+97126343484",
    "source_url": "https://www.google.com/maps/place/Al+Ain+Automatic+Irrigation+Co/data=!4m7!3m6!1s0x3e5e6676d8e09fab:0x47599d8077e80ef7!8m2!3d24.4816355!4d54.3512422!16s%2Fg%2F11bbwxlyml!19sChIJq5_g2HZmXj4R9w7od4CdWUc?authuser=0&hl=tr&rclk=1",
    "website_url": "",
    "rating_text": "5,0",
    "stars": null,
    "number_of_reviews": null,
    "price_level": "",
    "open_hours": "",
    "extraction_timestamp": "2025-06-08T03:39:33.167Z",
    "source_name": "google",
    "source_query": "Irrigation Equipment",
    "source_country": "AE",
    "country": "United Arab Emirates",
    "state": "Abu Dhabi Emirate",
    "city": "Al Ain Municipality"
  },
  {
    "source_id": "ChIJ2fQMsdSwij4RfSFGesrz4P4",
    "name": "HAIFA TRADING & IMPORTING LLC",
    "category": "HAIFA TRADING & IMPORTING LLC",
    "formatted_address": "4,8(19)",
    "phone_number": "+97137210988",
    "source_url": "https://www.google.com/maps/place/HAIFA+TRADING+%26+IMPORTING+LLC/data=!4m7!3m6!1s0x3e8ab0d4b10cf4d9:0xfee0f3ca7a46217d!8m2!3d24.1975615!4d55.7574516!16s%2Fg%2F1ts3jpl6!19sChIJ2fQMsdSwij4RfSFGesrz4P4?authuser=0&hl=tr&rclk=1",
    "website_url": "",
    "rating_text": "4,8",
    "stars": null,
    "number_of_reviews": null,
    "price_level": "",
    "open_hours": "",
    "extraction_timestamp": "2025-06-08T03:39:33.168Z",
    "source_name": "google",
    "source_query": "Irrigation Equipment",
    "source_country": "AE",
    "country": "United Arab Emirates",
    "state": "Abu Dhabi Emirate",
    "city": "Al Ain Municipality"
  },
  {
    "source_id": "ChIJmcLtfiy3ij4RauqpSxAptu0",
    "name": "alkhalij enterprises LLC (Al Ain)",
    "category": "alkhalij enterprises LLC (Al Ain)",
    "formatted_address": "4,8(13)",
    "phone_number": "+97137211441",
    "source_url": "https://www.google.com/maps/place/alkhalij+enterprises+LLC+%28Al+Ain%29/data=!4m7!3m6!1s0x3e8ab72c7eedc299:0xedb629104ba9ea6a!8m2!3d24.1974488!4d55.7609364!16s%2Fg%2F11bbwx18tg!19sChIJmcLtfiy3ij4RauqpSxAptu0?authuser=0&hl=tr&rclk=1",
    "website_url": "",
    "rating_text": "4,8",
    "stars": null,
    "number_of_reviews": null,
    "price_level": "",
    "open_hours": "",
    "extraction_timestamp": "2025-06-08T03:39:33.169Z",
    "source_name": "google",
    "source_query": "Irrigation Equipment",
    "source_country": "AE",
    "country": "United Arab Emirates",
    "state": "Abu Dhabi Emirate",
    "city": "Al Ain Municipality"
  },
  {
    "source_id": "ChIJr8earzFcXz4RoTCHHGUpGDY",
    "name": "ALAIN AUTOMATIC IRRIGATION Co.LLC",
    "category": "ALAIN AUTOMATIC IRRIGATION Co.LLC",
    "formatted_address": "4,8(8)",
    "phone_number": "+971565532888",
    "source_url": "https://www.google.com/maps/place/ALAIN+AUTOMATIC+IRRIGATION+Co.LLC/data=!4m7!3m6!1s0x3e5f5c31af9ac7af:0x361829651c8730a1!8m2!3d25.2753961!4d55.3902202!16s%2Fg%2F11c45_zf9q!19sChIJr8earzFcXz4RoTCHHGUpGDY?authuser=0&hl=tr&rclk=1",
    "website_url": "",
    "rating_text": "4,8",
    "stars": null,
    "number_of_reviews": null,
    "price_level": "",
    "open_hours": "",
    "extraction_timestamp": "2025-06-08T03:39:33.170Z",
    "source_name": "google",
    "source_query": "Irrigation Equipment",
    "source_country": "AE",
    "country": "United Arab Emirates",
    "state": "Abu Dhabi Emirate",
    "city": "Al Ain Municipality"
  },
  {
    "source_id": "ChIJsTqIOzK4ij4Raic50IxKGMs",
    "name": "ACE",
    "category": "ACE",
    "formatted_address": "4,1(222)",
    "phone_number": "+971800275223",
    "source_url": "https://www.google.com/maps/place/ACE/data=!4m7!3m6!1s0x3e8ab8323b883ab1:0xcb184a8cd039276a!8m2!3d24.1604012!4d55.8070968!16s%2Fg%2F11bxdvfs9b!19sChIJsTqIOzK4ij4Raic50IxKGMs?authuser=0&hl=tr&rclk=1",
    "website_url": "",
    "rating_text": "4,1",
    "stars": null,
    "number_of_reviews": null,
    "price_level": "",
    "open_hours": "",
    "extraction_timestamp": "2025-06-08T03:39:33.171Z",
    "source_name": "google",
    "source_query": "Irrigation Equipment",
    "source_country": "AE",
    "country": "United Arab Emirates",
    "state": "Abu Dhabi Emirate",
    "city": "Al Ain Municipality"
  },
  {
    "source_id": "ChIJzwjKI-Czij4RF9Wos_HzXyE",
    "name": "Al Ain Municipality (AAM) بلدية مدينة العين",
    "category": "Al Ain Municipality (AAM) بلدية مدينة العين",
    "formatted_address": "4,1(181)",
    "phone_number": "+97137128000",
    "source_url": "https://www.google.com/maps/place/Al+Ain+Municipality+%28AAM%29+%D8%A8%D9%84%D8%AF%D9%8A%D8%A9+%D9%85%D8%AF%D9%8A%D9%86%D8%A9+%D8%A7%D9%84%D8%B9%D9%8A%D9%86%E2%80%AD/data=!4m7!3m6!1s0x3e8ab3e023ca08cf:0x215ff3f1b3a8d517!8m2!3d24.2385042!4d55.7377759!16s%2Fg%2F11f3g7djcb!19sChIJzwjKI-Czij4RF9Wos_HzXyE?authuser=0&hl=tr&rclk=1",
    "website_url": "",
    "rating_text": "4,1",
    "stars": null,
    "number_of_reviews": null,
    "price_level": "",
    "open_hours": "",
    "extraction_timestamp": "2025-06-08T03:39:33.172Z",
    "source_name": "google",
    "source_query": "Irrigation Equipment",
    "source_country": "AE",
    "country": "United Arab Emirates",
    "state": "Abu Dhabi Emirate",
    "city": "Al Ain Municipality"
  },
  {
    "source_id": "ChIJx_Abquy3ij4Rf79LiAnJfTI",
    "name": "Star Lafi General Trading LLC",
    "category": "Star Lafi General Trading LLC",
    "formatted_address": "5,0(1)",
    "phone_number": "",
    "source_url": "https://www.google.com/maps/place/Star+Lafi+General+Trading+LLC/data=!4m7!3m6!1s0x3e8ab7ecaa1bf0c7:0x327dc909884bbf7f!8m2!3d24.1916642!4d55.7610901!16s%2Fg%2F11wms5xt31!19sChIJx_Abquy3ij4Rf79LiAnJfTI?authuser=0&hl=tr&rclk=1",
    "website_url": "",
    "rating_text": "5,0",
    "stars": null,
    "number_of_reviews": null,
    "price_level": "",
    "open_hours": "",
    "extraction_timestamp": "2025-06-08T03:39:33.172Z",
    "source_name": "google",
    "source_query": "Irrigation Equipment",
    "source_country": "AE",
    "country": "United Arab Emirates",
    "state": "Abu Dhabi Emirate",
    "city": "Al Ain Municipality"
  },
  {
    "source_id": "ChIJaZkpNkRFXj4RMo_SD_ShS-U",
    "name": "FAIZ TRADING COMPANY LLC",
    "category": "FAIZ TRADING COMPANY LLC",
    "formatted_address": "4,1(18)",
    "phone_number": "+971543358407",
    "source_url": "https://www.google.com/maps/place/FAIZ+TRADING+COMPANY+LLC/data=!4m7!3m6!1s0x3e5e454436299969:0xe54ba1f40fd28f32!8m2!3d24.1932213!4d55.7614966!16s%2Fg%2F11ckqsyc5x!19sChIJaZkpNkRFXj4RMo_SD_ShS-U?authuser=0&hl=tr&rclk=1",
    "website_url": "",
    "rating_text": "4,1",
    "stars": null,
    "number_of_reviews": null,
    "price_level": "",
    "open_hours": "",
    "extraction_timestamp": "2025-06-08T03:39:33.175Z",
    "source_name": "google",
    "source_query": "Irrigation Equipment",
    "source_country": "AE",
    "country": "United Arab Emirates",
    "state": "Abu Dhabi Emirate",
    "city": "Al Ain Municipality"
  },
  {
    "source_id": "ChIJRe7lkjK3ij4RL33eKORh-us",
    "name": "Al Bassam Tanks Trading L.L.C",
    "category": "Al Bassam Tanks Trading L.L.C",
    "formatted_address": "4,4(8)",
    "phone_number": "+97137217368",
    "source_url": "https://www.google.com/maps/place/Al+Bassam+Tanks+Trading+L.L.C/data=!4m7!3m6!1s0x3e8ab73292e5ee45:0xebfa61e428de7d2f!8m2!3d24.1918681!4d55.7599581!16s%2Fg%2F1hf129mlk!19sChIJRe7lkjK3ij4RL33eKORh-us?authuser=0&hl=tr&rclk=1",
    "website_url": "",
    "rating_text": "4,4",
    "stars": null,
    "number_of_reviews": null,
    "price_level": "",
    "open_hours": "",
    "extraction_timestamp": "2025-06-08T03:39:33.176Z",
    "source_name": "google",
    "source_query": "Irrigation Equipment",
    "source_country": "AE",
    "country": "United Arab Emirates",
    "state": "Abu Dhabi Emirate",
    "city": "Al Ain Municipality"
  },
  {
    "source_id": "ChIJtfDozLe2ij4RVBcOA-U4WOQ",
    "name": "Modern Agriculture & Irrigation Establishment",
    "category": "Modern Agriculture & Irrigation Establishment",
    "formatted_address": "",
    "phone_number": "+97137510119",
    "source_url": "https://www.google.com/maps/place/Modern+Agriculture+%26+Irrigation+Establishment/data=!4m7!3m6!1s0x3e8ab6b7cce8f0b5:0xe45838e5030e1754!8m2!3d24.2259231!4d55.7662761!16s%2Fg%2F11bbwp1rny!19sChIJtfDozLe2ij4RVBcOA-U4WOQ?authuser=0&hl=tr&rclk=1",
    "website_url": "",
    "rating_text": "",
    "stars": null,
    "number_of_reviews": null,
    "price_level": "",
    "open_hours": "",
    "extraction_timestamp": "2025-06-08T03:39:33.176Z",
    "source_name": "google",
    "source_query": "Irrigation Equipment",
    "source_country": "AE",
    "country": "United Arab Emirates",
    "state": "Abu Dhabi Emirate",
    "city": "Al Ain Municipality"
  },
  {
    "source_id": "ChIJT9TqRthnXj4RiXLocAmUP-0",
    "name": "ARID LAND DEVELOPMENT CO.L.L.C - MAIN OFFICE",
    "category": "ARID LAND DEVELOPMENT CO.L.L.C - MAIN OFFICE",
    "formatted_address": "4,4(18)",
    "phone_number": "+97126319244",
    "source_url": "https://www.google.com/maps/place/ARID+LAND+DEVELOPMENT+CO.L.L.C+-+MAIN+OFFICE/data=!4m7!3m6!1s0x3e5e67d846ead44f:0xed3f940970e87289!8m2!3d24.4712728!4d54.3690496!16s%2Fg%2F1pp2tl7hl!19sChIJT9TqRthnXj4RiXLocAmUP-0?authuser=0&hl=tr&rclk=1",
    "website_url": "",
    "rating_text": "4,4",
    "stars": null,
    "number_of_reviews": null,
    "price_level": "",
    "open_hours": "",
    "extraction_timestamp": "2025-06-08T03:39:33.177Z",
    "source_name": "google",
    "source_query": "Irrigation Equipment",
    "source_country": "AE",
    "country": "United Arab Emirates",
    "state": "Abu Dhabi Emirate",
    "city": "Al Ain Municipality"
  },
  {
    "source_id": "ChIJh1iisdU_Xj4RNS4SUl3E46c",
    "name": "United Irrigation Technologies",
    "category": "United Irrigation Technologies",
    "formatted_address": "5,0(10)",
    "phone_number": "+971502347958",
    "source_url": "https://www.google.com/maps/place/United+Irrigation+Technologies/data=!4m7!3m6!1s0x3e5e3fd5b1a25887:0xa7e3c45d52122e35!8m2!3d24.3069375!4d54.4941875!16s%2Fg%2F11y5q5dtv0!19sChIJh1iisdU_Xj4RNS4SUl3E46c?authuser=0&hl=tr&rclk=1",
    "website_url": "",
    "rating_text": "5,0",
    "stars": null,
    "number_of_reviews": null,
    "price_level": "",
    "open_hours": "",
    "extraction_timestamp": "2025-06-08T03:39:33.178Z",
    "source_name": "google",
    "source_query": "Irrigation Equipment",
    "source_country": "AE",
    "country": "United Arab Emirates",
    "state": "Abu Dhabi Emirate",
    "city": "Al Ain Municipality"
  },
  {
    "source_id": "ChIJtyQIgLK5ij4RUqGvKXT_2HY",
    "name": "Advanced agriculture system",
    "category": "Advanced agriculture system",
    "formatted_address": "4,1(7)",
    "phone_number": "+97137215080",
    "source_url": "https://www.google.com/maps/place/Advanced+agriculture+system/data=!4m7!3m6!1s0x3e8ab9b2800824b7:0x76d8ff7429afa152!8m2!3d24.1429397!4d55.8286062!16s%2Fg%2F11qmc2918q!19sChIJtyQIgLK5ij4RUqGvKXT_2HY?authuser=0&hl=tr&rclk=1",
    "website_url": "",
    "rating_text": "4,1",
    "stars": null,
    "number_of_reviews": null,
    "price_level": "",
    "open_hours": "",
    "extraction_timestamp": "2025-06-08T03:39:33.180Z",
    "source_name": "google",
    "source_query": "Irrigation Equipment",
    "source_country": "AE",
    "country": "United Arab Emirates",
    "state": "Abu Dhabi Emirate",
    "city": "Al Ain Municipality"
  },
  {
    "source_id": "ChIJ1e-0HtW2ij4RbXXzAv5iIPM",
    "name": "Food Distribution Centers - Al Sanaiya",
    "category": "Food Distribution Centers - Al Sanaiya",
    "formatted_address": "4,6(57)",
    "phone_number": "+971565364027",
    "source_url": "https://www.google.com/maps/place/Food+Distribution+Centers+-+Al+Sanaiya/data=!4m7!3m6!1s0x3e8ab6d51eb4efd5:0xf32062fe02f3756d!8m2!3d24.2047959!4d55.7595051!16s%2Fg%2F11b60kbnsz!19sChIJ1e-0HtW2ij4RbXXzAv5iIPM?authuser=0&hl=tr&rclk=1",
    "website_url": "",
    "rating_text": "4,6",
    "stars": null,
    "number_of_reviews": null,
    "price_level": "",
    "open_hours": "",
    "extraction_timestamp": "2025-06-08T03:39:33.180Z",
    "source_name": "google",
    "source_query": "Irrigation Equipment",
    "source_country": "AE",
    "country": "United Arab Emirates",
    "state": "Abu Dhabi Emirate",
    "city": "Al Ain Municipality"
  },
  {
    "source_id": "ChIJ2Tm4pW-xij4Ro1QLxq2zPSg",
    "name": "Al Ain City Center Moweiji",
    "category": "Al Ain City Center Moweiji",
    "formatted_address": "4,0(786)",
    "phone_number": "+97137559559",
    "source_url": "https://www.google.com/maps/place/Al+Ain+City+Center+Moweiji/data=!4m7!3m6!1s0x3e8ab16fa5b839d9:0x283db3adc60b54a3!8m2!3d24.2235822!4d55.7268368!16s%2Fg%2F11c52jn8mh!19sChIJ2Tm4pW-xij4Ro1QLxq2zPSg?authuser=0&hl=tr&rclk=1",
    "website_url": "",
    "rating_text": "4,0",
    "stars": null,
    "number_of_reviews": null,
    "price_level": "",
    "open_hours": "",
    "extraction_timestamp": "2025-06-08T03:39:33.182Z",
    "source_name": "google",
    "source_query": "Irrigation Equipment",
    "source_country": "AE",
    "country": "United Arab Emirates",
    "state": "Abu Dhabi Emirate",
    "city": "Al Ain Municipality"
  },
  {
    "source_id": "ChIJTQdn7NVAXj4R-zpzOVb8-tg",
    "name": "Trees & Leaves Irrigation LLC- SPC",
    "category": "Trees & Leaves Irrigation LLC- SPC",
    "formatted_address": "4,3(41)",
    "phone_number": "+97125545641",
    "source_url": "https://www.google.com/maps/place/Trees+%26+Leaves+Irrigation+LLC-+SPC/data=!4m7!3m6!1s0x3e5e40d5ec67074d:0xd8fafc5639733afb!8m2!3d24.3739558!4d54.5175733!16s%2Fg%2F11bbwq9vl5!19sChIJTQdn7NVAXj4R-zpzOVb8-tg?authuser=0&hl=tr&rclk=1",
    "website_url": "",
    "rating_text": "4,3",
    "stars": null,
    "number_of_reviews": null,
    "price_level": "",
    "open_hours": "",
    "extraction_timestamp": "2025-06-08T03:39:33.182Z",
    "source_name": "google",
    "source_query": "Irrigation Equipment",
    "source_country": "AE",
    "country": "United Arab Emirates",
    "state": "Abu Dhabi Emirate",
    "city": "Al Ain Municipality"
  },
  {
    "source_id": "ChIJo8c1M12xij4RrTdlKX7zktA",
    "name": "Al Swaida Modern Bakeries",
    "category": "Al Swaida Modern Bakeries",
    "formatted_address": "4,2(2.161) · AED 1–50",
    "phone_number": "+97137555422",
    "source_url": "https://www.google.com/maps/place/Al+Swaida+Modern+Bakeries/data=!4m7!3m6!1s0x3e8ab15d3335c7a3:0xd092f37e296537ad!8m2!3d24.2280789!4d55.737425!16s%2Fg%2F11bxjfnyrw!19sChIJo8c1M12xij4RrTdlKX7zktA?authuser=0&hl=tr&rclk=1",
    "website_url": "",
    "rating_text": "4,2",
    "stars": null,
    "number_of_reviews": null,
    "price_level": "",
    "open_hours": "",
    "extraction_timestamp": "2025-06-08T03:39:33.185Z",
    "source_name": "google",
    "source_query": "Irrigation Equipment",
    "source_country": "AE",
    "country": "United Arab Emirates",
    "state": "Abu Dhabi Emirate",
    "city": "Al Ain Municipality"
  },
  {
    "source_id": "ChIJDU-VEwCxij4RDmVB9Jelz2w",
    "name": "Cro Bakery and Cafe",
    "category": "Cro Bakery and Cafe",
    "formatted_address": "4,8(197) · AED 50–100",
    "phone_number": "+97137649511",
    "source_url": "https://www.google.com/maps/place/Cro+Bakery+and+Cafe/data=!4m7!3m6!1s0x3e8ab10013954f0d:0x6ccfa597f441650e!8m2!3d24.2269956!4d55.7376699!16s%2Fg%2F11wq9rxft3!19sChIJDU-VEwCxij4RDmVB9Jelz2w?authuser=0&hl=tr&rclk=1",
    "website_url": "",
    "rating_text": "4,8",
    "stars": null,
    "number_of_reviews": null,
    "price_level": "",
    "open_hours": "",
    "extraction_timestamp": "2025-06-08T03:39:33.186Z",
    "source_name": "google",
    "source_query": "Irrigation Equipment",
    "source_country": "AE",
    "country": "United Arab Emirates",
    "state": "Abu Dhabi Emirate",
    "city": "Al Ain Municipality"
  },
  {
    "source_id": "ChIJ7_I_2Wixij4R_MH51sY3nWU",
    "name": "Gulf Pastry Al Ain Muwaiji",
    "category": "Gulf Pastry Al Ain Muwaiji",
    "formatted_address": "4,1(471) · ₺",
    "phone_number": "+97137541174",
    "source_url": "https://www.google.com/maps/place/Gulf+Pastry+Al+Ain+Muwaiji/data=!4m7!3m6!1s0x3e8ab168d93ff2ef:0x659d37c6d6f9c1fc!8m2!3d24.2241171!4d55.7309902!16s%2Fg%2F11b7l45qt4!19sChIJ7_I_2Wixij4R_MH51sY3nWU?authuser=0&hl=tr&rclk=1",
    "website_url": "",
    "rating_text": "4,1",
    "stars": null,
    "number_of_reviews": null,
    "price_level": "",
    "open_hours": "",
    "extraction_timestamp": "2025-06-08T03:39:33.187Z",
    "source_name": "google",
    "source_query": "Irrigation Equipment",
    "source_country": "AE",
    "country": "United Arab Emirates",
    "state": "Abu Dhabi Emirate",
    "city": "Al Ain Municipality"
  },
  {
    "source_id": "ChIJPaGNC7S3ij4RZzsC1YLZI08",
    "name": "LIFE PHARMACY AUH – Town Centre",
    "category": "LIFE PHARMACY AUH – Town Centre",
    "formatted_address": "4,8(219)",
    "phone_number": "+97145615608",
    "source_url": "https://www.google.com/maps/place/LIFE+PHARMACY+AUH+%E2%80%93+Town+Centre/data=!4m7!3m6!1s0x3e8ab7b40b8da13d:0x4f23d982d5023b67!8m2!3d24.2235778!4d55.7581235!16s%2Fg%2F11scpc17jz!19sChIJPaGNC7S3ij4RZzsC1YLZI08?authuser=0&hl=tr&rclk=1",
    "website_url": "",
    "rating_text": "4,8",
    "stars": null,
    "number_of_reviews": null,
    "price_level": "",
    "open_hours": "",
    "extraction_timestamp": "2025-06-08T03:39:33.188Z",
    "source_name": "google",
    "source_query": "Irrigation Equipment",
    "source_country": "AE",
    "country": "United Arab Emirates",
    "state": "Abu Dhabi Emirate",
    "city": "Al Ain Municipality"
  },
  {
    "source_id": "ChIJ9UIQQpNnXj4RJjvD8StTChk",
    "name": "Arid Land Development Showroom",
    "category": "Arid Land Development Showroom",
    "formatted_address": "4,8(4)",
    "phone_number": "+97126333565",
    "source_url": "https://www.google.com/maps/place/Arid+Land+Development+Showroom/data=!4m7!3m6!1s0x3e5e6793421042f5:0x190a532bf1c33b26!8m2!3d24.482116!4d54.3764228!16s%2Fg%2F11fmgzd92q!19sChIJ9UIQQpNnXj4RJjvD8StTChk?authuser=0&hl=tr&rclk=1",
    "website_url": "",
    "rating_text": "4,8",
    "stars": null,
    "number_of_reviews": null,
    "price_level": "",
    "open_hours": "",
    "extraction_timestamp": "2025-06-08T03:39:33.189Z",
    "source_name": "google",
    "source_query": "Irrigation Equipment",
    "source_country": "AE",
    "country": "United Arab Emirates",
    "state": "Abu Dhabi Emirate",
    "city": "Al Ain Municipality"
  }
]
