[
  {
    "source_id": "ChIJAQAAAMm2ij4RtTyc1ivxesE",
    "name": "Al Ain Automatic Irrigation Company LLC",
    "category": "Al Ain Automatic Irrigation Company LLC",
    "formatted_address": "4,2(14)",
    "phone_number": "+97137229406",
    "source_url": "https://www.google.com/maps/place/Al+Ain+Automatic+Irrigation+Company+LLC/data=!4m7!3m6!1s0x3e8ab6c900000001:0xc17af12bd69c3cb5!8m2!3d24.1465315!4d55.8167626!16s%2Fg%2F11bbwnt88h!19sChIJAQAAAMm2ij4RtTyc1ivxesE?authuser=0&hl=tr&rclk=1",
    "website_url": "",
    "rating_text": "4,2",
    "stars": null,
    "number_of_reviews": null,
    "price_level": "",
    "open_hours": "",
    "extraction_timestamp": "2025-06-08T03:41:23.200Z",
    "source_name": "google",
    "source_query": "Irrigation Equipment",
    "source_country": "AE",
    "country": "United Arab Emirates",
    "state": "Abu Dhabi Emirate",
    "city": "Al Ain City"
  },
  {
    "source_id": "ChIJTcRIWja4ij4RmlDHU04hC74",
    "name": "Bin Moosa & Daly - Al Ain بن موسى و ديلي - العين",
    "category": "Bin Moosa & Daly - Al Ain بن موسى و ديلي - العين",
    "formatted_address": "4,5(63)",
    "phone_number": "+97137840852",
    "source_url": "https://www.google.com/maps/place/Bin+Moosa+%26+Daly+-+Al+Ain+%D8%A8%D9%86+%D9%85%D9%88%D8%B3%D9%89+%D9%88+%D8%AF%D9%8A%D9%84%D9%8A+-+%D8%A7%D9%84%D8%B9%D9%8A%D9%86%E2%80%AD/data=!4m7!3m6!1s0x3e8ab8365a48c44d:0xbe0b214e53c7509a!8m2!3d24.1543693!4d55.8092708!16s%2Fg%2F11bbwxbmm0!19sChIJTcRIWja4ij4RmlDHU04hC74?authuser=0&hl=tr&rclk=1",
    "website_url": "",
    "rating_text": "4,5",
    "stars": null,
    "number_of_reviews": null,
    "price_level": "",
    "open_hours": "",
    "extraction_timestamp": "2025-06-08T03:41:23.200Z",
    "source_name": "google",
    "source_query": "Irrigation Equipment",
    "source_country": "AE",
    "country": "United Arab Emirates",
    "state": "Abu Dhabi Emirate",
    "city": "Al Ain City"
  },
  {
    "source_id": "ChIJHbOtfte3ij4R_SCw8XIRdaM",
    "name": "AL MASHKAH BUILDING MATERIALS TRADING",
    "category": "AL MASHKAH BUILDING MATERIALS TRADING",
    "formatted_address": "4,8(11)",
    "phone_number": "+971509939837",
    "source_url": "https://www.google.com/maps/place/AL+MASHKAH+BUILDING+MATERIALS+TRADING/data=!4m7!3m6!1s0x3e8ab7d77eadb31d:0xa3751172f1b020fd!8m2!3d24.1911816!4d55.7612304!16s%2Fg%2F11fqnlxksm!19sChIJHbOtfte3ij4R_SCw8XIRdaM?authuser=0&hl=tr&rclk=1",
    "website_url": "",
    "rating_text": "4,8",
    "stars": null,
    "number_of_reviews": null,
    "price_level": "",
    "open_hours": "",
    "extraction_timestamp": "2025-06-08T03:41:23.201Z",
    "source_name": "google",
    "source_query": "Irrigation Equipment",
    "source_country": "AE",
    "country": "United Arab Emirates",
    "state": "Abu Dhabi Emirate",
    "city": "Al Ain City"
  },
  {
    "source_id": "ChIJ2fQMsdSwij4RfSFGesrz4P4",
    "name": "HAIFA TRADING & IMPORTING LLC",
    "category": "HAIFA TRADING & IMPORTING LLC",
    "formatted_address": "4,8(19)",
    "phone_number": "+97137210988",
    "source_url": "https://www.google.com/maps/place/HAIFA+TRADING+%26+IMPORTING+LLC/data=!4m7!3m6!1s0x3e8ab0d4b10cf4d9:0xfee0f3ca7a46217d!8m2!3d24.1975615!4d55.7574516!16s%2Fg%2F1ts3jpl6!19sChIJ2fQMsdSwij4RfSFGesrz4P4?authuser=0&hl=tr&rclk=1",
    "website_url": "",
    "rating_text": "4,8",
    "stars": null,
    "number_of_reviews": null,
    "price_level": "",
    "open_hours": "",
    "extraction_timestamp": "2025-06-08T03:41:23.201Z",
    "source_name": "google",
    "source_query": "Irrigation Equipment",
    "source_country": "AE",
    "country": "United Arab Emirates",
    "state": "Abu Dhabi Emirate",
    "city": "Al Ain City"
  },
  {
    "source_id": "ChIJx_Abquy3ij4Rf79LiAnJfTI",
    "name": "Star Lafi General Trading LLC",
    "category": "Star Lafi General Trading LLC",
    "formatted_address": "5,0(1)",
    "phone_number": "",
    "source_url": "https://www.google.com/maps/place/Star+Lafi+General+Trading+LLC/data=!4m7!3m6!1s0x3e8ab7ecaa1bf0c7:0x327dc909884bbf7f!8m2!3d24.1916642!4d55.7610901!16s%2Fg%2F11wms5xt31!19sChIJx_Abquy3ij4Rf79LiAnJfTI?authuser=0&hl=tr&rclk=1",
    "website_url": "",
    "rating_text": "5,0",
    "stars": null,
    "number_of_reviews": null,
    "price_level": "",
    "open_hours": "",
    "extraction_timestamp": "2025-06-08T03:41:23.201Z",
    "source_name": "google",
    "source_query": "Irrigation Equipment",
    "source_country": "AE",
    "country": "United Arab Emirates",
    "state": "Abu Dhabi Emirate",
    "city": "Al Ain City"
  },
  {
    "source_id": "ChIJM44wcPW3ij4RRzKym6ozJ0E",
    "name": "SHARQ AL WATHBA IRRIGATION AND AGRICULTURE CO",
    "category": "SHARQ AL WATHBA IRRIGATION AND AGRICULTURE CO",
    "formatted_address": "5,0(2)",
    "phone_number": "+971506657775",
    "source_url": "https://www.google.com/maps/place/SHARQ+AL+WATHBA+IRRIGATION+AND+AGRICULTURE+CO/data=!4m7!3m6!1s0x3e8ab7f570308e33:0x412733aa9bb23247!8m2!3d24.14013!4d55.8243125!16s%2Fg%2F11gt_zypny!19sChIJM44wcPW3ij4RRzKym6ozJ0E?authuser=0&hl=tr&rclk=1",
    "website_url": "",
    "rating_text": "5,0",
    "stars": null,
    "number_of_reviews": null,
    "price_level": "",
    "open_hours": "",
    "extraction_timestamp": "2025-06-08T03:41:23.202Z",
    "source_name": "google",
    "source_query": "Irrigation Equipment",
    "source_country": "AE",
    "country": "United Arab Emirates",
    "state": "Abu Dhabi Emirate",
    "city": "Al Ain City"
  },
  {
    "source_id": "ChIJmcLtfiy3ij4RauqpSxAptu0",
    "name": "alkhalij enterprises LLC (Al Ain)",
    "category": "alkhalij enterprises LLC (Al Ain)",
    "formatted_address": "4,8(13)",
    "phone_number": "+97137211441",
    "source_url": "https://www.google.com/maps/place/alkhalij+enterprises+LLC+%28Al+Ain%29/data=!4m7!3m6!1s0x3e8ab72c7eedc299:0xedb629104ba9ea6a!8m2!3d24.1974488!4d55.7609364!16s%2Fg%2F11bbwx18tg!19sChIJmcLtfiy3ij4RauqpSxAptu0?authuser=0&hl=tr&rclk=1",
    "website_url": "",
    "rating_text": "4,8",
    "stars": null,
    "number_of_reviews": null,
    "price_level": "",
    "open_hours": "",
    "extraction_timestamp": "2025-06-08T03:41:23.202Z",
    "source_name": "google",
    "source_query": "Irrigation Equipment",
    "source_country": "AE",
    "country": "United Arab Emirates",
    "state": "Abu Dhabi Emirate",
    "city": "Al Ain City"
  },
  {
    "source_id": "ChIJ5aWw6jSxij4Rc5kIIdgNWRE",
    "name": "Al Maidoor Agricultural Equipment LLC (Al Ain Branch)",
    "category": "Al Maidoor Agricultural Equipment LLC (Al Ain Branch)",
    "formatted_address": "4,6(16)",
    "phone_number": "+97137620973",
    "source_url": "https://www.google.com/maps/place/Al+Maidoor+Agricultural+Equipment+LLC+%28Al+Ain+Branch%29/data=!4m7!3m6!1s0x3e8ab134eab0a5e5:0x11590dd821089973!8m2!3d24.1949468!4d55.7539777!16s%2Fg%2F11h2b4r157!19sChIJ5aWw6jSxij4Rc5kIIdgNWRE?authuser=0&hl=tr&rclk=1",
    "website_url": "",
    "rating_text": "4,6",
    "stars": null,
    "number_of_reviews": null,
    "price_level": "",
    "open_hours": "",
    "extraction_timestamp": "2025-06-08T03:41:23.202Z",
    "source_name": "google",
    "source_query": "Irrigation Equipment",
    "source_country": "AE",
    "country": "United Arab Emirates",
    "state": "Abu Dhabi Emirate",
    "city": "Al Ain City"
  },
  {
    "source_id": "ChIJtfDozLe2ij4RVBcOA-U4WOQ",
    "name": "Modern Agriculture & Irrigation Establishment",
    "category": "Modern Agriculture & Irrigation Establishment",
    "formatted_address": "",
    "phone_number": "+97137510119",
    "source_url": "https://www.google.com/maps/place/Modern+Agriculture+%26+Irrigation+Establishment/data=!4m7!3m6!1s0x3e8ab6b7cce8f0b5:0xe45838e5030e1754!8m2!3d24.2259231!4d55.7662761!16s%2Fg%2F11bbwp1rny!19sChIJtfDozLe2ij4RVBcOA-U4WOQ?authuser=0&hl=tr&rclk=1",
    "website_url": "",
    "rating_text": "",
    "stars": null,
    "number_of_reviews": null,
    "price_level": "",
    "open_hours": "",
    "extraction_timestamp": "2025-06-08T03:41:23.203Z",
    "source_name": "google",
    "source_query": "Irrigation Equipment",
    "source_country": "AE",
    "country": "United Arab Emirates",
    "state": "Abu Dhabi Emirate",
    "city": "Al Ain City"
  },
  {
    "source_id": "ChIJaZkpNkRFXj4RMo_SD_ShS-U",
    "name": "FAIZ TRADING COMPANY LLC",
    "category": "FAIZ TRADING COMPANY LLC",
    "formatted_address": "4,1(18)",
    "phone_number": "+971543358407",
    "source_url": "https://www.google.com/maps/place/FAIZ+TRADING+COMPANY+LLC/data=!4m7!3m6!1s0x3e5e454436299969:0xe54ba1f40fd28f32!8m2!3d24.1932213!4d55.7614966!16s%2Fg%2F11ckqsyc5x!19sChIJaZkpNkRFXj4RMo_SD_ShS-U?authuser=0&hl=tr&rclk=1",
    "website_url": "",
    "rating_text": "4,1",
    "stars": null,
    "number_of_reviews": null,
    "price_level": "",
    "open_hours": "",
    "extraction_timestamp": "2025-06-08T03:41:23.203Z",
    "source_name": "google",
    "source_query": "Irrigation Equipment",
    "source_country": "AE",
    "country": "United Arab Emirates",
    "state": "Abu Dhabi Emirate",
    "city": "Al Ain City"
  },
  {
    "source_id": "ChIJsTqIOzK4ij4Raic50IxKGMs",
    "name": "ACE",
    "category": "ACE",
    "formatted_address": "4,1(222)",
    "phone_number": "+971800275223",
    "source_url": "https://www.google.com/maps/place/ACE/data=!4m7!3m6!1s0x3e8ab8323b883ab1:0xcb184a8cd039276a!8m2!3d24.1604012!4d55.8070968!16s%2Fg%2F11bxdvfs9b!19sChIJsTqIOzK4ij4Raic50IxKGMs?authuser=0&hl=tr&rclk=1",
    "website_url": "",
    "rating_text": "4,1",
    "stars": null,
    "number_of_reviews": null,
    "price_level": "",
    "open_hours": "",
    "extraction_timestamp": "2025-06-08T03:41:23.203Z",
    "source_name": "google",
    "source_query": "Irrigation Equipment",
    "source_country": "AE",
    "country": "United Arab Emirates",
    "state": "Abu Dhabi Emirate",
    "city": "Al Ain City"
  },
  {
    "source_id": "ChIJBxG1g7u7ij4R-jx9YOwAPEQ",
    "name": "Al Sahab Services",
    "category": "Al Sahab Services",
    "formatted_address": "4,9(7)",
    "phone_number": "+971504710366",
    "source_url": "https://www.google.com/maps/place/Al+Sahab+Services/data=!4m7!3m6!1s0x3e8abbbb83b51107:0x443c00ec607d3cfa!8m2!3d24.1505519!4d55.7413397!16s%2Fg%2F11p55rrp1y!19sChIJBxG1g7u7ij4R-jx9YOwAPEQ?authuser=0&hl=tr&rclk=1",
    "website_url": "",
    "rating_text": "4,9",
    "stars": null,
    "number_of_reviews": null,
    "price_level": "",
    "open_hours": "",
    "extraction_timestamp": "2025-06-08T03:41:23.204Z",
    "source_name": "google",
    "source_query": "Irrigation Equipment",
    "source_country": "AE",
    "country": "United Arab Emirates",
    "state": "Abu Dhabi Emirate",
    "city": "Al Ain City"
  },
  {
    "source_id": "ChIJYWrZktmxij4RJ6YEygVU9to",
    "name": "Oxygen General Cleaning abudhabi & alain أوكسجين للنظافة العامة والتعقيم شركة تنظيف في أبوظبي شركة تنظيف في العين",
    "category": "Oxygen General Cleaning abudhabi & alain أوكسجين للنظافة العامة والتعقيم شركة تنظيف في أبوظبي شركة تنظيف في العين",
    "formatted_address": "4,5(175)",
    "phone_number": "+971568085804",
    "source_url": "https://www.google.com/maps/place/Oxygen+General+Cleaning+abudhabi+%26+alain+%D8%A3%D9%88%D9%83%D8%B3%D8%AC%D9%8A%D9%86+%D9%84%D9%84%D9%86%D8%B8%D8%A7%D9%81%D8%A9+%D8%A7%D9%84%D8%B9%D8%A7%D9%85%D8%A9+%D9%88%D8%A7%D9%84%D8%AA%D8%B9%D9%82%D9%8A%D9%85+%D8%B4%D8%B1%D9%83%D8%A9+%D8%AA%D9%86%D8%B8%D9%8A%D9%81+%D9%81%D9%8A+%D8%A3%D8%A8%D9%88%D8%B8%D8%A8%D9%8A+%D8%B4%D8%B1%D9%83%D8%A9+%D8%AA%D9%86%D8%B8%D9%8A%D9%81+%D9%81%D9%8A+%D8%A7%D9%84%D8%B9%D9%8A%D9%86%E2%80%AD/data=!4m7!3m6!1s0x3e8ab1d992d96a61:0xdaf65405ca04a627!8m2!3d24.2271176!4d55.7594949!16s%2Fg%2F11gm8d4t8d!19sChIJYWrZktmxij4RJ6YEygVU9to?authuser=0&hl=tr&rclk=1",
    "website_url": "",
    "rating_text": "4,5",
    "stars": null,
    "number_of_reviews": null,
    "price_level": "",
    "open_hours": "",
    "extraction_timestamp": "2025-06-08T03:41:23.204Z",
    "source_name": "google",
    "source_query": "Irrigation Equipment",
    "source_country": "AE",
    "country": "United Arab Emirates",
    "state": "Abu Dhabi Emirate",
    "city": "Al Ain City"
  },
  {
    "source_id": "ChIJu3FeCeW3ij4RaJ-SH0ga_T8",
    "name": "YKM Middle East Building Materials Trading L.L.C",
    "category": "YKM Middle East Building Materials Trading L.L.C",
    "formatted_address": "5,0(3)",
    "phone_number": "+971586777772",
    "source_url": "https://www.google.com/maps/place/YKM+Middle+East+Building+Materials+Trading+L.L.C/data=!4m7!3m6!1s0x3e8ab7e5095e71bb:0x3ffd1a481f929f68!8m2!3d24.1940904!4d55.7570366!16s%2Fg%2F11g4b9b_fj!19sChIJu3FeCeW3ij4RaJ-SH0ga_T8?authuser=0&hl=tr&rclk=1",
    "website_url": "",
    "rating_text": "5,0",
    "stars": null,
    "number_of_reviews": null,
    "price_level": "",
    "open_hours": "",
    "extraction_timestamp": "2025-06-08T03:41:23.204Z",
    "source_name": "google",
    "source_query": "Irrigation Equipment",
    "source_country": "AE",
    "country": "United Arab Emirates",
    "state": "Abu Dhabi Emirate",
    "city": "Al Ain City"
  },
  {
    "source_id": "ChIJRe7lkjK3ij4RL33eKORh-us",
    "name": "Al Bassam Tanks Trading L.L.C",
    "category": "Al Bassam Tanks Trading L.L.C",
    "formatted_address": "4,4(8)",
    "phone_number": "+97137217368",
    "source_url": "https://www.google.com/maps/place/Al+Bassam+Tanks+Trading+L.L.C/data=!4m7!3m6!1s0x3e8ab73292e5ee45:0xebfa61e428de7d2f!8m2!3d24.1918681!4d55.7599581!16s%2Fg%2F1hf129mlk!19sChIJRe7lkjK3ij4RL33eKORh-us?authuser=0&hl=tr&rclk=1",
    "website_url": "",
    "rating_text": "4,4",
    "stars": null,
    "number_of_reviews": null,
    "price_level": "",
    "open_hours": "",
    "extraction_timestamp": "2025-06-08T03:41:23.205Z",
    "source_name": "google",
    "source_query": "Irrigation Equipment",
    "source_country": "AE",
    "country": "United Arab Emirates",
    "state": "Abu Dhabi Emirate",
    "city": "Al Ain City"
  },
  {
    "source_id": "ChIJw-KT9TK3ij4RYCGFBOFGQzE",
    "name": "Falcons Oasis Water Pump Trade Est.",
    "category": "Falcons Oasis Water Pump Trade Est.",
    "formatted_address": "5,0(2)",
    "phone_number": "+97137229895",
    "source_url": "https://www.google.com/maps/place/Falcons+Oasis+Water+Pump+Trade+Est./data=!4m7!3m6!1s0x3e8ab732f593e2c3:0x314346e104852160!8m2!3d24.1908005!4d55.7604568!16s%2Fg%2F11c5s5_j_4!19sChIJw-KT9TK3ij4RYCGFBOFGQzE?authuser=0&hl=tr&rclk=1",
    "website_url": "",
    "rating_text": "5,0",
    "stars": null,
    "number_of_reviews": null,
    "price_level": "",
    "open_hours": "",
    "extraction_timestamp": "2025-06-08T03:41:23.206Z",
    "source_name": "google",
    "source_query": "Irrigation Equipment",
    "source_country": "AE",
    "country": "United Arab Emirates",
    "state": "Abu Dhabi Emirate",
    "city": "Al Ain City"
  },
  {
    "source_id": "ChIJ9bzfmIq3ij4RHWvQgTey1DE",
    "name": "Mahal Noor al Bada Water Pumps Repair shop LLC",
    "category": "Mahal Noor al Bada Water Pumps Repair shop LLC",
    "formatted_address": "4,8(5)",
    "phone_number": "+971501954951",
    "source_url": "https://www.google.com/maps/place/Mahal+Noor+al+Bada+Water+Pumps+Repair+shop+LLC/data=!4m7!3m6!1s0x3e8ab78a98dfbcf5:0x31d4b23781d06b1d!8m2!3d24.1906441!4d55.7586128!16s%2Fg%2F11j1kcxnrc!19sChIJ9bzfmIq3ij4RHWvQgTey1DE?authuser=0&hl=tr&rclk=1",
    "website_url": "",
    "rating_text": "4,8",
    "stars": null,
    "number_of_reviews": null,
    "price_level": "",
    "open_hours": "",
    "extraction_timestamp": "2025-06-08T03:41:23.207Z",
    "source_name": "google",
    "source_query": "Irrigation Equipment",
    "source_country": "AE",
    "country": "United Arab Emirates",
    "state": "Abu Dhabi Emirate",
    "city": "Al Ain City"
  },
  {
    "source_id": "ChIJwVKNNtS3ij4RM0WzWZhsnO0",
    "name": "AL DAFA WATER TANKS",
    "category": "AL DAFA WATER TANKS",
    "formatted_address": "5,0(1)",
    "phone_number": "+971553244127",
    "source_url": "https://www.google.com/maps/place/AL+DAFA+WATER+TANKS/data=!4m7!3m6!1s0x3e8ab7d4368d52c1:0xed9c6c9859b34533!8m2!3d24.1924238!4d55.7601673!16s%2Fg%2F11sf3m7b8p!19sChIJwVKNNtS3ij4RM0WzWZhsnO0?authuser=0&hl=tr&rclk=1",
    "website_url": "",
    "rating_text": "5,0",
    "stars": null,
    "number_of_reviews": null,
    "price_level": "",
    "open_hours": "",
    "extraction_timestamp": "2025-06-08T03:41:23.208Z",
    "source_name": "google",
    "source_query": "Irrigation Equipment",
    "source_country": "AE",
    "country": "United Arab Emirates",
    "state": "Abu Dhabi Emirate",
    "city": "Al Ain City"
  },
  {
    "source_id": "ChIJyzGnNBSzij4RkDnefolTbN4",
    "name": "Modern Electrical Equipment Trading",
    "category": "Modern Electrical Equipment Trading",
    "formatted_address": "4,0(1)",
    "phone_number": "",
    "source_url": "https://www.google.com/maps/place/Modern+Electrical+Equipment+Trading/data=!4m7!3m6!1s0x3e8ab31434a731cb:0xde6c53897ede3990!8m2!3d24.253418!4d55.7392589!16s%2Fg%2F11y23nfs47!19sChIJyzGnNBSzij4RkDnefolTbN4?authuser=0&hl=tr&rclk=1",
    "website_url": "",
    "rating_text": "4,0",
    "stars": null,
    "number_of_reviews": null,
    "price_level": "",
    "open_hours": "",
    "extraction_timestamp": "2025-06-08T03:41:23.209Z",
    "source_name": "google",
    "source_query": "Irrigation Equipment",
    "source_country": "AE",
    "country": "United Arab Emirates",
    "state": "Abu Dhabi Emirate",
    "city": "Al Ain City"
  },
  {
    "source_id": "ChIJEZJY2S23ij4R1dGbeXcU5Q8",
    "name": "Al Abrah Trading Co. L.L.C",
    "category": "Al Abrah Trading Co. L.L.C",
    "formatted_address": "4,6(14)",
    "phone_number": "+97137214814",
    "source_url": "https://www.google.com/maps/place/Al+Abrah+Trading+Co.+L.L.C/data=!4m7!3m6!1s0x3e8ab72dd9589211:0xfe51477799bd1d5!8m2!3d24.1946131!4d55.7630077!16s%2Fg%2F11bbwn0wtj!19sChIJEZJY2S23ij4R1dGbeXcU5Q8?authuser=0&hl=tr&rclk=1",
    "website_url": "",
    "rating_text": "4,6",
    "stars": null,
    "number_of_reviews": null,
    "price_level": "",
    "open_hours": "",
    "extraction_timestamp": "2025-06-08T03:41:23.210Z",
    "source_name": "google",
    "source_query": "Irrigation Equipment",
    "source_country": "AE",
    "country": "United Arab Emirates",
    "state": "Abu Dhabi Emirate",
    "city": "Al Ain City"
  }
]
