[
  {
    "source_id": "ChIJh1iisdU_Xj4RNS4SUl3E46c",
    "name": "United Irrigation Technologies",
    "category": "United Irrigation Technologies",
    "formatted_address": "5,0(10)",
    "phone_number": "+971502347958",
    "source_url": "https://www.google.com/maps/place/United+Irrigation+Technologies/data=!4m7!3m6!1s0x3e5e3fd5b1a25887:0xa7e3c45d52122e35!8m2!3d24.3069375!4d54.4941875!16s%2Fg%2F11y5q5dtv0!19sChIJh1iisdU_Xj4RNS4SUl3E46c?authuser=0&hl=tr&rclk=1",
    "website_url": "https://www.uitpipes.ae/",
    "rating_text": "5,0",
    "stars": null,
    "number_of_reviews": null,
    "price_level": "",
    "open_hours": "",
    "extraction_timestamp": "2025-06-08T03:39:23.124Z",
    "source_name": "google",
    "source_query": "Irrigation Equipment",
    "source_country": "AE",
    "country": "United Arab Emirates",
    "state": "Abu Dhabi Emirate",
    "city": "Al Dhafra"
  },
  {
    "source_id": "ChIJTQdn7NVAXj4R-zpzOVb8-tg",
    "name": "Trees & Leaves Irrigation LLC- SPC",
    "category": "Trees & Leaves Irrigation LLC- SPC",
    "formatted_address": "4,3(41)",
    "phone_number": "+97125545641",
    "source_url": "https://www.google.com/maps/place/Trees+%26+Leaves+Irrigation+LLC-+SPC/data=!4m7!3m6!1s0x3e5e40d5ec67074d:0xd8fafc5639733afb!8m2!3d24.3739558!4d54.5175733!16s%2Fg%2F11bbwq9vl5!19sChIJTQdn7NVAXj4R-zpzOVb8-tg?authuser=0&hl=tr&rclk=1",
    "website_url": "",
    "rating_text": "4,3",
    "stars": null,
    "number_of_reviews": null,
    "price_level": "",
    "open_hours": "",
    "extraction_timestamp": "2025-06-08T03:39:23.125Z",
    "source_name": "google",
    "source_query": "Irrigation Equipment",
    "source_country": "AE",
    "country": "United Arab Emirates",
    "state": "Abu Dhabi Emirate",
    "city": "Al Dhafra"
  },
  {
    "source_id": "ChIJAf9l8tVAXj4R9q7sqfMCVCI",
    "name": "Best Building Materials LLC",
    "category": "Best Building Materials LLC",
    "formatted_address": "4,5(30)",
    "phone_number": "+97125551433",
    "source_url": "https://www.google.com/maps/place/Best+Building+Materials+LLC/data=!4m7!3m6!1s0x3e5e40d5f265ff01:0x225402f3a9ecaef6!8m2!3d24.3739478!4d54.5176595!16s%2Fg%2F11bbwqtmxc!19sChIJAf9l8tVAXj4R9q7sqfMCVCI?authuser=0&hl=tr&rclk=1",
    "website_url": "",
    "rating_text": "4,5",
    "stars": null,
    "number_of_reviews": null,
    "price_level": "",
    "open_hours": "",
    "extraction_timestamp": "2025-06-08T03:39:23.126Z",
    "source_name": "google",
    "source_query": "Irrigation Equipment",
    "source_country": "AE",
    "country": "United Arab Emirates",
    "state": "Abu Dhabi Emirate",
    "city": "Al Dhafra"
  },
  {
    "source_id": "ChIJT9TqRthnXj4RiXLocAmUP-0",
    "name": "ARID LAND DEVELOPMENT CO.L.L.C - MAIN OFFICE",
    "category": "ARID LAND DEVELOPMENT CO.L.L.C - MAIN OFFICE",
    "formatted_address": "4,4(18)",
    "phone_number": "+97126319244",
    "source_url": "https://www.google.com/maps/place/ARID+LAND+DEVELOPMENT+CO.L.L.C+-+MAIN+OFFICE/data=!4m7!3m6!1s0x3e5e67d846ead44f:0xed3f940970e87289!8m2!3d24.4712728!4d54.3690496!16s%2Fg%2F1pp2tl7hl!19sChIJT9TqRthnXj4RiXLocAmUP-0?authuser=0&hl=tr&rclk=1",
    "website_url": "http://aridlanddevelopment.com/",
    "rating_text": "4,4",
    "stars": null,
    "number_of_reviews": null,
    "price_level": "",
    "open_hours": "",
    "extraction_timestamp": "2025-06-08T03:39:23.128Z",
    "source_name": "google",
    "source_query": "Irrigation Equipment",
    "source_country": "AE",
    "country": "United Arab Emirates",
    "state": "Abu Dhabi Emirate",
    "city": "Al Dhafra"
  },
  {
    "source_id": "ChIJ9UIQQpNnXj4RJjvD8StTChk",
    "name": "Arid Land Development Showroom",
    "category": "Arid Land Development Showroom",
    "formatted_address": "4,8(4)",
    "phone_number": "+97126333565",
    "source_url": "https://www.google.com/maps/place/Arid+Land+Development+Showroom/data=!4m7!3m6!1s0x3e5e6793421042f5:0x190a532bf1c33b26!8m2!3d24.482116!4d54.3764228!16s%2Fg%2F11fmgzd92q!19sChIJ9UIQQpNnXj4RJjvD8StTChk?authuser=0&hl=tr&rclk=1",
    "website_url": "http://www.aridlanddevelopment.com/",
    "rating_text": "4,8",
    "stars": null,
    "number_of_reviews": null,
    "price_level": "",
    "open_hours": "",
    "extraction_timestamp": "2025-06-08T03:39:23.129Z",
    "source_name": "google",
    "source_query": "Irrigation Equipment",
    "source_country": "AE",
    "country": "United Arab Emirates",
    "state": "Abu Dhabi Emirate",
    "city": "Al Dhafra"
  },
  {
    "source_id": "ChIJuRxpO41cXz4RzI5kXfp0B6U",
    "name": "Al Guffal trading",
    "category": "Al Guffal trading",
    "formatted_address": "4,6(47)",
    "phone_number": "+97142690005",
    "source_url": "https://www.google.com/maps/place/Al+Guffal+trading/data=!4m7!3m6!1s0x3e5f5c8d3b691cb9:0xa50774fa5d648ecc!8m2!3d25.2795483!4d55.3495073!16s%2Fg%2F11cffj4l7!19sChIJuRxpO41cXz4RzI5kXfp0B6U?authuser=0&hl=tr&rclk=1",
    "website_url": "http://www.alguffal.com/",
    "rating_text": "4,6",
    "stars": null,
    "number_of_reviews": null,
    "price_level": "",
    "open_hours": "",
    "extraction_timestamp": "2025-06-08T03:39:23.130Z",
    "source_name": "google",
    "source_query": "Irrigation Equipment",
    "source_country": "AE",
    "country": "United Arab Emirates",
    "state": "Abu Dhabi Emirate",
    "city": "Al Dhafra"
  },
  {
    "source_id": "ChIJBcyUUClmXj4RO8UpA0kA8NQ",
    "name": "Al Dhafra Irrigation Systems LLC",
    "category": "Al Dhafra Irrigation Systems LLC",
    "formatted_address": "3,4(12)",
    "phone_number": "+201028404341",
    "source_url": "https://www.google.com/maps/place/Al+Dhafra+Irrigation+Systems+LLC/data=!4m7!3m6!1s0x3e5e66295094cc05:0xd4f000490329c53b!8m2!3d24.4672158!4d54.3845563!16s%2Fg%2F11b6rw84gn!19sChIJBcyUUClmXj4RO8UpA0kA8NQ?authuser=0&hl=tr&rclk=1",
    "website_url": "",
    "rating_text": "3,4",
    "stars": null,
    "number_of_reviews": null,
    "price_level": "",
    "open_hours": "",
    "extraction_timestamp": "2025-06-08T03:39:23.131Z",
    "source_name": "google",
    "source_query": "Irrigation Equipment",
    "source_country": "AE",
    "country": "United Arab Emirates",
    "state": "Abu Dhabi Emirate",
    "city": "Al Dhafra"
  },
  {
    "source_id": "ChIJ-WMXwn9VXj4RIrz8M8tPBvk",
    "name": "Responsive Drip Irrigation Manufacturing Ltd.",
    "category": "Responsive Drip Irrigation Manufacturing Ltd.",
    "formatted_address": "Sulama Ekipmanları Tedarikçisi · KP-9, KLP FZ 13, KIZAD, Al Taweelah24 saat açık · +971 2 666 6156",
    "phone_number": "+97126666156",
    "source_url": "https://www.google.com/maps/place/Responsive+Drip+Irrigation+Manufacturing+Ltd./data=!4m7!3m6!1s0x3e5e557fc21763f9:0xf9064fcb33fcbc22!8m2!3d24.6828031!4d54.7432508!16s%2Fg%2F11t3gy_jjt!19sChIJ-WMXwn9VXj4RIrz8M8tPBvk?authuser=0&hl=tr&rclk=1",
    "website_url": "http://www.responsivedrip.com/",
    "rating_text": "",
    "stars": null,
    "number_of_reviews": null,
    "price_level": "",
    "open_hours": "",
    "extraction_timestamp": "2025-06-08T03:39:23.133Z",
    "source_name": "google",
    "source_query": "Irrigation Equipment",
    "source_country": "AE",
    "country": "United Arab Emirates",
    "state": "Abu Dhabi Emirate",
    "city": "Al Dhafra"
  },
  {
    "source_id": "ChIJr8earzFcXz4RoTCHHGUpGDY",
    "name": "ALAIN AUTOMATIC IRRIGATION Co.LLC",
    "category": "ALAIN AUTOMATIC IRRIGATION Co.LLC",
    "formatted_address": "4,8(8)",
    "phone_number": "+971565532888",
    "source_url": "https://www.google.com/maps/place/ALAIN+AUTOMATIC+IRRIGATION+Co.LLC/data=!4m7!3m6!1s0x3e5f5c31af9ac7af:0x361829651c8730a1!8m2!3d25.2753961!4d55.3902202!16s%2Fg%2F11c45_zf9q!19sChIJr8earzFcXz4RoTCHHGUpGDY?authuser=0&hl=tr&rclk=1",
    "website_url": "https://www.linkedin.com/company/al-ain-automatic-irrigation-co-llc/mycompany/",
    "rating_text": "4,8",
    "stars": null,
    "number_of_reviews": null,
    "price_level": "",
    "open_hours": "",
    "extraction_timestamp": "2025-06-08T03:39:23.134Z",
    "source_name": "google",
    "source_query": "Irrigation Equipment",
    "source_country": "AE",
    "country": "United Arab Emirates",
    "state": "Abu Dhabi Emirate",
    "city": "Al Dhafra"
  },
  {
    "source_id": "ChIJLaW_FelrXz4R6IjqW_A0Mk8",
    "name": "Wahat Al Barsha Irrigation Equipment",
    "category": "Wahat Al Barsha Irrigation Equipment",
    "formatted_address": "4,1(41)",
    "phone_number": "+97143477538",
    "source_url": "https://www.google.com/maps/place/Wahat+Al+Barsha+Irrigation+Equipment/data=!4m7!3m6!1s0x3e5f6be915bfa52d:0x4f3234f05bea88e8!8m2!3d25.1135872!4d55.2108013!16s%2Fg%2F11b75m4pgp!19sChIJLaW_FelrXz4R6IjqW_A0Mk8?authuser=0&hl=tr&rclk=1",
    "website_url": "",
    "rating_text": "4,1",
    "stars": null,
    "number_of_reviews": null,
    "price_level": "",
    "open_hours": "",
    "extraction_timestamp": "2025-06-08T03:39:23.135Z",
    "source_name": "google",
    "source_query": "Irrigation Equipment",
    "source_country": "AE",
    "country": "United Arab Emirates",
    "state": "Abu Dhabi Emirate",
    "city": "Al Dhafra"
  },
  {
    "source_id": "ChIJ0fNfkSZBXj4RWXpGSwFh7JA",
    "name": "Afreen Building Materials Trading Company LLC",
    "category": "Afreen Building Materials Trading Company LLC",
    "formatted_address": "4,3(85)",
    "phone_number": "+971526291730",
    "source_url": "https://www.google.com/maps/place/Afreen+Building+Materials+Trading+Company+LLC/data=!4m7!3m6!1s0x3e5e4126915ff3d1:0x90ec61014b467a59!8m2!3d24.3764101!4d54.5098654!16s%2Fg%2F11bbwm_01w!19sChIJ0fNfkSZBXj4RWXpGSwFh7JA?authuser=0&hl=tr&rclk=1",
    "website_url": "http://www.afreenuae.com/",
    "rating_text": "4,3",
    "stars": null,
    "number_of_reviews": null,
    "price_level": "",
    "open_hours": "",
    "extraction_timestamp": "2025-06-08T03:39:23.136Z",
    "source_name": "google",
    "source_query": "Irrigation Equipment",
    "source_country": "AE",
    "country": "United Arab Emirates",
    "state": "Abu Dhabi Emirate",
    "city": "Al Dhafra"
  },
  {
    "source_id": "ChIJqw8RodVAXj4R03YPyNQGKy0",
    "name": "GREEEN VIEW IRRIGATION EQUIPMENT TRADING",
    "category": "GREEEN VIEW IRRIGATION EQUIPMENT TRADING",
    "formatted_address": "3,7(3)",
    "phone_number": "+971507659675",
    "source_url": "https://www.google.com/maps/place/GREEEN+VIEW+IRRIGATION+EQUIPMENT+TRADING/data=!4m7!3m6!1s0x3e5e40d5a1110fab:0x2d2b06d4c80f76d3!8m2!3d24.3739849!4d54.5189073!16s%2Fg%2F11dxb11w9k!19sChIJqw8RodVAXj4R03YPyNQGKy0?authuser=0&hl=tr&rclk=1",
    "website_url": "http://greenview.com/",
    "rating_text": "3,7",
    "stars": null,
    "number_of_reviews": null,
    "price_level": "",
    "open_hours": "",
    "extraction_timestamp": "2025-06-08T03:39:23.137Z",
    "source_name": "google",
    "source_query": "Irrigation Equipment",
    "source_country": "AE",
    "country": "United Arab Emirates",
    "state": "Abu Dhabi Emirate",
    "city": "Al Dhafra"
  },
  {
    "source_id": "ChIJq7axvwhlZz4R5Hhuch8lDQg",
    "name": "Western Beach general contracting. L L C",
    "category": "Western Beach general contracting. L L C",
    "formatted_address": "4,4(17)",
    "phone_number": "+97128882205",
    "source_url": "https://www.google.com/maps/place/Western+Beach+general+contracting.+L+L+C/data=!4m7!3m6!1s0x3e676508bfb1b6ab:0x80d251f726e78e4!8m2!3d23.6581303!4d53.6368858!16s%2Fg%2F11hy672hhp!19sChIJq7axvwhlZz4R5Hhuch8lDQg?authuser=0&hl=tr&rclk=1",
    "website_url": "https://westernbeach.ae/",
    "rating_text": "4,4",
    "stars": null,
    "number_of_reviews": null,
    "price_level": "",
    "open_hours": "",
    "extraction_timestamp": "2025-06-08T03:39:23.138Z",
    "source_name": "google",
    "source_query": "Irrigation Equipment",
    "source_country": "AE",
    "country": "United Arab Emirates",
    "state": "Abu Dhabi Emirate",
    "city": "Al Dhafra"
  },
  {
    "source_id": "ChIJHTB3LbBBXj4RXJr-iHdQhYU",
    "name": "Advanced Hydrotech",
    "category": "Advanced Hydrotech",
    "formatted_address": "4,5(6)",
    "phone_number": "+97125570204",
    "source_url": "https://www.google.com/maps/place/Advanced+Hydrotech/data=!4m7!3m6!1s0x3e5e41b02d77301d:0x8585507788fe9a5c!8m2!3d24.3739668!4d54.5178163!16s%2Fg%2F11h3dhzc7w!19sChIJHTB3LbBBXj4RXJr-iHdQhYU?authuser=0&hl=tr&rclk=1",
    "website_url": "",
    "rating_text": "4,5",
    "stars": null,
    "number_of_reviews": null,
    "price_level": "",
    "open_hours": "",
    "extraction_timestamp": "2025-06-08T03:39:23.138Z",
    "source_name": "google",
    "source_query": "Irrigation Equipment",
    "source_country": "AE",
    "country": "United Arab Emirates",
    "state": "Abu Dhabi Emirate",
    "city": "Al Dhafra"
  },
  {
    "source_id": "ChIJq5_g2HZmXj4R9w7od4CdWUc",
    "name": "Al Ain Automatic Irrigation Co",
    "category": "Al Ain Automatic Irrigation Co",
    "formatted_address": "5,0(1)",
    "phone_number": "+97126343484",
    "source_url": "https://www.google.com/maps/place/Al+Ain+Automatic+Irrigation+Co/data=!4m7!3m6!1s0x3e5e6676d8e09fab:0x47599d8077e80ef7!8m2!3d24.4816355!4d54.3512422!16s%2Fg%2F11bbwxlyml!19sChIJq5_g2HZmXj4R9w7od4CdWUc?authuser=0&hl=tr&rclk=1",
    "website_url": "",
    "rating_text": "5,0",
    "stars": null,
    "number_of_reviews": null,
    "price_level": "",
    "open_hours": "",
    "extraction_timestamp": "2025-06-08T03:39:23.139Z",
    "source_name": "google",
    "source_query": "Irrigation Equipment",
    "source_country": "AE",
    "country": "United Arab Emirates",
    "state": "Abu Dhabi Emirate",
    "city": "Al Dhafra"
  },
  {
    "source_id": "ChIJy2EZM4NnZz4RJWGm1dHmi7I",
    "name": "الغربيه للخيام ولوازم الرحلات فرع الصناعيه",
    "category": "الغربيه للخيام ولوازم الرحلات فرع الصناعيه",
    "formatted_address": "3,8(52)",
    "phone_number": "+971567781290",
    "source_url": "https://www.google.com/maps/place/%D8%A7%D9%84%D8%BA%D8%B1%D8%A8%D9%8A%D9%87+%D9%84%D9%84%D8%AE%D9%8A%D8%A7%D9%85+%D9%88%D9%84%D9%88%D8%A7%D8%B2%D9%85+%D8%A7%D9%84%D8%B1%D8%AD%D9%84%D8%A7%D8%AA+%D9%81%D8%B1%D8%B9+%D8%A7%D9%84%D8%B5%D9%86%D8%A7%D8%B9%D9%8A%D9%87%E2%80%AD/data=!4m7!3m6!1s0x3e676783331961cb:0xb28be6d1d5a66125!8m2!3d23.6630008!4d53.7211516!16s%2Fg%2F11gds1l53b!19sChIJy2EZM4NnZz4RJWGm1dHmi7I?authuser=0&hl=tr&rclk=1",
    "website_url": "",
    "rating_text": "3,8",
    "stars": null,
    "number_of_reviews": null,
    "price_level": "",
    "open_hours": "",
    "extraction_timestamp": "2025-06-08T03:39:23.140Z",
    "source_name": "google",
    "source_query": "Irrigation Equipment",
    "source_country": "AE",
    "country": "United Arab Emirates",
    "state": "Abu Dhabi Emirate",
    "city": "Al Dhafra"
  },
  {
    "source_id": "ChIJW_ZMyzdcXz4RTR9Ug7BmJMs",
    "name": "Al Maidoor Agricultural Equipment LLC",
    "category": "Al Maidoor Agricultural Equipment LLC",
    "formatted_address": "4,1(56)",
    "phone_number": "+97142630026",
    "source_url": "https://www.google.com/maps/place/Al+Maidoor+Agricultural+Equipment+LLC/data=!4m7!3m6!1s0x3e5f5c37cb4cf65b:0xcb2466b083541f4d!8m2!3d25.2743197!4d55.3820271!16s%2Fg%2F11bbwx1cj0!19sChIJW_ZMyzdcXz4RTR9Ug7BmJMs?authuser=0&hl=tr&rclk=1",
    "website_url": "http://www.almaidoor.ae/",
    "rating_text": "4,1",
    "stars": null,
    "number_of_reviews": null,
    "price_level": "",
    "open_hours": "",
    "extraction_timestamp": "2025-06-08T03:39:23.141Z",
    "source_name": "google",
    "source_query": "Irrigation Equipment",
    "source_country": "AE",
    "country": "United Arab Emirates",
    "state": "Abu Dhabi Emirate",
    "city": "Al Dhafra"
  },
  {
    "source_id": "ChIJT3YLBMhnXj4RlIlzDEKaRJ8",
    "name": "PowerTek General Trading",
    "category": "PowerTek General Trading",
    "formatted_address": "4,7(23)",
    "phone_number": "+97125656481",
    "source_url": "https://www.google.com/maps/place/PowerTek+General+Trading/data=!4m7!3m6!1s0x3e5e67c8040b764f:0x9f449a420c738994!8m2!3d24.4887757!4d54.3719499!16s%2Fg%2F11q3qsc4yb!19sChIJT3YLBMhnXj4RlIlzDEKaRJ8?authuser=0&hl=tr&rclk=1",
    "website_url": "http://www.powertekgcc.com/",
    "rating_text": "4,7",
    "stars": null,
    "number_of_reviews": null,
    "price_level": "",
    "open_hours": "",
    "extraction_timestamp": "2025-06-08T03:39:23.142Z",
    "source_name": "google",
    "source_query": "Irrigation Equipment",
    "source_country": "AE",
    "country": "United Arab Emirates",
    "state": "Abu Dhabi Emirate",
    "city": "Al Dhafra"
  },
  {
    "source_id": "ChIJOyoHw6tnXj4R5H6Mbrx3HUE",
    "name": "SPOT LIGHT ELECTRICAL AND BUILDING MATERIALS - S.P- L.L.C",
    "category": "SPOT LIGHT ELECTRICAL AND BUILDING MATERIALS - S.P- L.L.C",
    "formatted_address": "4,6(11)",
    "phone_number": "+97126500677",
    "source_url": "https://www.google.com/maps/place/SPOT+LIGHT+ELECTRICAL+AND+BUILDING+MATERIALS+-+S.P-+L.L.C/data=!4m7!3m6!1s0x3e5e67abc3072a3b:0x411d77bc6e8c7ee4!8m2!3d24.4753815!4d54.3799256!16s%2Fg%2F11jmwf94np!19sChIJOyoHw6tnXj4R5H6Mbrx3HUE?authuser=0&hl=tr&rclk=1",
    "website_url": "https://spot-light.business.site/?utm_source=gmb&utm_medium=referral",
    "rating_text": "4,6",
    "stars": null,
    "number_of_reviews": null,
    "price_level": "",
    "open_hours": "",
    "extraction_timestamp": "2025-06-08T03:39:23.143Z",
    "source_name": "google",
    "source_query": "Irrigation Equipment",
    "source_country": "AE",
    "country": "United Arab Emirates",
    "state": "Abu Dhabi Emirate",
    "city": "Al Dhafra"
  },
  {
    "source_id": "ChIJH8i6quBeXz4RWLMbR-u5AAg",
    "name": "Irrifarm Irrigation Equipment Tr",
    "category": "Irrifarm Irrigation Equipment Tr",
    "formatted_address": "3,7(6)",
    "phone_number": "+97165345626",
    "source_url": "https://www.google.com/maps/place/Irrifarm+Irrigation+Equipment+Tr/data=!4m7!3m6!1s0x3e5f5ee0aabac81f:0x800b9eb471bb358!8m2!3d25.303241!4d55.4415501!16s%2Fg%2F11g6jq3n25!19sChIJH8i6quBeXz4RWLMbR-u5AAg?authuser=0&hl=tr&rclk=1",
    "website_url": "",
    "rating_text": "3,7",
    "stars": null,
    "number_of_reviews": null,
    "price_level": "",
    "open_hours": "",
    "extraction_timestamp": "2025-06-08T03:39:23.144Z",
    "source_name": "google",
    "source_query": "Irrigation Equipment",
    "source_country": "AE",
    "country": "United Arab Emirates",
    "state": "Abu Dhabi Emirate",
    "city": "Al Dhafra"
  },
  {
    "source_id": "ChIJAQAAAMm2ij4RtTyc1ivxesE",
    "name": "Al Ain Automatic Irrigation Company LLC",
    "category": "Al Ain Automatic Irrigation Company LLC",
    "formatted_address": "4,2(14)",
    "phone_number": "+97137229406",
    "source_url": "https://www.google.com/maps/place/Al+Ain+Automatic+Irrigation+Company+LLC/data=!4m7!3m6!1s0x3e8ab6c900000001:0xc17af12bd69c3cb5!8m2!3d24.1465315!4d55.8167626!16s%2Fg%2F11bbwnt88h!19sChIJAQAAAMm2ij4RtTyc1ivxesE?authuser=0&hl=tr&rclk=1",
    "website_url": "",
    "rating_text": "4,2",
    "stars": null,
    "number_of_reviews": null,
    "price_level": "",
    "open_hours": "",
    "extraction_timestamp": "2025-06-08T03:39:23.145Z",
    "source_name": "google",
    "source_query": "Irrigation Equipment",
    "source_country": "AE",
    "country": "United Arab Emirates",
    "state": "Abu Dhabi Emirate",
    "city": "Al Dhafra"
  },
  {
    "source_id": "ChIJW5FPSIZPXj4RvWoDuN0Uczw",
    "name": "ACE",
    "category": "ACE",
    "formatted_address": "4,2(2.210)",
    "phone_number": "+971800275223",
    "source_url": "https://www.google.com/maps/place/ACE/data=!4m7!3m6!1s0x3e5e4f86484f915b:0x3c7314ddb8036abd!8m2!3d24.491789!4d54.6128142!16s%2Fg%2F1hf0xj2c9!19sChIJW5FPSIZPXj4RvWoDuN0Uczw?authuser=0&hl=tr&rclk=1",
    "website_url": "https://www.aceuae.com/en-ae/",
    "rating_text": "4,2",
    "stars": null,
    "number_of_reviews": null,
    "price_level": "",
    "open_hours": "",
    "extraction_timestamp": "2025-06-08T03:39:23.147Z",
    "source_name": "google",
    "source_query": "Irrigation Equipment",
    "source_country": "AE",
    "country": "United Arab Emirates",
    "state": "Abu Dhabi Emirate",
    "city": "Al Dhafra"
  },
  {
    "source_id": "ChIJH-FnijRDXz4R7YCIQcMEkfM",
    "name": "Fitco Industries (London) Limited",
    "category": "Fitco Industries (London) Limited",
    "formatted_address": "5,0(5)",
    "phone_number": "+97142221217",
    "source_url": "https://www.google.com/maps/place/Fitco+Industries+%28London%29+Limited/data=!4m7!3m6!1s0x3e5f43348a67e11f:0xf39104c3418880ed!8m2!3d25.1780672!4d55.2749153!16s%2Fg%2F1hcb0mmb6!19sChIJH-FnijRDXz4R7YCIQcMEkfM?authuser=0&hl=tr&rclk=1",
    "website_url": "http://www.fitcoirrigation.com/",
    "rating_text": "5,0",
    "stars": null,
    "number_of_reviews": null,
    "price_level": "",
    "open_hours": "",
    "extraction_timestamp": "2025-06-08T03:39:23.147Z",
    "source_name": "google",
    "source_query": "Irrigation Equipment",
    "source_country": "AE",
    "country": "United Arab Emirates",
    "state": "Abu Dhabi Emirate",
    "city": "Al Dhafra"
  },
  {
    "source_id": "ChIJPWC6d3xpXj4R8SXycPf7zlw",
    "name": "SUNLIGHT LANDSCAPE LLC",
    "category": "SUNLIGHT LANDSCAPE LLC",
    "formatted_address": "",
    "phone_number": "+971503736368",
    "source_url": "https://www.google.com/maps/place/SUNLIGHT+LANDSCAPE+LLC/data=!4m7!3m6!1s0x3e5e697c77ba603d:0x5ccefbf770f225f1!8m2!3d24.4350608!4d54.4254586!16s%2Fg%2F11swdl5v0h!19sChIJPWC6d3xpXj4R8SXycPf7zlw?authuser=0&hl=tr&rclk=1",
    "website_url": "",
    "rating_text": "",
    "stars": null,
    "number_of_reviews": null,
    "price_level": "",
    "open_hours": "",
    "extraction_timestamp": "2025-06-08T03:39:23.148Z",
    "source_name": "google",
    "source_query": "Irrigation Equipment",
    "source_country": "AE",
    "country": "United Arab Emirates",
    "state": "Abu Dhabi Emirate",
    "city": "Al Dhafra"
  },
  {
    "source_id": "ChIJkSoAQCxaXz4ROAIabSnNEiY",
    "name": "Al Dhafrah Water Purification & Equipment Trading",
    "category": "Al Dhafrah Water Purification & Equipment Trading",
    "formatted_address": "3,9(10)",
    "phone_number": "+971526300226",
    "source_url": "https://www.google.com/maps/place/Al+Dhafrah+Water+Purification+%26+Equipment+Trading/data=!4m7!3m6!1s0x3e5f5a2c40002a91:0x2612cd296d1a0238!8m2!3d25.3724368!4d55.3960422!16s%2Fg%2F11f3tjc88z!19sChIJkSoAQCxaXz4ROAIabSnNEiY?authuser=0&hl=tr&rclk=1",
    "website_url": "http://www.aldhafrahwater.com/",
    "rating_text": "3,9",
    "stars": null,
    "number_of_reviews": null,
    "price_level": "",
    "open_hours": "",
    "extraction_timestamp": "2025-06-08T03:39:23.149Z",
    "source_name": "google",
    "source_query": "Irrigation Equipment",
    "source_country": "AE",
    "country": "United Arab Emirates",
    "state": "Abu Dhabi Emirate",
    "city": "Al Dhafra"
  },
  {
    "source_id": "ChIJjbMVAH8SXz4Rk8c_BBYp4rQ",
    "name": "Rain Bird International",
    "category": "Rain Bird International",
    "formatted_address": "4,7(3)",
    "phone_number": "+97148819671",
    "source_url": "https://www.google.com/maps/place/Rain+Bird+International/data=!4m7!3m6!1s0x3e5f127f0015b38d:0xb4e22916043fc793!8m2!3d24.9842206!4d55.0905374!16s%2Fg%2F11bbwpbsls!19sChIJjbMVAH8SXz4Rk8c_BBYp4rQ?authuser=0&hl=tr&rclk=1",
    "website_url": "",
    "rating_text": "4,7",
    "stars": null,
    "number_of_reviews": null,
    "price_level": "",
    "open_hours": "",
    "extraction_timestamp": "2025-06-08T03:39:23.150Z",
    "source_name": "google",
    "source_query": "Irrigation Equipment",
    "source_country": "AE",
    "country": "United Arab Emirates",
    "state": "Abu Dhabi Emirate",
    "city": "Al Dhafra"
  },
  {
    "source_id": "ChIJ_6pnRTBlXj4RyxgZdhJjeqI",
    "name": "Silver Coast International for General Trading",
    "category": "Silver Coast International for General Trading",
    "formatted_address": "",
    "phone_number": "+97124442202",
    "source_url": "https://www.google.com/maps/place/Silver+Coast+International+for+General+Trading/data=!4m7!3m6!1s0x3e5e65304567aaff:0xa27a6312761918cb!8m2!3d24.4585837!4d54.3223244!16s%2Fg%2F11rv9yyhyj!19sChIJ_6pnRTBlXj4RyxgZdhJjeqI?authuser=0&hl=tr&rclk=1",
    "website_url": "http://www.scigt.ae/",
    "rating_text": "",
    "stars": null,
    "number_of_reviews": null,
    "price_level": "",
    "open_hours": "",
    "extraction_timestamp": "2025-06-08T03:39:23.151Z",
    "source_name": "google",
    "source_query": "Irrigation Equipment",
    "source_country": "AE",
    "country": "United Arab Emirates",
    "state": "Abu Dhabi Emirate",
    "city": "Al Dhafra"
  },
  {
    "source_id": "ChIJjyL-ux5BXj4RfAIWFQHdhOQ",
    "name": "Al Dhafra Fire Equipment and Contracting LLC - Mussafah Store",
    "category": "Al Dhafra Fire Equipment and Contracting LLC - Mussafah Store",
    "formatted_address": "4,0(5)",
    "phone_number": "+971558766588",
    "source_url": "https://www.google.com/maps/place/Al+Dhafra+Fire+Equipment+and+Contracting+LLC+-+Mussafah+Store/data=!4m7!3m6!1s0x3e5e411ebbfe228f:0xe484dd011516027c!8m2!3d24.3612072!4d54.4841513!16s%2Fg%2F11bbwpzh0y!19sChIJjyL-ux5BXj4RfAIWFQHdhOQ?authuser=0&hl=tr&rclk=1",
    "website_url": "http://www.aldhafra-uae.com/",
    "rating_text": "4,0",
    "stars": null,
    "number_of_reviews": null,
    "price_level": "",
    "open_hours": "",
    "extraction_timestamp": "2025-06-08T03:39:23.151Z",
    "source_name": "google",
    "source_query": "Irrigation Equipment",
    "source_country": "AE",
    "country": "United Arab Emirates",
    "state": "Abu Dhabi Emirate",
    "city": "Al Dhafra"
  },
  {
    "source_id": "ChIJA9yH9UbbQygRndM3Z0fvywo",
    "name": "Al Dhafra International Group - ADIG",
    "category": "Al Dhafra International Group - ADIG",
    "formatted_address": "",
    "phone_number": "+97180025342372",
    "source_url": "https://www.google.com/maps/place/Al+Dhafra+International+Group+-+ADIG/data=!4m7!3m6!1s0x2843db46f587dc03:0xacbef476737d39d!8m2!3d24.3189716!4d55.1406383!16s%2Fg%2F11vqm55scy!19sChIJA9yH9UbbQygRndM3Z0fvywo?authuser=0&hl=tr&rclk=1",
    "website_url": "https://www.aldhafragroup.ae/",
    "rating_text": "",
    "stars": null,
    "number_of_reviews": null,
    "price_level": "",
    "open_hours": "",
    "extraction_timestamp": "2025-06-08T03:39:23.152Z",
    "source_name": "google",
    "source_query": "Irrigation Equipment",
    "source_country": "AE",
    "country": "United Arab Emirates",
    "state": "Abu Dhabi Emirate",
    "city": "Al Dhafra"
  },
  {
    "source_id": "ChIJu4Nxy2FdZz4RS13nWzgz2PA",
    "name": "ماء المدينة لمواد البناء MAA AL MADINA BUILDING MATERIALS",
    "category": "ماء المدينة لمواد البناء MAA AL MADINA BUILDING MATERIALS",
    "formatted_address": "5,0(3)",
    "phone_number": "+971566614433",
    "source_url": "https://www.google.com/maps/place/%D9%85%D8%A7%D8%A1+%D8%A7%D9%84%D9%85%D8%AF%D9%8A%D9%86%D8%A9+%D9%84%D9%85%D9%88%D8%A7%D8%AF+%D8%A7%D9%84%D8%A8%D9%86%D8%A7%D8%A1+MAA+AL+MADINA+BUILDING+MATERIALS%E2%80%AD/data=!4m7!3m6!1s0x3e675d61cb7183bb:0xf0d833385be75d4b!8m2!3d23.6198125!4d53.7065625!16s%2Fg%2F11sf801m1f!19sChIJu4Nxy2FdZz4RS13nWzgz2PA?authuser=0&hl=tr&rclk=1",
    "website_url": "",
    "rating_text": "5,0",
    "stars": null,
    "number_of_reviews": null,
    "price_level": "",
    "open_hours": "",
    "extraction_timestamp": "2025-06-08T03:39:23.153Z",
    "source_name": "google",
    "source_query": "Irrigation Equipment",
    "source_country": "AE",
    "country": "United Arab Emirates",
    "state": "Abu Dhabi Emirate",
    "city": "Al Dhafra"
  },
  {
    "source_id": "ChIJUZojg15FXj4RU_xburicH2w",
    "name": "EDGE Group PJSC",
    "category": "EDGE Group PJSC",
    "formatted_address": "4,6(40)",
    "phone_number": "+97122056666",
    "source_url": "https://www.google.com/maps/place/EDGE+Group+PJSC/data=!4m7!3m6!1s0x3e5e455e83239a51:0x6c1f9cb8ba5bfc53!8m2!3d24.4476139!4d54.6059448!16s%2Fg%2F11jgd62j24!19sChIJUZojg15FXj4RU_xburicH2w?authuser=0&hl=tr&rclk=1",
    "website_url": "https://www.edgegroup.ae/",
    "rating_text": "4,6",
    "stars": null,
    "number_of_reviews": null,
    "price_level": "",
    "open_hours": "",
    "extraction_timestamp": "2025-06-08T03:39:23.154Z",
    "source_name": "google",
    "source_query": "Irrigation Equipment",
    "source_country": "AE",
    "country": "United Arab Emirates",
    "state": "Abu Dhabi Emirate",
    "city": "Al Dhafra"
  },
  {
    "source_id": "ChIJb58ZyyRHXj4RurE0GV5Fok8",
    "name": "Easy Tech building materials trading LLC",
    "category": "Easy Tech building materials trading LLC",
    "formatted_address": "",
    "phone_number": "+971503477001",
    "source_url": "https://www.google.com/maps/place/Easy+Tech+building+materials+trading+LLC/data=!4m7!3m6!1s0x3e5e4724cb199f6f:0x4fa2455e1934b1ba!8m2!3d24.340719!4d54.4746825!16s%2Fg%2F11y5njm4dm!19sChIJb58ZyyRHXj4RurE0GV5Fok8?authuser=0&hl=tr&rclk=1",
    "website_url": "",
    "rating_text": "",
    "stars": null,
    "number_of_reviews": null,
    "price_level": "",
    "open_hours": "",
    "extraction_timestamp": "2025-06-08T03:39:23.155Z",
    "source_name": "google",
    "source_query": "Irrigation Equipment",
    "source_country": "AE",
    "country": "United Arab Emirates",
    "state": "Abu Dhabi Emirate",
    "city": "Al Dhafra"
  },
  {
    "source_id": "ChIJs100i1tmXj4RiNuVCKxWQA0",
    "name": "SYSTEMS EQUIPMENT",
    "category": "SYSTEMS EQUIPMENT",
    "formatted_address": "5,0(3)",
    "phone_number": "+97126741296",
    "source_url": "https://www.google.com/maps/place/SYSTEMS+EQUIPMENT/data=!4m7!3m6!1s0x3e5e665b8b345db3:0xd4056ac0895db88!8m2!3d24.4912439!4d54.3712766!16s%2Fg%2F11dx8m5pz5!19sChIJs100i1tmXj4RiNuVCKxWQA0?authuser=0&hl=tr&rclk=1",
    "website_url": "http://www.sysquip.ae/",
    "rating_text": "5,0",
    "stars": null,
    "number_of_reviews": null,
    "price_level": "",
    "open_hours": "",
    "extraction_timestamp": "2025-06-08T03:39:23.156Z",
    "source_name": "google",
    "source_query": "Irrigation Equipment",
    "source_country": "AE",
    "country": "United Arab Emirates",
    "state": "Abu Dhabi Emirate",
    "city": "Al Dhafra"
  }
]
