[
  {
    "source_id": "ChIJTQdn7NVAXj4R-zpzOVb8-tg",
    "name": "Trees & Leaves Irrigation LLC- SPC",
    "category": "Trees & Leaves Irrigation LLC- SPC",
    "formatted_address": "4,3(41)",
    "phone_number": "+97125545641",
    "source_url": "https://www.google.com/maps/place/Trees+%26+Leaves+Irrigation+LLC-+SPC/data=!4m7!3m6!1s0x3e5e40d5ec67074d:0xd8fafc5639733afb!8m2!3d24.3739558!4d54.5175733!16s%2Fg%2F11bbwq9vl5!19sChIJTQdn7NVAXj4R-zpzOVb8-tg?authuser=0&hl=tr&rclk=1",
    "website_url": "",
    "rating_text": "4,3",
    "stars": null,
    "number_of_reviews": null,
    "price_level": "",
    "open_hours": "",
    "extraction_timestamp": "2025-06-08T03:41:31.714Z",
    "source_name": "google",
    "source_query": "Irrigation Equipment",
    "source_country": "AE",
    "country": "United Arab Emirates",
    "state": "Abu Dhabi Emirate",
    "city": "Al Shamkhah City"
  },
  {
    "source_id": "ChIJT9TqRthnXj4RiXLocAmUP-0",
    "name": "ARID LAND DEVELOPMENT CO.L.L.C - MAIN OFFICE",
    "category": "ARID LAND DEVELOPMENT CO.L.L.C - MAIN OFFICE",
    "formatted_address": "4,4(18)",
    "phone_number": "+97126319244",
    "source_url": "https://www.google.com/maps/place/ARID+LAND+DEVELOPMENT+CO.L.L.C+-+MAIN+OFFICE/data=!4m7!3m6!1s0x3e5e67d846ead44f:0xed3f940970e87289!8m2!3d24.4712728!4d54.3690496!16s%2Fg%2F1pp2tl7hl!19sChIJT9TqRthnXj4RiXLocAmUP-0?authuser=0&hl=tr&rclk=1",
    "website_url": "http://aridlanddevelopment.com/",
    "rating_text": "4,4",
    "stars": null,
    "number_of_reviews": null,
    "price_level": "",
    "open_hours": "",
    "extraction_timestamp": "2025-06-08T03:41:31.714Z",
    "source_name": "google",
    "source_query": "Irrigation Equipment",
    "source_country": "AE",
    "country": "United Arab Emirates",
    "state": "Abu Dhabi Emirate",
    "city": "Al Shamkhah City"
  },
  {
    "source_id": "ChIJeVGIbcGqXz4Rj64Unb0EWHE",
    "name": "31- AlSmeih Irrigation Station",
    "category": "31- AlSmeih Irrigation Station",
    "formatted_address": "31- AlSmeih Irrigation Station",
    "phone_number": "",
    "source_url": "https://www.google.com/maps/place/31-+AlSmeih+Irrigation+Station/data=!4m7!3m6!1s0x3e5faac16d885179:0x715804bd9d14ae8f!8m2!3d24.7153279!4d54.8037227!16s%2Fg%2F1hg4s3xlz!19sChIJeVGIbcGqXz4Rj64Unb0EWHE?authuser=0&hl=tr&rclk=1",
    "website_url": "",
    "rating_text": "4,0",
    "stars": null,
    "number_of_reviews": null,
    "price_level": "",
    "open_hours": "",
    "extraction_timestamp": "2025-06-08T03:41:31.714Z",
    "source_name": "google",
    "source_query": "Irrigation Equipment",
    "source_country": "AE",
    "country": "United Arab Emirates",
    "state": "Abu Dhabi Emirate",
    "city": "Al Shamkhah City"
  },
  {
    "source_id": "ChIJRzrqekxDXj4Rb8ewFXCM6uk",
    "name": "Landscaping",
    "category": "Landscaping",
    "formatted_address": "5,0(14)",
    "phone_number": "+971566116657",
    "source_url": "https://www.google.com/maps/place/Landscaping/data=!4m7!3m6!1s0x3e5e434c7aea3a47:0xe9ea8c7015b0c76f!8m2!3d24.4009388!4d54.7334388!16s%2Fg%2F11frjdjlrq!19sChIJRzrqekxDXj4Rb8ewFXCM6uk?authuser=0&hl=tr&rclk=1",
    "website_url": "https://greenwooduae.com/",
    "rating_text": "5,0",
    "stars": null,
    "number_of_reviews": null,
    "price_level": "",
    "open_hours": "",
    "extraction_timestamp": "2025-06-08T03:41:31.715Z",
    "source_name": "google",
    "source_query": "Irrigation Equipment",
    "source_country": "AE",
    "country": "United Arab Emirates",
    "state": "Abu Dhabi Emirate",
    "city": "Al Shamkhah City"
  },
  {
    "source_id": "ChIJ71Pv9daqXz4RAIMmNxQbAlw",
    "name": "32- Irrigation station Al Smeih Dewatering",
    "category": "32- Irrigation station Al Smeih Dewatering",
    "formatted_address": "32- Irrigation station Al Smeih Dewatering",
    "phone_number": "",
    "source_url": "https://www.google.com/maps/place/32-+Irrigation+station+Al+Smeih+Dewatering/data=!4m7!3m6!1s0x3e5faad6f5ef53ef:0x5c021b1437268300!8m2!3d24.6983701!4d54.7923014!16s%2Fg%2F1hg4vccvd!19sChIJ71Pv9daqXz4RAIMmNxQbAlw?authuser=0&hl=tr&rclk=1",
    "website_url": "",
    "rating_text": "5,0",
    "stars": null,
    "number_of_reviews": null,
    "price_level": "",
    "open_hours": "",
    "extraction_timestamp": "2025-06-08T03:41:31.715Z",
    "source_name": "google",
    "source_query": "Irrigation Equipment",
    "source_country": "AE",
    "country": "United Arab Emirates",
    "state": "Abu Dhabi Emirate",
    "city": "Al Shamkhah City"
  },
  {
    "source_id": "ChIJqw8RodVAXj4R03YPyNQGKy0",
    "name": "GREEEN VIEW IRRIGATION EQUIPMENT TRADING",
    "category": "GREEEN VIEW IRRIGATION EQUIPMENT TRADING",
    "formatted_address": "3,7(3)",
    "phone_number": "+971507659675",
    "source_url": "https://www.google.com/maps/place/GREEEN+VIEW+IRRIGATION+EQUIPMENT+TRADING/data=!4m7!3m6!1s0x3e5e40d5a1110fab:0x2d2b06d4c80f76d3!8m2!3d24.3739849!4d54.5189073!16s%2Fg%2F11dxb11w9k!19sChIJqw8RodVAXj4R03YPyNQGKy0?authuser=0&hl=tr&rclk=1",
    "website_url": "http://greenview.com/",
    "rating_text": "3,7",
    "stars": null,
    "number_of_reviews": null,
    "price_level": "",
    "open_hours": "",
    "extraction_timestamp": "2025-06-08T03:41:31.715Z",
    "source_name": "google",
    "source_query": "Irrigation Equipment",
    "source_country": "AE",
    "country": "United Arab Emirates",
    "state": "Abu Dhabi Emirate",
    "city": "Al Shamkhah City"
  },
  {
    "source_id": "ChIJHTB3LbBBXj4RXJr-iHdQhYU",
    "name": "Advanced Hydrotech",
    "category": "Advanced Hydrotech",
    "formatted_address": "4,5(6)",
    "phone_number": "+97125570204",
    "source_url": "https://www.google.com/maps/place/Advanced+Hydrotech/data=!4m7!3m6!1s0x3e5e41b02d77301d:0x8585507788fe9a5c!8m2!3d24.3739668!4d54.5178163!16s%2Fg%2F11h3dhzc7w!19sChIJHTB3LbBBXj4RXJr-iHdQhYU?authuser=0&hl=tr&rclk=1",
    "website_url": "",
    "rating_text": "4,5",
    "stars": null,
    "number_of_reviews": null,
    "price_level": "",
    "open_hours": "",
    "extraction_timestamp": "2025-06-08T03:41:31.715Z",
    "source_name": "google",
    "source_query": "Irrigation Equipment",
    "source_country": "AE",
    "country": "United Arab Emirates",
    "state": "Abu Dhabi Emirate",
    "city": "Al Shamkhah City"
  },
  {
    "source_id": "ChIJr8earzFcXz4RoTCHHGUpGDY",
    "name": "ALAIN AUTOMATIC IRRIGATION Co.LLC",
    "category": "ALAIN AUTOMATIC IRRIGATION Co.LLC",
    "formatted_address": "4,8(8)",
    "phone_number": "+971565532888",
    "source_url": "https://www.google.com/maps/place/ALAIN+AUTOMATIC+IRRIGATION+Co.LLC/data=!4m7!3m6!1s0x3e5f5c31af9ac7af:0x361829651c8730a1!8m2!3d25.2753961!4d55.3902202!16s%2Fg%2F11c45_zf9q!19sChIJr8earzFcXz4RoTCHHGUpGDY?authuser=0&hl=tr&rclk=1",
    "website_url": "https://www.linkedin.com/company/al-ain-automatic-irrigation-co-llc/mycompany/",
    "rating_text": "4,8",
    "stars": null,
    "number_of_reviews": null,
    "price_level": "",
    "open_hours": "",
    "extraction_timestamp": "2025-06-08T03:41:31.716Z",
    "source_name": "google",
    "source_query": "Irrigation Equipment",
    "source_country": "AE",
    "country": "United Arab Emirates",
    "state": "Abu Dhabi Emirate",
    "city": "Al Shamkhah City"
  },
  {
    "source_id": "ChIJp1sHvjBLXj4ROHPgjSXNPcU",
    "name": "ستار باور",
    "category": "ستار باور",
    "formatted_address": "3,0(1)",
    "phone_number": "+971547001776",
    "source_url": "https://www.google.com/maps/place/%D8%B3%D8%AA%D8%A7%D8%B1+%D8%A8%D8%A7%D9%88%D8%B1%E2%80%AD/data=!4m7!3m6!1s0x3e5e4b30be075ba7:0xc53dcd258de07338!8m2!3d24.4001821!4d54.7195714!16s%2Fg%2F11w8pp7_px!19sChIJp1sHvjBLXj4ROHPgjSXNPcU?authuser=0&hl=tr&rclk=1",
    "website_url": "https://tansiq-alamarat.com/",
    "rating_text": "3,0",
    "stars": null,
    "number_of_reviews": null,
    "price_level": "",
    "open_hours": "",
    "extraction_timestamp": "2025-06-08T03:41:31.716Z",
    "source_name": "google",
    "source_query": "Irrigation Equipment",
    "source_country": "AE",
    "country": "United Arab Emirates",
    "state": "Abu Dhabi Emirate",
    "city": "Al Shamkhah City"
  },
  {
    "source_id": "ChIJDXcJdlxmXj4RUwNUieWHSbw",
    "name": "Orient Irrigation Services LLC",
    "category": "Orient Irrigation Services LLC",
    "formatted_address": "3,3(7)",
    "phone_number": "+97126764040",
    "source_url": "https://www.google.com/maps/place/Orient+Irrigation+Services+LLC/data=!4m7!3m6!1s0x3e5e665c7609770d:0xbc4987e589540353!8m2!3d24.373743!4d54.5076137!16s%2Fg%2F11bbwps0tf!19sChIJDXcJdlxmXj4RUwNUieWHSbw?authuser=0&hl=tr&rclk=1",
    "website_url": "http://www.orientirrigation.com/",
    "rating_text": "3,3",
    "stars": null,
    "number_of_reviews": null,
    "price_level": "",
    "open_hours": "",
    "extraction_timestamp": "2025-06-08T03:41:31.716Z",
    "source_name": "google",
    "source_query": "Irrigation Equipment",
    "source_country": "AE",
    "country": "United Arab Emirates",
    "state": "Abu Dhabi Emirate",
    "city": "Al Shamkhah City"
  },
  {
    "source_id": "ChIJBcyUUClmXj4RO8UpA0kA8NQ",
    "name": "Al Dhafra Irrigation Systems LLC",
    "category": "Al Dhafra Irrigation Systems LLC",
    "formatted_address": "3,4(12)",
    "phone_number": "+201028404341",
    "source_url": "https://www.google.com/maps/place/Al+Dhafra+Irrigation+Systems+LLC/data=!4m7!3m6!1s0x3e5e66295094cc05:0xd4f000490329c53b!8m2!3d24.4672158!4d54.3845563!16s%2Fg%2F11b6rw84gn!19sChIJBcyUUClmXj4RO8UpA0kA8NQ?authuser=0&hl=tr&rclk=1",
    "website_url": "",
    "rating_text": "3,4",
    "stars": null,
    "number_of_reviews": null,
    "price_level": "",
    "open_hours": "",
    "extraction_timestamp": "2025-06-08T03:41:31.717Z",
    "source_name": "google",
    "source_query": "Irrigation Equipment",
    "source_country": "AE",
    "country": "United Arab Emirates",
    "state": "Abu Dhabi Emirate",
    "city": "Al Shamkhah City"
  },
  {
    "source_id": "ChIJ2V6ThwA1Xj4Rq2Yx8uGTAlY",
    "name": "SHAMKA E IRRIGATION PUMPING STATION",
    "category": "SHAMKA E IRRIGATION PUMPING STATION",
    "formatted_address": "5,0(1)",
    "phone_number": "",
    "source_url": "https://www.google.com/maps/place/SHAMKA+E+IRRIGATION+PUMPING+STATION/data=!4m7!3m6!1s0x3e5e350087935ed9:0x560293e1f23166ab!8m2!3d24.3846498!4d54.7161431!16s%2Fg%2F11fflzrbzm!19sChIJ2V6ThwA1Xj4Rq2Yx8uGTAlY?authuser=0&hl=tr&rclk=1",
    "website_url": "",
    "rating_text": "5,0",
    "stars": null,
    "number_of_reviews": null,
    "price_level": "",
    "open_hours": "",
    "extraction_timestamp": "2025-06-08T03:41:31.717Z",
    "source_name": "google",
    "source_query": "Irrigation Equipment",
    "source_country": "AE",
    "country": "United Arab Emirates",
    "state": "Abu Dhabi Emirate",
    "city": "Al Shamkhah City"
  }
]
