[
  {
    "source_id": "ChIJTQdn7NVAXj4R-zpzOVb8-tg",
    "name": "Trees & Leaves Irrigation LLC- SPC",
    "category": "Trees & Leaves Irrigation LLC- SPC",
    "formatted_address": "4,3(41)",
    "phone_number": "+97125545641",
    "source_url": "https://www.google.com/maps/place/Trees+%26+Leaves+Irrigation+LLC-+SPC/data=!4m7!3m6!1s0x3e5e40d5ec67074d:0xd8fafc5639733afb!8m2!3d24.3739558!4d54.5175733!16s%2Fg%2F11bbwq9vl5!19sChIJTQdn7NVAXj4R-zpzOVb8-tg?authuser=0&hl=tr&rclk=1",
    "website_url": "",
    "rating_text": "4,3",
    "stars": null,
    "number_of_reviews": null,
    "price_level": "",
    "open_hours": "",
    "extraction_timestamp": "2025-06-08T03:39:43.403Z",
    "source_name": "google",
    "source_query": "Irrigation Equipment",
    "source_country": "AE",
    "country": "United Arab Emirates",
    "state": "Abu Dhabi Emirate",
    "city": "Ar Ruways"
  },
  {
    "source_id": "ChIJh1iisdU_Xj4RNS4SUl3E46c",
    "name": "United Irrigation Technologies",
    "category": "United Irrigation Technologies",
    "formatted_address": "5,0(10)",
    "phone_number": "+971502347958",
    "source_url": "https://www.google.com/maps/place/United+Irrigation+Technologies/data=!4m7!3m6!1s0x3e5e3fd5b1a25887:0xa7e3c45d52122e35!8m2!3d24.3069375!4d54.4941875!16s%2Fg%2F11y5q5dtv0!19sChIJh1iisdU_Xj4RNS4SUl3E46c?authuser=0&hl=tr&rclk=1",
    "website_url": "https://www.uitpipes.ae/",
    "rating_text": "5,0",
    "stars": null,
    "number_of_reviews": null,
    "price_level": "",
    "open_hours": "",
    "extraction_timestamp": "2025-06-08T03:39:43.404Z",
    "source_name": "google",
    "source_query": "Irrigation Equipment",
    "source_country": "AE",
    "country": "United Arab Emirates",
    "state": "Abu Dhabi Emirate",
    "city": "Ar Ruways"
  },
  {
    "source_id": "ChIJT9TqRthnXj4RiXLocAmUP-0",
    "name": "ARID LAND DEVELOPMENT CO.L.L.C - MAIN OFFICE",
    "category": "ARID LAND DEVELOPMENT CO.L.L.C - MAIN OFFICE",
    "formatted_address": "4,4(18)",
    "phone_number": "+97126319244",
    "source_url": "https://www.google.com/maps/place/ARID+LAND+DEVELOPMENT+CO.L.L.C+-+MAIN+OFFICE/data=!4m7!3m6!1s0x3e5e67d846ead44f:0xed3f940970e87289!8m2!3d24.4712728!4d54.3690496!16s%2Fg%2F1pp2tl7hl!19sChIJT9TqRthnXj4RiXLocAmUP-0?authuser=0&hl=tr&rclk=1",
    "website_url": "http://aridlanddevelopment.com/",
    "rating_text": "4,4",
    "stars": null,
    "number_of_reviews": null,
    "price_level": "",
    "open_hours": "",
    "extraction_timestamp": "2025-06-08T03:39:43.404Z",
    "source_name": "google",
    "source_query": "Irrigation Equipment",
    "source_country": "AE",
    "country": "United Arab Emirates",
    "state": "Abu Dhabi Emirate",
    "city": "Ar Ruways"
  },
  {
    "source_id": "ChIJAf9l8tVAXj4R9q7sqfMCVCI",
    "name": "Best Building Materials LLC",
    "category": "Best Building Materials LLC",
    "formatted_address": "4,5(30)",
    "phone_number": "+97125551433",
    "source_url": "https://www.google.com/maps/place/Best+Building+Materials+LLC/data=!4m7!3m6!1s0x3e5e40d5f265ff01:0x225402f3a9ecaef6!8m2!3d24.3739478!4d54.5176595!16s%2Fg%2F11bbwqtmxc!19sChIJAf9l8tVAXj4R9q7sqfMCVCI?authuser=0&hl=tr&rclk=1",
    "website_url": "",
    "rating_text": "4,5",
    "stars": null,
    "number_of_reviews": null,
    "price_level": "",
    "open_hours": "",
    "extraction_timestamp": "2025-06-08T03:39:43.405Z",
    "source_name": "google",
    "source_query": "Irrigation Equipment",
    "source_country": "AE",
    "country": "United Arab Emirates",
    "state": "Abu Dhabi Emirate",
    "city": "Ar Ruways"
  },
  {
    "source_id": "ChIJuRxpO41cXz4RzI5kXfp0B6U",
    "name": "Al Guffal trading",
    "category": "Al Guffal trading",
    "formatted_address": "4,6(47)",
    "phone_number": "+97142690005",
    "source_url": "https://www.google.com/maps/place/Al+Guffal+trading/data=!4m7!3m6!1s0x3e5f5c8d3b691cb9:0xa50774fa5d648ecc!8m2!3d25.2795483!4d55.3495073!16s%2Fg%2F11cffj4l7!19sChIJuRxpO41cXz4RzI5kXfp0B6U?authuser=0&hl=tr&rclk=1",
    "website_url": "http://www.alguffal.com/",
    "rating_text": "4,6",
    "stars": null,
    "number_of_reviews": null,
    "price_level": "",
    "open_hours": "",
    "extraction_timestamp": "2025-06-08T03:39:43.406Z",
    "source_name": "google",
    "source_query": "Irrigation Equipment",
    "source_country": "AE",
    "country": "United Arab Emirates",
    "state": "Abu Dhabi Emirate",
    "city": "Ar Ruways"
  },
  {
    "source_id": "ChIJAQAAAMm2ij4RtTyc1ivxesE",
    "name": "Al Ain Automatic Irrigation Company LLC",
    "category": "Al Ain Automatic Irrigation Company LLC",
    "formatted_address": "4,2(14)",
    "phone_number": "+97137229406",
    "source_url": "https://www.google.com/maps/place/Al+Ain+Automatic+Irrigation+Company+LLC/data=!4m7!3m6!1s0x3e8ab6c900000001:0xc17af12bd69c3cb5!8m2!3d24.1465315!4d55.8167626!16s%2Fg%2F11bbwnt88h!19sChIJAQAAAMm2ij4RtTyc1ivxesE?authuser=0&hl=tr&rclk=1",
    "website_url": "",
    "rating_text": "4,2",
    "stars": null,
    "number_of_reviews": null,
    "price_level": "",
    "open_hours": "",
    "extraction_timestamp": "2025-06-08T03:39:43.407Z",
    "source_name": "google",
    "source_query": "Irrigation Equipment",
    "source_country": "AE",
    "country": "United Arab Emirates",
    "state": "Abu Dhabi Emirate",
    "city": "Ar Ruways"
  },
  {
    "source_id": "ChIJr8earzFcXz4RoTCHHGUpGDY",
    "name": "ALAIN AUTOMATIC IRRIGATION Co.LLC",
    "category": "ALAIN AUTOMATIC IRRIGATION Co.LLC",
    "formatted_address": "4,8(8)",
    "phone_number": "+971565532888",
    "source_url": "https://www.google.com/maps/place/ALAIN+AUTOMATIC+IRRIGATION+Co.LLC/data=!4m7!3m6!1s0x3e5f5c31af9ac7af:0x361829651c8730a1!8m2!3d25.2753961!4d55.3902202!16s%2Fg%2F11c45_zf9q!19sChIJr8earzFcXz4RoTCHHGUpGDY?authuser=0&hl=tr&rclk=1",
    "website_url": "https://www.linkedin.com/company/al-ain-automatic-irrigation-co-llc/mycompany/",
    "rating_text": "4,8",
    "stars": null,
    "number_of_reviews": null,
    "price_level": "",
    "open_hours": "",
    "extraction_timestamp": "2025-06-08T03:39:43.408Z",
    "source_name": "google",
    "source_query": "Irrigation Equipment",
    "source_country": "AE",
    "country": "United Arab Emirates",
    "state": "Abu Dhabi Emirate",
    "city": "Ar Ruways"
  },
  {
    "source_id": "ChIJewdAXhtBXj4RkJKz63F31Pk",
    "name": "AlRuwais Electrical & Mechanical Equipment LLC- BASF Distributor- Musaffah Abu Dhabi",
    "category": "AlRuwais Electrical & Mechanical Equipment LLC- BASF Distributor- Musaffah Abu Dhabi",
    "formatted_address": "4,0(49)",
    "phone_number": "+97125545442",
    "source_url": "https://www.google.com/maps/place/AlRuwais+Electrical+%26+Mechanical+Equipment+LLC-+BASF+Distributor-+Musaffah+Abu+Dhabi/data=!4m7!3m6!1s0x3e5e411b5e40077b:0xf9d47771ebb39290!8m2!3d24.3729106!4d54.4902319!16s%2Fg%2F11c765hyhd!19sChIJewdAXhtBXj4RkJKz63F31Pk?authuser=0&hl=tr&rclk=1",
    "website_url": "http://www.alruwaisuae.com/",
    "rating_text": "4,0",
    "stars": null,
    "number_of_reviews": null,
    "price_level": "",
    "open_hours": "",
    "extraction_timestamp": "2025-06-08T03:39:43.409Z",
    "source_name": "google",
    "source_query": "Irrigation Equipment",
    "source_country": "AE",
    "country": "United Arab Emirates",
    "state": "Abu Dhabi Emirate",
    "city": "Ar Ruways"
  },
  {
    "source_id": "ChIJ-WMXwn9VXj4RIrz8M8tPBvk",
    "name": "Responsive Drip Irrigation Manufacturing Ltd.",
    "category": "Responsive Drip Irrigation Manufacturing Ltd.",
    "formatted_address": "Sulama Ekipmanları Tedarikçisi · KP-9, KLP FZ 13, KIZAD, Al Taweelah24 saat açık · +971 2 666 6156",
    "phone_number": "+97126666156",
    "source_url": "https://www.google.com/maps/place/Responsive+Drip+Irrigation+Manufacturing+Ltd./data=!4m7!3m6!1s0x3e5e557fc21763f9:0xf9064fcb33fcbc22!8m2!3d24.6828031!4d54.7432508!16s%2Fg%2F11t3gy_jjt!19sChIJ-WMXwn9VXj4RIrz8M8tPBvk?authuser=0&hl=tr&rclk=1",
    "website_url": "http://www.responsivedrip.com/",
    "rating_text": "",
    "stars": null,
    "number_of_reviews": null,
    "price_level": "",
    "open_hours": "",
    "extraction_timestamp": "2025-06-08T03:39:43.410Z",
    "source_name": "google",
    "source_query": "Irrigation Equipment",
    "source_country": "AE",
    "country": "United Arab Emirates",
    "state": "Abu Dhabi Emirate",
    "city": "Ar Ruways"
  },
  {
    "source_id": "ChIJw1FSD5I2XT4RjTo-7UdrFNg",
    "name": "Red Sand Building Material Trading L.L.C",
    "category": "Red Sand Building Material Trading L.L.C",
    "formatted_address": "4,6(31)",
    "phone_number": "+97128744444",
    "source_url": "https://www.google.com/maps/place/Red+Sand+Building+Material+Trading+L.L.C/data=!4m7!3m6!1s0x3e5d36920f5251c3:0xd8146b47ed3e3a8d!8m2!3d23.915185!4d52.805185!16s%2Fg%2F1jglz5018!19sChIJw1FSD5I2XT4RjTo-7UdrFNg?authuser=0&hl=tr&rclk=1",
    "website_url": "",
    "rating_text": "4,6",
    "stars": null,
    "number_of_reviews": null,
    "price_level": "",
    "open_hours": "",
    "extraction_timestamp": "2025-06-08T03:39:43.411Z",
    "source_name": "google",
    "source_query": "Irrigation Equipment",
    "source_country": "AE",
    "country": "United Arab Emirates",
    "state": "Abu Dhabi Emirate",
    "city": "Ar Ruways"
  },
  {
    "source_id": "ChIJU1TcSELUQj4RDJRLwFF0MuI",
    "name": "Abu Dhabi Market",
    "category": "Abu Dhabi Market",
    "formatted_address": "4,0(462)",
    "phone_number": "+97128775397",
    "source_url": "https://www.google.com/maps/place/Abu+Dhabi+Market/data=!4m7!3m6!1s0x3e42d44248dc5453:0xe2327451c04b940c!8m2!3d24.0843655!4d52.6456616!16s%2Fg%2F11bxf9kczy!19sChIJU1TcSELUQj4RDJRLwFF0MuI?authuser=0&hl=tr&rclk=1",
    "website_url": "",
    "rating_text": "4,0",
    "stars": null,
    "number_of_reviews": null,
    "price_level": "",
    "open_hours": "",
    "extraction_timestamp": "2025-06-08T03:39:43.412Z",
    "source_name": "google",
    "source_query": "Irrigation Equipment",
    "source_country": "AE",
    "country": "United Arab Emirates",
    "state": "Abu Dhabi Emirate",
    "city": "Ar Ruways"
  },
  {
    "source_id": "ChIJ0fNfkSZBXj4RWXpGSwFh7JA",
    "name": "Afreen Building Materials Trading Company LLC",
    "category": "Afreen Building Materials Trading Company LLC",
    "formatted_address": "4,3(85)",
    "phone_number": "+971526291730",
    "source_url": "https://www.google.com/maps/place/Afreen+Building+Materials+Trading+Company+LLC/data=!4m7!3m6!1s0x3e5e4126915ff3d1:0x90ec61014b467a59!8m2!3d24.3764101!4d54.5098654!16s%2Fg%2F11bbwm_01w!19sChIJ0fNfkSZBXj4RWXpGSwFh7JA?authuser=0&hl=tr&rclk=1",
    "website_url": "http://www.afreenuae.com/",
    "rating_text": "4,3",
    "stars": null,
    "number_of_reviews": null,
    "price_level": "",
    "open_hours": "",
    "extraction_timestamp": "2025-06-08T03:39:43.413Z",
    "source_name": "google",
    "source_query": "Irrigation Equipment",
    "source_country": "AE",
    "country": "United Arab Emirates",
    "state": "Abu Dhabi Emirate",
    "city": "Ar Ruways"
  },
  {
    "source_id": "ChIJoW6s2WBYXz4RxZrc0_56a3U",
    "name": "Green Glow General Trading LLC",
    "category": "Green Glow General Trading LLC",
    "formatted_address": "4,4(10)",
    "phone_number": "+971555093942",
    "source_url": "https://www.google.com/maps/place/Green+Glow+General+Trading+LLC/data=!4m7!3m6!1s0x3e5f5860d9ac6ea1:0x756b7afed3dc9ac5!8m2!3d25.249007!4d55.5299861!16s%2Fg%2F11f03q0cky!19sChIJoW6s2WBYXz4RxZrc0_56a3U?authuser=0&hl=tr&rclk=1",
    "website_url": "https://www.greenglow.ae/",
    "rating_text": "4,4",
    "stars": null,
    "number_of_reviews": null,
    "price_level": "",
    "open_hours": "",
    "extraction_timestamp": "2025-06-08T03:39:43.414Z",
    "source_name": "google",
    "source_query": "Irrigation Equipment",
    "source_country": "AE",
    "country": "United Arab Emirates",
    "state": "Abu Dhabi Emirate",
    "city": "Ar Ruways"
  },
  {
    "source_id": "ChIJT3YLBMhnXj4RlIlzDEKaRJ8",
    "name": "PowerTek General Trading",
    "category": "PowerTek General Trading",
    "formatted_address": "4,7(23)",
    "phone_number": "+97125656481",
    "source_url": "https://www.google.com/maps/place/PowerTek+General+Trading/data=!4m7!3m6!1s0x3e5e67c8040b764f:0x9f449a420c738994!8m2!3d24.4887757!4d54.3719499!16s%2Fg%2F11q3qsc4yb!19sChIJT3YLBMhnXj4RlIlzDEKaRJ8?authuser=0&hl=tr&rclk=1",
    "website_url": "http://www.powertekgcc.com/",
    "rating_text": "4,7",
    "stars": null,
    "number_of_reviews": null,
    "price_level": "",
    "open_hours": "",
    "extraction_timestamp": "2025-06-08T03:39:43.415Z",
    "source_name": "google",
    "source_query": "Irrigation Equipment",
    "source_country": "AE",
    "country": "United Arab Emirates",
    "state": "Abu Dhabi Emirate",
    "city": "Ar Ruways"
  },
  {
    "source_id": "ChIJq5_g2HZmXj4R9w7od4CdWUc",
    "name": "Al Ain Automatic Irrigation Co",
    "category": "Al Ain Automatic Irrigation Co",
    "formatted_address": "5,0(1)",
    "phone_number": "+97126343484",
    "source_url": "https://www.google.com/maps/place/Al+Ain+Automatic+Irrigation+Co/data=!4m7!3m6!1s0x3e5e6676d8e09fab:0x47599d8077e80ef7!8m2!3d24.4816355!4d54.3512422!16s%2Fg%2F11bbwxlyml!19sChIJq5_g2HZmXj4R9w7od4CdWUc?authuser=0&hl=tr&rclk=1",
    "website_url": "",
    "rating_text": "5,0",
    "stars": null,
    "number_of_reviews": null,
    "price_level": "",
    "open_hours": "",
    "extraction_timestamp": "2025-06-08T03:39:43.415Z",
    "source_name": "google",
    "source_query": "Irrigation Equipment",
    "source_country": "AE",
    "country": "United Arab Emirates",
    "state": "Abu Dhabi Emirate",
    "city": "Ar Ruways"
  },
  {
    "source_id": "ChIJqw8RodVAXj4R03YPyNQGKy0",
    "name": "GREEEN VIEW IRRIGATION EQUIPMENT TRADING",
    "category": "GREEEN VIEW IRRIGATION EQUIPMENT TRADING",
    "formatted_address": "3,7(3)",
    "phone_number": "+971507659675",
    "source_url": "https://www.google.com/maps/place/GREEEN+VIEW+IRRIGATION+EQUIPMENT+TRADING/data=!4m7!3m6!1s0x3e5e40d5a1110fab:0x2d2b06d4c80f76d3!8m2!3d24.3739849!4d54.5189073!16s%2Fg%2F11dxb11w9k!19sChIJqw8RodVAXj4R03YPyNQGKy0?authuser=0&hl=tr&rclk=1",
    "website_url": "http://greenview.com/",
    "rating_text": "3,7",
    "stars": null,
    "number_of_reviews": null,
    "price_level": "",
    "open_hours": "",
    "extraction_timestamp": "2025-06-08T03:39:43.416Z",
    "source_name": "google",
    "source_query": "Irrigation Equipment",
    "source_country": "AE",
    "country": "United Arab Emirates",
    "state": "Abu Dhabi Emirate",
    "city": "Ar Ruways"
  },
  {
    "source_id": "ChIJo-CFHsENXz4Rf_cEPUSnrd0",
    "name": "Valmont Middle East FZE",
    "category": "Valmont Middle East FZE",
    "formatted_address": "4,5(109)",
    "phone_number": "+97148839740",
    "source_url": "https://www.google.com/maps/place/Valmont+Middle+East+FZE/data=!4m7!3m6!1s0x3e5f0dc11e85e0a3:0xddada7443d04f77f!8m2!3d24.9518149!4d55.0684386!16s%2Fg%2F11bbwn9mz5!19sChIJo-CFHsENXz4Rf_cEPUSnrd0?authuser=0&hl=tr&rclk=1",
    "website_url": "http://www.valmont.com/",
    "rating_text": "4,5",
    "stars": null,
    "number_of_reviews": null,
    "price_level": "",
    "open_hours": "",
    "extraction_timestamp": "2025-06-08T03:39:43.417Z",
    "source_name": "google",
    "source_query": "Irrigation Equipment",
    "source_country": "AE",
    "country": "United Arab Emirates",
    "state": "Abu Dhabi Emirate",
    "city": "Ar Ruways"
  },
  {
    "source_id": "ChIJSTNlpIljXz4RrEF47I3-Lyg",
    "name": "Zawa ( Zahra al Warsan agriculture mat. Trdg LLC)",
    "category": "Zawa ( Zahra al Warsan agriculture mat. Trdg LLC)",
    "formatted_address": "4,7(23)",
    "phone_number": "+971522810745",
    "source_url": "https://www.google.com/maps/place/Zawa+%28+Zahra+al+Warsan+agriculture+mat.+Trdg+LLC%29/data=!4m7!3m6!1s0x3e5f6389a4653349:0x282ffe8dec7841ac!8m2!3d25.1536493!4d55.4592867!16s%2Fg%2F11jpx_5v0l!19sChIJSTNlpIljXz4RrEF47I3-Lyg?authuser=0&hl=tr&rclk=1",
    "website_url": "",
    "rating_text": "4,7",
    "stars": null,
    "number_of_reviews": null,
    "price_level": "",
    "open_hours": "",
    "extraction_timestamp": "2025-06-08T03:39:43.418Z",
    "source_name": "google",
    "source_query": "Irrigation Equipment",
    "source_country": "AE",
    "country": "United Arab Emirates",
    "state": "Abu Dhabi Emirate",
    "city": "Ar Ruways"
  },
  {
    "source_id": "ChIJBcyUUClmXj4RO8UpA0kA8NQ",
    "name": "Al Dhafra Irrigation Systems LLC",
    "category": "Al Dhafra Irrigation Systems LLC",
    "formatted_address": "3,4(12)",
    "phone_number": "+201028404341",
    "source_url": "https://www.google.com/maps/place/Al+Dhafra+Irrigation+Systems+LLC/data=!4m7!3m6!1s0x3e5e66295094cc05:0xd4f000490329c53b!8m2!3d24.4672158!4d54.3845563!16s%2Fg%2F11b6rw84gn!19sChIJBcyUUClmXj4RO8UpA0kA8NQ?authuser=0&hl=tr&rclk=1",
    "website_url": "",
    "rating_text": "3,4",
    "stars": null,
    "number_of_reviews": null,
    "price_level": "",
    "open_hours": "",
    "extraction_timestamp": "2025-06-08T03:39:43.419Z",
    "source_name": "google",
    "source_query": "Irrigation Equipment",
    "source_country": "AE",
    "country": "United Arab Emirates",
    "state": "Abu Dhabi Emirate",
    "city": "Ar Ruways"
  },
  {
    "source_id": "ChIJT1q8GRs_Xj4R0h3I4o8-_K0",
    "name": "AL Ruwais Industrial Gases Co. LLC",
    "category": "AL Ruwais Industrial Gases Co. LLC",
    "formatted_address": "4,0(31)",
    "phone_number": "+97125553809",
    "source_url": "https://www.google.com/maps/place/AL+Ruwais+Industrial+Gases+Co.+LLC/data=!4m7!3m6!1s0x3e5e3f1b19bc5a4f:0xadfc3e8fe2c81dd2!8m2!3d24.2924266!4d54.490602!16s%2Fg%2F11bw2_g33_!19sChIJT1q8GRs_Xj4R0h3I4o8-_K0?authuser=0&hl=tr&rclk=1",
    "website_url": "",
    "rating_text": "4,0",
    "stars": null,
    "number_of_reviews": null,
    "price_level": "",
    "open_hours": "",
    "extraction_timestamp": "2025-06-08T03:39:43.420Z",
    "source_name": "google",
    "source_query": "Irrigation Equipment",
    "source_country": "AE",
    "country": "United Arab Emirates",
    "state": "Abu Dhabi Emirate",
    "city": "Ar Ruways"
  },
  {
    "source_id": "ChIJH8i6quBeXz4RWLMbR-u5AAg",
    "name": "Irrifarm Irrigation Equipment Tr",
    "category": "Irrifarm Irrigation Equipment Tr",
    "formatted_address": "3,7(6)",
    "phone_number": "+97165345626",
    "source_url": "https://www.google.com/maps/place/Irrifarm+Irrigation+Equipment+Tr/data=!4m7!3m6!1s0x3e5f5ee0aabac81f:0x800b9eb471bb358!8m2!3d25.303241!4d55.4415501!16s%2Fg%2F11g6jq3n25!19sChIJH8i6quBeXz4RWLMbR-u5AAg?authuser=0&hl=tr&rclk=1",
    "website_url": "",
    "rating_text": "3,7",
    "stars": null,
    "number_of_reviews": null,
    "price_level": "",
    "open_hours": "",
    "extraction_timestamp": "2025-06-08T03:39:43.420Z",
    "source_name": "google",
    "source_query": "Irrigation Equipment",
    "source_country": "AE",
    "country": "United Arab Emirates",
    "state": "Abu Dhabi Emirate",
    "city": "Ar Ruways"
  },
  {
    "source_id": "ChIJky02QBZJXj4RQzaq9GgSRkc",
    "name": "BASSAL",
    "category": "BASSAL",
    "formatted_address": "",
    "phone_number": "+971552156308",
    "source_url": "https://www.google.com/maps/place/BASSAL/data=!4m7!3m6!1s0x3e5e491640362d93:0x47461268f4aa3643!8m2!3d24.433394!4d54.6185624!16s%2Fg%2F11qs7v8z_m!19sChIJky02QBZJXj4RQzaq9GgSRkc?authuser=0&hl=tr&rclk=1",
    "website_url": "http://bassalgroup.com/",
    "rating_text": "",
    "stars": null,
    "number_of_reviews": null,
    "price_level": "",
    "open_hours": "",
    "extraction_timestamp": "2025-06-08T03:39:43.421Z",
    "source_name": "google",
    "source_query": "Irrigation Equipment",
    "source_country": "AE",
    "country": "United Arab Emirates",
    "state": "Abu Dhabi Emirate",
    "city": "Ar Ruways"
  },
  {
    "source_id": "ChIJH-FnijRDXz4R7YCIQcMEkfM",
    "name": "Fitco Industries (London) Limited",
    "category": "Fitco Industries (London) Limited",
    "formatted_address": "5,0(5)",
    "phone_number": "+97142221217",
    "source_url": "https://www.google.com/maps/place/Fitco+Industries+%28London%29+Limited/data=!4m7!3m6!1s0x3e5f43348a67e11f:0xf39104c3418880ed!8m2!3d25.1780672!4d55.2749153!16s%2Fg%2F1hcb0mmb6!19sChIJH-FnijRDXz4R7YCIQcMEkfM?authuser=0&hl=tr&rclk=1",
    "website_url": "http://www.fitcoirrigation.com/",
    "rating_text": "5,0",
    "stars": null,
    "number_of_reviews": null,
    "price_level": "",
    "open_hours": "",
    "extraction_timestamp": "2025-06-08T03:39:43.422Z",
    "source_name": "google",
    "source_query": "Irrigation Equipment",
    "source_country": "AE",
    "country": "United Arab Emirates",
    "state": "Abu Dhabi Emirate",
    "city": "Ar Ruways"
  },
  {
    "source_id": "ChIJezWAYoVBXj4Rl-PF7KCA4Mg",
    "name": "HYDRO SANITARY WARE TRADING",
    "category": "HYDRO SANITARY WARE TRADING",
    "formatted_address": "4,0(54)",
    "phone_number": "+97125548562",
    "source_url": "https://www.google.com/maps/place/HYDRO+SANITARY+WARE+TRADING/data=!4m7!3m6!1s0x3e5e41856280357b:0xc8e080a0ecc5e397!8m2!3d24.3763081!4d54.5076313!16s%2Fg%2F11ghzvc0vt!19sChIJezWAYoVBXj4Rl-PF7KCA4Mg?authuser=0&hl=tr&rclk=1",
    "website_url": "http://www.hydrosanitary.com/",
    "rating_text": "4,0",
    "stars": null,
    "number_of_reviews": null,
    "price_level": "",
    "open_hours": "",
    "extraction_timestamp": "2025-06-08T03:39:43.423Z",
    "source_name": "google",
    "source_query": "Irrigation Equipment",
    "source_country": "AE",
    "country": "United Arab Emirates",
    "state": "Abu Dhabi Emirate",
    "city": "Ar Ruways"
  },
  {
    "source_id": "ChIJAS8OI0ZBXj4R60mJ4O-TiQI",
    "name": "Satkhira Electrical & Sanitary Trading (Electrical Materials Supplier- Plumbing Materials Supplier- Building Materials)",
    "category": "Satkhira Electrical & Sanitary Trading (Electrical Materials Supplier- Plumbing Materials Supplier- Building Materials)",
    "formatted_address": "4,2(16)",
    "phone_number": "+971505025371",
    "source_url": "https://www.google.com/maps/place/Satkhira+Electrical+%26+Sanitary+Trading+%28Electrical+Materials+Supplier-+Plumbing+Materials+Supplier-+Building+Materials%29/data=!4m7!3m6!1s0x3e5e4146230e2f01:0x28993efe08949eb!8m2!3d24.3700386!4d54.5166391!16s%2Fg%2F11p4z96wmg!19sChIJAS8OI0ZBXj4R60mJ4O-TiQI?authuser=0&hl=tr&rclk=1",
    "website_url": "https://satkhirauae.com/",
    "rating_text": "4,2",
    "stars": null,
    "number_of_reviews": null,
    "price_level": "",
    "open_hours": "",
    "extraction_timestamp": "2025-06-08T03:39:43.424Z",
    "source_name": "google",
    "source_query": "Irrigation Equipment",
    "source_country": "AE",
    "country": "United Arab Emirates",
    "state": "Abu Dhabi Emirate",
    "city": "Ar Ruways"
  },
  {
    "source_id": "ChIJ6SHL2CVBXj4RUhvYeAEtzOg",
    "name": "Atiq Al Dhaheri & Co. LLC",
    "category": "Atiq Al Dhaheri & Co. LLC",
    "formatted_address": "4,6(32)",
    "phone_number": "+97125540676",
    "source_url": "https://www.google.com/maps/place/Atiq+Al+Dhaheri+%26+Co.+LLC/data=!4m7!3m6!1s0x3e5e4125d8cb21e9:0xe8cc2d0178d81b52!8m2!3d24.3491436!4d54.4802628!16s%2Fg%2F12lldgw9z!19sChIJ6SHL2CVBXj4RUhvYeAEtzOg?authuser=0&hl=tr&rclk=1",
    "website_url": "http://www.aadtra.com/",
    "rating_text": "4,6",
    "stars": null,
    "number_of_reviews": null,
    "price_level": "",
    "open_hours": "",
    "extraction_timestamp": "2025-06-08T03:39:43.425Z",
    "source_name": "google",
    "source_query": "Irrigation Equipment",
    "source_country": "AE",
    "country": "United Arab Emirates",
    "state": "Abu Dhabi Emirate",
    "city": "Ar Ruways"
  },
  {
    "source_id": "ChIJQd87GupmXj4ROfsVwe_dIks",
    "name": "ACE",
    "category": "ACE",
    "formatted_address": "4,0(1.174)",
    "phone_number": "+971800275223",
    "source_url": "https://www.google.com/maps/place/ACE/data=!4m7!3m6!1s0x3e5e66ea1a3bdf41:0x4b22ddefc115fb39!8m2!3d24.520483!4d54.373604!16s%2Fg%2F11rrzd4p7!19sChIJQd87GupmXj4ROfsVwe_dIks?authuser=0&hl=tr&rclk=1",
    "website_url": "https://www.aceuae.com/en-ae/",
    "rating_text": "4,0",
    "stars": null,
    "number_of_reviews": null,
    "price_level": "",
    "open_hours": "",
    "extraction_timestamp": "2025-06-08T03:39:43.426Z",
    "source_name": "google",
    "source_query": "Irrigation Equipment",
    "source_country": "AE",
    "country": "United Arab Emirates",
    "state": "Abu Dhabi Emirate",
    "city": "Ar Ruways"
  },
  {
    "source_id": "ChIJp-WTbLFAXj4RwozVnEVqfXA",
    "name": "Al Akramain Agricultural Co LLC",
    "category": "Al Akramain Agricultural Co LLC",
    "formatted_address": "5,0(4)",
    "phone_number": "+97125503666",
    "source_url": "https://www.google.com/maps/place/Al+Akramain+Agricultural+Co+LLC/data=!4m7!3m6!1s0x3e5e40b16c93e5a7:0x707d6a459cd58cc2!8m2!3d24.3760233!4d54.519999!16s%2Fg%2F11b679x4bg!19sChIJp-WTbLFAXj4RwozVnEVqfXA?authuser=0&hl=tr&rclk=1",
    "website_url": "",
    "rating_text": "5,0",
    "stars": null,
    "number_of_reviews": null,
    "price_level": "",
    "open_hours": "",
    "extraction_timestamp": "2025-06-08T03:39:43.427Z",
    "source_name": "google",
    "source_query": "Irrigation Equipment",
    "source_country": "AE",
    "country": "United Arab Emirates",
    "state": "Abu Dhabi Emirate",
    "city": "Ar Ruways"
  },
  {
    "source_id": "ChIJ-fLh6shAXj4Rv9OrlIj5tog",
    "name": "Alhowar Contracting & Irrigation Establishment",
    "category": "Alhowar Contracting & Irrigation Establishment",
    "formatted_address": "5,0(1)",
    "phone_number": "+97126747708",
    "source_url": "https://www.google.com/maps/place/Alhowar+Contracting+%26+Irrigation+Establishment/data=!4m7!3m6!1s0x3e5e40c8eae1f2f9:0x88b6f98894abd3bf!8m2!3d24.3565667!4d54.5123271!16s%2Fg%2F11bbwpk4jl!19sChIJ-fLh6shAXj4Rv9OrlIj5tog?authuser=0&hl=tr&rclk=1",
    "website_url": "",
    "rating_text": "5,0",
    "stars": null,
    "number_of_reviews": null,
    "price_level": "",
    "open_hours": "",
    "extraction_timestamp": "2025-06-08T03:39:43.428Z",
    "source_name": "google",
    "source_query": "Irrigation Equipment",
    "source_country": "AE",
    "country": "United Arab Emirates",
    "state": "Abu Dhabi Emirate",
    "city": "Ar Ruways"
  },
  {
    "source_id": "ChIJ23t0ddprXz4R8uWFaaawMJ0",
    "name": "Desert delight Irrigation and Pool Equipments Trading LLC",
    "category": "Desert delight Irrigation and Pool Equipments Trading LLC",
    "formatted_address": "Sulama Ekipmanları Tedarikçisi · Near 2 27th StKapalı ⋅ Açılış zamanı: Pzt 07:30 · +971 55 927 2784",
    "phone_number": "+971559272784",
    "source_url": "https://www.google.com/maps/place/Desert+delight+Irrigation+and+Pool+Equipments+Trading+LLC/data=!4m7!3m6!1s0x3e5f6bda75747bdb:0x9d30b0a66985e5f2!8m2!3d25.1144602!4d55.2229771!16s%2Fg%2F11vrrqr0pg!19sChIJ23t0ddprXz4R8uWFaaawMJ0?authuser=0&hl=tr&rclk=1",
    "website_url": "",
    "rating_text": "",
    "stars": null,
    "number_of_reviews": null,
    "price_level": "",
    "open_hours": "",
    "extraction_timestamp": "2025-06-08T03:39:43.429Z",
    "source_name": "google",
    "source_query": "Irrigation Equipment",
    "source_country": "AE",
    "country": "United Arab Emirates",
    "state": "Abu Dhabi Emirate",
    "city": "Ar Ruways"
  },
  {
    "source_id": "ChIJ_6pnRTBlXj4RyxgZdhJjeqI",
    "name": "Silver Coast International for General Trading",
    "category": "Silver Coast International for General Trading",
    "formatted_address": "",
    "phone_number": "+97124442202",
    "source_url": "https://www.google.com/maps/place/Silver+Coast+International+for+General+Trading/data=!4m7!3m6!1s0x3e5e65304567aaff:0xa27a6312761918cb!8m2!3d24.4585837!4d54.3223244!16s%2Fg%2F11rv9yyhyj!19sChIJ_6pnRTBlXj4RyxgZdhJjeqI?authuser=0&hl=tr&rclk=1",
    "website_url": "http://www.scigt.ae/",
    "rating_text": "",
    "stars": null,
    "number_of_reviews": null,
    "price_level": "",
    "open_hours": "",
    "extraction_timestamp": "2025-06-08T03:39:43.429Z",
    "source_name": "google",
    "source_query": "Irrigation Equipment",
    "source_country": "AE",
    "country": "United Arab Emirates",
    "state": "Abu Dhabi Emirate",
    "city": "Ar Ruways"
  },
  {
    "source_id": "ChIJK0YMYJNAXj4RVG7Xr5HJWI8",
    "name": "Al Ryum Group Of Companies",
    "category": "Al Ryum Group Of Companies",
    "formatted_address": "4,4(178)",
    "phone_number": "+97126328960",
    "source_url": "https://www.google.com/maps/place/Al+Ryum+Group+Of+Companies/data=!4m7!3m6!1s0x3e5e4093600c462b:0x8f58c991afd76e54!8m2!3d24.3582473!4d54.4882888!16s%2Fg%2F1hm51xq_x!19sChIJK0YMYJNAXj4RVG7Xr5HJWI8?authuser=0&hl=tr&rclk=1",
    "website_url": "http://www.alryum.com/",
    "rating_text": "4,4",
    "stars": null,
    "number_of_reviews": null,
    "price_level": "",
    "open_hours": "",
    "extraction_timestamp": "2025-06-08T03:39:43.430Z",
    "source_name": "google",
    "source_query": "Irrigation Equipment",
    "source_country": "AE",
    "country": "United Arab Emirates",
    "state": "Abu Dhabi Emirate",
    "city": "Ar Ruways"
  },
  {
    "source_id": "ChIJO1H3GevB9T4RnAth3iBt3XY",
    "name": "Al Falaj Gardens",
    "category": "Al Falaj Gardens",
    "formatted_address": "4,8(115)",
    "phone_number": "+971581101177",
    "source_url": "https://www.google.com/maps/place/Al+Falaj+Gardens/data=!4m7!3m6!1s0x3ef5c1eb19f7513b:0x76dd6d20de610b9c!8m2!3d25.3714962!4d55.8543167!16s%2Fg%2F11qpjdqyy0!19sChIJO1H3GevB9T4RnAth3iBt3XY?authuser=0&hl=tr&rclk=1",
    "website_url": "http://www.falajgarden.com/",
    "rating_text": "4,8",
    "stars": null,
    "number_of_reviews": null,
    "price_level": "",
    "open_hours": "",
    "extraction_timestamp": "2025-06-08T03:39:43.431Z",
    "source_name": "google",
    "source_query": "Irrigation Equipment",
    "source_country": "AE",
    "country": "United Arab Emirates",
    "state": "Abu Dhabi Emirate",
    "city": "Ar Ruways"
  },
  {
    "source_id": "ChIJs100i1tmXj4RiNuVCKxWQA0",
    "name": "SYSTEMS EQUIPMENT",
    "category": "SYSTEMS EQUIPMENT",
    "formatted_address": "5,0(3)",
    "phone_number": "+97126741296",
    "source_url": "https://www.google.com/maps/place/SYSTEMS+EQUIPMENT/data=!4m7!3m6!1s0x3e5e665b8b345db3:0xd4056ac0895db88!8m2!3d24.4912439!4d54.3712766!16s%2Fg%2F11dx8m5pz5!19sChIJs100i1tmXj4RiNuVCKxWQA0?authuser=0&hl=tr&rclk=1",
    "website_url": "http://www.sysquip.ae/",
    "rating_text": "5,0",
    "stars": null,
    "number_of_reviews": null,
    "price_level": "",
    "open_hours": "",
    "extraction_timestamp": "2025-06-08T03:39:43.432Z",
    "source_name": "google",
    "source_query": "Irrigation Equipment",
    "source_country": "AE",
    "country": "United Arab Emirates",
    "state": "Abu Dhabi Emirate",
    "city": "Ar Ruways"
  },
  {
    "source_id": "ChIJaTX-U2ozXT4RWTAux0g-DKo",
    "name": "SAHARA EMIRATES TRADING AND CONTRACTING LLC WAREHOUSE",
    "category": "SAHARA EMIRATES TRADING AND CONTRACTING LLC WAREHOUSE",
    "formatted_address": "5,0(1)",
    "phone_number": "+971501832577",
    "source_url": "https://www.google.com/maps/place/SAHARA+EMIRATES+TRADING+AND+CONTRACTING+LLC+WAREHOUSE/data=!4m7!3m6!1s0x3e5d336a53fe3569:0xaa0c3e48c72e3059!8m2!3d24.0113015!4d52.7662343!16s%2Fg%2F11lnws6ndd!19sChIJaTX-U2ozXT4RWTAux0g-DKo?authuser=0&hl=tr&rclk=1",
    "website_url": "http://saharame.com/",
    "rating_text": "5,0",
    "stars": null,
    "number_of_reviews": null,
    "price_level": "",
    "open_hours": "",
    "extraction_timestamp": "2025-06-08T03:39:43.432Z",
    "source_name": "google",
    "source_query": "Irrigation Equipment",
    "source_country": "AE",
    "country": "United Arab Emirates",
    "state": "Abu Dhabi Emirate",
    "city": "Ar Ruways"
  }
]
