[
  {
    "source_id": "ChIJTQdn7NVAXj4R-zpzOVb8-tg",
    "name": "Trees & Leaves Irrigation LLC- SPC",
    "category": "Trees & Leaves Irrigation LLC- SPC",
    "formatted_address": "4,3(41)",
    "phone_number": "+97125545641",
    "source_url": "https://www.google.com/maps/place/Trees+%26+Leaves+Irrigation+LLC-+SPC/data=!4m7!3m6!1s0x3e5e40d5ec67074d:0xd8fafc5639733afb!8m2!3d24.3739558!4d54.5175733!16s%2Fg%2F11bbwq9vl5!19sChIJTQdn7NVAXj4R-zpzOVb8-tg?authuser=0&hl=tr&rclk=1",
    "website_url": "",
    "rating_text": "4,3",
    "stars": null,
    "number_of_reviews": null,
    "price_level": "",
    "open_hours": "",
    "extraction_timestamp": "2025-06-08T03:41:12.697Z",
    "source_name": "google",
    "source_query": "Irrigation Equipment",
    "source_country": "AE",
    "country": "United Arab Emirates",
    "state": "Abu Dhabi Emirate",
    "city": "Khalifah A City"
  },
  {
    "source_id": "ChIJ71Pv9daqXz4RAIMmNxQbAlw",
    "name": "32- Irrigation station Al Smeih Dewatering",
    "category": "32- Irrigation station Al Smeih Dewatering",
    "formatted_address": "32- Irrigation station Al Smeih Dewatering",
    "phone_number": "",
    "source_url": "https://www.google.com/maps/place/32-+Irrigation+station+Al+Smeih+Dewatering/data=!4m7!3m6!1s0x3e5faad6f5ef53ef:0x5c021b1437268300!8m2!3d24.6983701!4d54.7923014!16s%2Fg%2F1hg4vccvd!19sChIJ71Pv9daqXz4RAIMmNxQbAlw?authuser=0&hl=tr&rclk=1",
    "website_url": "",
    "rating_text": "5,0",
    "stars": null,
    "number_of_reviews": null,
    "price_level": "",
    "open_hours": "",
    "extraction_timestamp": "2025-06-08T03:41:12.698Z",
    "source_name": "google",
    "source_query": "Irrigation Equipment",
    "source_country": "AE",
    "country": "United Arab Emirates",
    "state": "Abu Dhabi Emirate",
    "city": "Khalifah A City"
  },
  {
    "source_id": "ChIJT9TqRthnXj4RiXLocAmUP-0",
    "name": "ARID LAND DEVELOPMENT CO.L.L.C - MAIN OFFICE",
    "category": "ARID LAND DEVELOPMENT CO.L.L.C - MAIN OFFICE",
    "formatted_address": "4,4(18)",
    "phone_number": "+97126319244",
    "source_url": "https://www.google.com/maps/place/ARID+LAND+DEVELOPMENT+CO.L.L.C+-+MAIN+OFFICE/data=!4m7!3m6!1s0x3e5e67d846ead44f:0xed3f940970e87289!8m2!3d24.4712728!4d54.3690496!16s%2Fg%2F1pp2tl7hl!19sChIJT9TqRthnXj4RiXLocAmUP-0?authuser=0&hl=tr&rclk=1",
    "website_url": "http://aridlanddevelopment.com/",
    "rating_text": "4,4",
    "stars": null,
    "number_of_reviews": null,
    "price_level": "",
    "open_hours": "",
    "extraction_timestamp": "2025-06-08T03:41:12.699Z",
    "source_name": "google",
    "source_query": "Irrigation Equipment",
    "source_country": "AE",
    "country": "United Arab Emirates",
    "state": "Abu Dhabi Emirate",
    "city": "Khalifah A City"
  },
  {
    "source_id": "ChIJh1iisdU_Xj4RNS4SUl3E46c",
    "name": "United Irrigation Technologies",
    "category": "United Irrigation Technologies",
    "formatted_address": "5,0(10)",
    "phone_number": "+971502347958",
    "source_url": "https://www.google.com/maps/place/United+Irrigation+Technologies/data=!4m7!3m6!1s0x3e5e3fd5b1a25887:0xa7e3c45d52122e35!8m2!3d24.3069375!4d54.4941875!16s%2Fg%2F11y5q5dtv0!19sChIJh1iisdU_Xj4RNS4SUl3E46c?authuser=0&hl=tr&rclk=1",
    "website_url": "https://www.uitpipes.ae/",
    "rating_text": "5,0",
    "stars": null,
    "number_of_reviews": null,
    "price_level": "",
    "open_hours": "",
    "extraction_timestamp": "2025-06-08T03:41:12.699Z",
    "source_name": "google",
    "source_query": "Irrigation Equipment",
    "source_country": "AE",
    "country": "United Arab Emirates",
    "state": "Abu Dhabi Emirate",
    "city": "Khalifah A City"
  },
  {
    "source_id": "ChIJAf9l8tVAXj4R9q7sqfMCVCI",
    "name": "Best Building Materials LLC",
    "category": "Best Building Materials LLC",
    "formatted_address": "4,5(30)",
    "phone_number": "+97125551433",
    "source_url": "https://www.google.com/maps/place/Best+Building+Materials+LLC/data=!4m7!3m6!1s0x3e5e40d5f265ff01:0x225402f3a9ecaef6!8m2!3d24.3739478!4d54.5176595!16s%2Fg%2F11bbwqtmxc!19sChIJAf9l8tVAXj4R9q7sqfMCVCI?authuser=0&hl=tr&rclk=1",
    "website_url": "",
    "rating_text": "4,5",
    "stars": null,
    "number_of_reviews": null,
    "price_level": "",
    "open_hours": "",
    "extraction_timestamp": "2025-06-08T03:41:12.700Z",
    "source_name": "google",
    "source_query": "Irrigation Equipment",
    "source_country": "AE",
    "country": "United Arab Emirates",
    "state": "Abu Dhabi Emirate",
    "city": "Khalifah A City"
  },
  {
    "source_id": "ChIJeVGIbcGqXz4Rj64Unb0EWHE",
    "name": "31- AlSmeih Irrigation Station",
    "category": "31- AlSmeih Irrigation Station",
    "formatted_address": "31- AlSmeih Irrigation Station",
    "phone_number": "",
    "source_url": "https://www.google.com/maps/place/31-+AlSmeih+Irrigation+Station/data=!4m7!3m6!1s0x3e5faac16d885179:0x715804bd9d14ae8f!8m2!3d24.7153279!4d54.8037227!16s%2Fg%2F1hg4s3xlz!19sChIJeVGIbcGqXz4Rj64Unb0EWHE?authuser=0&hl=tr&rclk=1",
    "website_url": "",
    "rating_text": "4,0",
    "stars": null,
    "number_of_reviews": null,
    "price_level": "",
    "open_hours": "",
    "extraction_timestamp": "2025-06-08T03:41:12.701Z",
    "source_name": "google",
    "source_query": "Irrigation Equipment",
    "source_country": "AE",
    "country": "United Arab Emirates",
    "state": "Abu Dhabi Emirate",
    "city": "Khalifah A City"
  },
  {
    "source_id": "ChIJ9UIQQpNnXj4RJjvD8StTChk",
    "name": "Arid Land Development Showroom",
    "category": "Arid Land Development Showroom",
    "formatted_address": "4,8(4)",
    "phone_number": "+97126333565",
    "source_url": "https://www.google.com/maps/place/Arid+Land+Development+Showroom/data=!4m7!3m6!1s0x3e5e6793421042f5:0x190a532bf1c33b26!8m2!3d24.482116!4d54.3764228!16s%2Fg%2F11fmgzd92q!19sChIJ9UIQQpNnXj4RJjvD8StTChk?authuser=0&hl=tr&rclk=1",
    "website_url": "http://www.aridlanddevelopment.com/",
    "rating_text": "4,8",
    "stars": null,
    "number_of_reviews": null,
    "price_level": "",
    "open_hours": "",
    "extraction_timestamp": "2025-06-08T03:41:12.702Z",
    "source_name": "google",
    "source_query": "Irrigation Equipment",
    "source_country": "AE",
    "country": "United Arab Emirates",
    "state": "Abu Dhabi Emirate",
    "city": "Khalifah A City"
  },
  {
    "source_id": "ChIJ-WMXwn9VXj4RIrz8M8tPBvk",
    "name": "Responsive Drip Irrigation Manufacturing Ltd.",
    "category": "Responsive Drip Irrigation Manufacturing Ltd.",
    "formatted_address": "Sulama Ekipmanları Tedarikçisi · KP-9, KLP FZ 13, KIZAD, Al Taweelah24 saat açık · +971 2 666 6156",
    "phone_number": "+97126666156",
    "source_url": "https://www.google.com/maps/place/Responsive+Drip+Irrigation+Manufacturing+Ltd./data=!4m7!3m6!1s0x3e5e557fc21763f9:0xf9064fcb33fcbc22!8m2!3d24.6828031!4d54.7432508!16s%2Fg%2F11t3gy_jjt!19sChIJ-WMXwn9VXj4RIrz8M8tPBvk?authuser=0&hl=tr&rclk=1",
    "website_url": "http://www.responsivedrip.com/",
    "rating_text": "",
    "stars": null,
    "number_of_reviews": null,
    "price_level": "",
    "open_hours": "",
    "extraction_timestamp": "2025-06-08T03:41:12.703Z",
    "source_name": "google",
    "source_query": "Irrigation Equipment",
    "source_country": "AE",
    "country": "United Arab Emirates",
    "state": "Abu Dhabi Emirate",
    "city": "Khalifah A City"
  },
  {
    "source_id": "ChIJ0fNfkSZBXj4RWXpGSwFh7JA",
    "name": "Afreen Building Materials Trading Company LLC",
    "category": "Afreen Building Materials Trading Company LLC",
    "formatted_address": "4,3(85)",
    "phone_number": "+971526291730",
    "source_url": "https://www.google.com/maps/place/Afreen+Building+Materials+Trading+Company+LLC/data=!4m7!3m6!1s0x3e5e4126915ff3d1:0x90ec61014b467a59!8m2!3d24.3764101!4d54.5098654!16s%2Fg%2F11bbwm_01w!19sChIJ0fNfkSZBXj4RWXpGSwFh7JA?authuser=0&hl=tr&rclk=1",
    "website_url": "http://www.afreenuae.com/",
    "rating_text": "4,3",
    "stars": null,
    "number_of_reviews": null,
    "price_level": "",
    "open_hours": "",
    "extraction_timestamp": "2025-06-08T03:41:12.703Z",
    "source_name": "google",
    "source_query": "Irrigation Equipment",
    "source_country": "AE",
    "country": "United Arab Emirates",
    "state": "Abu Dhabi Emirate",
    "city": "Khalifah A City"
  },
  {
    "source_id": "ChIJqw8RodVAXj4R03YPyNQGKy0",
    "name": "GREEEN VIEW IRRIGATION EQUIPMENT TRADING",
    "category": "GREEEN VIEW IRRIGATION EQUIPMENT TRADING",
    "formatted_address": "3,7(3)",
    "phone_number": "+971507659675",
    "source_url": "https://www.google.com/maps/place/GREEEN+VIEW+IRRIGATION+EQUIPMENT+TRADING/data=!4m7!3m6!1s0x3e5e40d5a1110fab:0x2d2b06d4c80f76d3!8m2!3d24.3739849!4d54.5189073!16s%2Fg%2F11dxb11w9k!19sChIJqw8RodVAXj4R03YPyNQGKy0?authuser=0&hl=tr&rclk=1",
    "website_url": "http://greenview.com/",
    "rating_text": "3,7",
    "stars": null,
    "number_of_reviews": null,
    "price_level": "",
    "open_hours": "",
    "extraction_timestamp": "2025-06-08T03:41:12.704Z",
    "source_name": "google",
    "source_query": "Irrigation Equipment",
    "source_country": "AE",
    "country": "United Arab Emirates",
    "state": "Abu Dhabi Emirate",
    "city": "Khalifah A City"
  },
  {
    "source_id": "ChIJq5_g2HZmXj4R9w7od4CdWUc",
    "name": "Al Ain Automatic Irrigation Co",
    "category": "Al Ain Automatic Irrigation Co",
    "formatted_address": "5,0(1)",
    "phone_number": "+97126343484",
    "source_url": "https://www.google.com/maps/place/Al+Ain+Automatic+Irrigation+Co/data=!4m7!3m6!1s0x3e5e6676d8e09fab:0x47599d8077e80ef7!8m2!3d24.4816355!4d54.3512422!16s%2Fg%2F11bbwxlyml!19sChIJq5_g2HZmXj4R9w7od4CdWUc?authuser=0&hl=tr&rclk=1",
    "website_url": "",
    "rating_text": "5,0",
    "stars": null,
    "number_of_reviews": null,
    "price_level": "",
    "open_hours": "",
    "extraction_timestamp": "2025-06-08T03:41:12.705Z",
    "source_name": "google",
    "source_query": "Irrigation Equipment",
    "source_country": "AE",
    "country": "United Arab Emirates",
    "state": "Abu Dhabi Emirate",
    "city": "Khalifah A City"
  },
  {
    "source_id": "ChIJAQAAAMm2ij4RtTyc1ivxesE",
    "name": "Al Ain Automatic Irrigation Company LLC",
    "category": "Al Ain Automatic Irrigation Company LLC",
    "formatted_address": "4,2(14)",
    "phone_number": "+97137229406",
    "source_url": "https://www.google.com/maps/place/Al+Ain+Automatic+Irrigation+Company+LLC/data=!4m7!3m6!1s0x3e8ab6c900000001:0xc17af12bd69c3cb5!8m2!3d24.1465315!4d55.8167626!16s%2Fg%2F11bbwnt88h!19sChIJAQAAAMm2ij4RtTyc1ivxesE?authuser=0&hl=tr&rclk=1",
    "website_url": "",
    "rating_text": "4,2",
    "stars": null,
    "number_of_reviews": null,
    "price_level": "",
    "open_hours": "",
    "extraction_timestamp": "2025-06-08T03:41:12.706Z",
    "source_name": "google",
    "source_query": "Irrigation Equipment",
    "source_country": "AE",
    "country": "United Arab Emirates",
    "state": "Abu Dhabi Emirate",
    "city": "Khalifah A City"
  },
  {
    "source_id": "ChIJT3YLBMhnXj4RlIlzDEKaRJ8",
    "name": "PowerTek General Trading",
    "category": "PowerTek General Trading",
    "formatted_address": "4,7(23)",
    "phone_number": "+97125656481",
    "source_url": "https://www.google.com/maps/place/PowerTek+General+Trading/data=!4m7!3m6!1s0x3e5e67c8040b764f:0x9f449a420c738994!8m2!3d24.4887757!4d54.3719499!16s%2Fg%2F11q3qsc4yb!19sChIJT3YLBMhnXj4RlIlzDEKaRJ8?authuser=0&hl=tr&rclk=1",
    "website_url": "http://www.powertekgcc.com/",
    "rating_text": "4,7",
    "stars": null,
    "number_of_reviews": null,
    "price_level": "",
    "open_hours": "",
    "extraction_timestamp": "2025-06-08T03:41:12.707Z",
    "source_name": "google",
    "source_query": "Irrigation Equipment",
    "source_country": "AE",
    "country": "United Arab Emirates",
    "state": "Abu Dhabi Emirate",
    "city": "Khalifah A City"
  },
  {
    "source_id": "ChIJHTB3LbBBXj4RXJr-iHdQhYU",
    "name": "Advanced Hydrotech",
    "category": "Advanced Hydrotech",
    "formatted_address": "4,5(6)",
    "phone_number": "+97125570204",
    "source_url": "https://www.google.com/maps/place/Advanced+Hydrotech/data=!4m7!3m6!1s0x3e5e41b02d77301d:0x8585507788fe9a5c!8m2!3d24.3739668!4d54.5178163!16s%2Fg%2F11h3dhzc7w!19sChIJHTB3LbBBXj4RXJr-iHdQhYU?authuser=0&hl=tr&rclk=1",
    "website_url": "",
    "rating_text": "4,5",
    "stars": null,
    "number_of_reviews": null,
    "price_level": "",
    "open_hours": "",
    "extraction_timestamp": "2025-06-08T03:41:12.735Z",
    "source_name": "google",
    "source_query": "Irrigation Equipment",
    "source_country": "AE",
    "country": "United Arab Emirates",
    "state": "Abu Dhabi Emirate",
    "city": "Khalifah A City"
  },
  {
    "source_id": "ChIJDXcJdlxmXj4RUwNUieWHSbw",
    "name": "Orient Irrigation Services LLC",
    "category": "Orient Irrigation Services LLC",
    "formatted_address": "3,3(7)",
    "phone_number": "+97126764040",
    "source_url": "https://www.google.com/maps/place/Orient+Irrigation+Services+LLC/data=!4m7!3m6!1s0x3e5e665c7609770d:0xbc4987e589540353!8m2!3d24.373743!4d54.5076137!16s%2Fg%2F11bbwps0tf!19sChIJDXcJdlxmXj4RUwNUieWHSbw?authuser=0&hl=tr&rclk=1",
    "website_url": "http://www.orientirrigation.com/",
    "rating_text": "3,3",
    "stars": null,
    "number_of_reviews": null,
    "price_level": "",
    "open_hours": "",
    "extraction_timestamp": "2025-06-08T03:41:12.736Z",
    "source_name": "google",
    "source_query": "Irrigation Equipment",
    "source_country": "AE",
    "country": "United Arab Emirates",
    "state": "Abu Dhabi Emirate",
    "city": "Khalifah A City"
  },
  {
    "source_id": "ChIJky02QBZJXj4RQzaq9GgSRkc",
    "name": "BASSAL",
    "category": "BASSAL",
    "formatted_address": "",
    "phone_number": "+971552156308",
    "source_url": "https://www.google.com/maps/place/BASSAL/data=!4m7!3m6!1s0x3e5e491640362d93:0x47461268f4aa3643!8m2!3d24.433394!4d54.6185624!16s%2Fg%2F11qs7v8z_m!19sChIJky02QBZJXj4RQzaq9GgSRkc?authuser=0&hl=tr&rclk=1",
    "website_url": "http://bassalgroup.com/",
    "rating_text": "",
    "stars": null,
    "number_of_reviews": null,
    "price_level": "",
    "open_hours": "",
    "extraction_timestamp": "2025-06-08T03:41:12.736Z",
    "source_name": "google",
    "source_query": "Irrigation Equipment",
    "source_country": "AE",
    "country": "United Arab Emirates",
    "state": "Abu Dhabi Emirate",
    "city": "Khalifah A City"
  }
]
