[
  {
    "source_id": "ChIJAf9l8tVAXj4R9q7sqfMCVCI",
    "name": "Best Building Materials LLC",
    "category": "Best Building Materials LLC",
    "formatted_address": "4,5(30)",
    "phone_number": "+97125551433",
    "source_url": "https://www.google.com/maps/place/Best+Building+Materials+LLC/data=!4m7!3m6!1s0x3e5e40d5f265ff01:0x225402f3a9ecaef6!8m2!3d24.3739478!4d54.5176595!16s%2Fg%2F11bbwqtmxc!19sChIJAf9l8tVAXj4R9q7sqfMCVCI?authuser=0&hl=tr&rclk=1",
    "website_url": "",
    "rating_text": "4,5",
    "stars": null,
    "number_of_reviews": null,
    "price_level": "",
    "open_hours": "",
    "extraction_timestamp": "2025-06-08T03:39:12.918Z",
    "source_name": "google",
    "source_query": "Irrigation Equipment",
    "source_country": "AE",
    "country": "United Arab Emirates",
    "state": "Abu Dhabi Emirate",
    "city": "Musaffah"
  },
  {
    "source_id": "ChIJTQdn7NVAXj4R-zpzOVb8-tg",
    "name": "Trees & Leaves Irrigation LLC- SPC",
    "category": "Trees & Leaves Irrigation LLC- SPC",
    "formatted_address": "4,3(41)",
    "phone_number": "+97125545641",
    "source_url": "https://www.google.com/maps/place/Trees+%26+Leaves+Irrigation+LLC-+SPC/data=!4m7!3m6!1s0x3e5e40d5ec67074d:0xd8fafc5639733afb!8m2!3d24.3739558!4d54.5175733!16s%2Fg%2F11bbwq9vl5!19sChIJTQdn7NVAXj4R-zpzOVb8-tg?authuser=0&hl=tr&rclk=1",
    "website_url": "",
    "rating_text": "4,3",
    "stars": null,
    "number_of_reviews": null,
    "price_level": "",
    "open_hours": "",
    "extraction_timestamp": "2025-06-08T03:39:12.920Z",
    "source_name": "google",
    "source_query": "Irrigation Equipment",
    "source_country": "AE",
    "country": "United Arab Emirates",
    "state": "Abu Dhabi Emirate",
    "city": "Musaffah"
  },
  {
    "source_id": "ChIJh1iisdU_Xj4RNS4SUl3E46c",
    "name": "United Irrigation Technologies",
    "category": "United Irrigation Technologies",
    "formatted_address": "5,0(10)",
    "phone_number": "+971502347958",
    "source_url": "https://www.google.com/maps/place/United+Irrigation+Technologies/data=!4m7!3m6!1s0x3e5e3fd5b1a25887:0xa7e3c45d52122e35!8m2!3d24.3069375!4d54.4941875!16s%2Fg%2F11y5q5dtv0!19sChIJh1iisdU_Xj4RNS4SUl3E46c?authuser=0&hl=tr&rclk=1",
    "website_url": "https://www.uitpipes.ae/",
    "rating_text": "5,0",
    "stars": null,
    "number_of_reviews": null,
    "price_level": "",
    "open_hours": "",
    "extraction_timestamp": "2025-06-08T03:39:12.922Z",
    "source_name": "google",
    "source_query": "Irrigation Equipment",
    "source_country": "AE",
    "country": "United Arab Emirates",
    "state": "Abu Dhabi Emirate",
    "city": "Musaffah"
  },
  {
    "source_id": "ChIJ0fNfkSZBXj4RWXpGSwFh7JA",
    "name": "Afreen Building Materials Trading Company LLC",
    "category": "Afreen Building Materials Trading Company LLC",
    "formatted_address": "4,3(85)",
    "phone_number": "+971526291730",
    "source_url": "https://www.google.com/maps/place/Afreen+Building+Materials+Trading+Company+LLC/data=!4m7!3m6!1s0x3e5e4126915ff3d1:0x90ec61014b467a59!8m2!3d24.3764101!4d54.5098654!16s%2Fg%2F11bbwm_01w!19sChIJ0fNfkSZBXj4RWXpGSwFh7JA?authuser=0&hl=tr&rclk=1",
    "website_url": "http://www.afreenuae.com/",
    "rating_text": "4,3",
    "stars": null,
    "number_of_reviews": null,
    "price_level": "",
    "open_hours": "",
    "extraction_timestamp": "2025-06-08T03:39:12.923Z",
    "source_name": "google",
    "source_query": "Irrigation Equipment",
    "source_country": "AE",
    "country": "United Arab Emirates",
    "state": "Abu Dhabi Emirate",
    "city": "Musaffah"
  },
  {
    "source_id": "ChIJfc4FFQZBXj4RHJT_BzqAPog",
    "name": "ADVANCED DEWATERING",
    "category": "ADVANCED DEWATERING",
    "formatted_address": "4,9(37)",
    "phone_number": "+971507646515",
    "source_url": "https://www.google.com/maps/place/ADVANCED+DEWATERING/data=!4m7!3m6!1s0x3e5e41061505ce7d:0x883e803a07ff941c!8m2!3d24.3578109!4d54.4975886!16s%2Fg%2F11rb14x8ph!19sChIJfc4FFQZBXj4RHJT_BzqAPog?authuser=0&hl=tr&rclk=1",
    "website_url": "https://www.connectnfc.com/profile/K11892055Y45",
    "rating_text": "4,9",
    "stars": null,
    "number_of_reviews": null,
    "price_level": "",
    "open_hours": "",
    "extraction_timestamp": "2025-06-08T03:39:12.925Z",
    "source_name": "google",
    "source_query": "Irrigation Equipment",
    "source_country": "AE",
    "country": "United Arab Emirates",
    "state": "Abu Dhabi Emirate",
    "city": "Musaffah"
  },
  {
    "source_id": "ChIJBejCa_VAXj4RcUgkdZ04RyE",
    "name": "Bin Moosa & Daly - Musaffah Showroom",
    "category": "Bin Moosa & Daly - Musaffah Showroom",
    "formatted_address": "4,6(42)",
    "phone_number": "+97125504117",
    "source_url": "https://www.google.com/maps/place/Bin+Moosa+%26+Daly+-+Musaffah+Showroom/data=!4m7!3m6!1s0x3e5e40f56bc2e805:0x2147389d75244871!8m2!3d24.3454706!4d54.4789951!16s%2Fg%2F11bwcs00w8!19sChIJBejCa_VAXj4RcUgkdZ04RyE?authuser=0&hl=tr&rclk=1",
    "website_url": "https://www.moosa-daly.com/",
    "rating_text": "4,6",
    "stars": null,
    "number_of_reviews": null,
    "price_level": "",
    "open_hours": "",
    "extraction_timestamp": "2025-06-08T03:39:12.926Z",
    "source_name": "google",
    "source_query": "Irrigation Equipment",
    "source_country": "AE",
    "country": "United Arab Emirates",
    "state": "Abu Dhabi Emirate",
    "city": "Musaffah"
  },
  {
    "source_id": "ChIJHTB3LbBBXj4RXJr-iHdQhYU",
    "name": "Advanced Hydrotech",
    "category": "Advanced Hydrotech",
    "formatted_address": "4,5(6)",
    "phone_number": "+97125570204",
    "source_url": "https://www.google.com/maps/place/Advanced+Hydrotech/data=!4m7!3m6!1s0x3e5e41b02d77301d:0x8585507788fe9a5c!8m2!3d24.3739668!4d54.5178163!16s%2Fg%2F11h3dhzc7w!19sChIJHTB3LbBBXj4RXJr-iHdQhYU?authuser=0&hl=tr&rclk=1",
    "website_url": "",
    "rating_text": "4,5",
    "stars": null,
    "number_of_reviews": null,
    "price_level": "",
    "open_hours": "",
    "extraction_timestamp": "2025-06-08T03:39:12.927Z",
    "source_name": "google",
    "source_query": "Irrigation Equipment",
    "source_country": "AE",
    "country": "United Arab Emirates",
    "state": "Abu Dhabi Emirate",
    "city": "Musaffah"
  },
  {
    "source_id": "ChIJqw8RodVAXj4R03YPyNQGKy0",
    "name": "GREEEN VIEW IRRIGATION EQUIPMENT TRADING",
    "category": "GREEEN VIEW IRRIGATION EQUIPMENT TRADING",
    "formatted_address": "3,7(3)",
    "phone_number": "+971507659675",
    "source_url": "https://www.google.com/maps/place/GREEEN+VIEW+IRRIGATION+EQUIPMENT+TRADING/data=!4m7!3m6!1s0x3e5e40d5a1110fab:0x2d2b06d4c80f76d3!8m2!3d24.3739849!4d54.5189073!16s%2Fg%2F11dxb11w9k!19sChIJqw8RodVAXj4R03YPyNQGKy0?authuser=0&hl=tr&rclk=1",
    "website_url": "http://greenview.com/",
    "rating_text": "3,7",
    "stars": null,
    "number_of_reviews": null,
    "price_level": "",
    "open_hours": "",
    "extraction_timestamp": "2025-06-08T03:39:12.928Z",
    "source_name": "google",
    "source_query": "Irrigation Equipment",
    "source_country": "AE",
    "country": "United Arab Emirates",
    "state": "Abu Dhabi Emirate",
    "city": "Musaffah"
  },
  {
    "source_id": "ChIJWUOGRxhmXj4R2dLhvfXACus",
    "name": "alkhalij enterprises LLC (Abu Dhabi)",
    "category": "alkhalij enterprises LLC (Abu Dhabi)",
    "formatted_address": "4,9(175)",
    "phone_number": "+97125550979",
    "source_url": "https://www.google.com/maps/place/alkhalij+enterprises+LLC+%28Abu+Dhabi%29/data=!4m7!3m6!1s0x3e5e661847864359:0xeb0ac0f5bde1d2d9!8m2!3d24.3711449!4d54.4740373!16s%2Fg%2F12hkzdxvy!19sChIJWUOGRxhmXj4R2dLhvfXACus?authuser=0&hl=tr&rclk=1",
    "website_url": "http://alkhalij.com/abudhabi/",
    "rating_text": "4,9",
    "stars": null,
    "number_of_reviews": null,
    "price_level": "",
    "open_hours": "",
    "extraction_timestamp": "2025-06-08T03:39:12.929Z",
    "source_name": "google",
    "source_query": "Irrigation Equipment",
    "source_country": "AE",
    "country": "United Arab Emirates",
    "state": "Abu Dhabi Emirate",
    "city": "Musaffah"
  },
  {
    "source_id": "ChIJyYGmzhFBXj4RSxr3dyf2XXg",
    "name": "Sedana Trading Abu Dhabi",
    "category": "Sedana Trading Abu Dhabi",
    "formatted_address": "4,0(134)",
    "phone_number": "+97125544800",
    "source_url": "https://www.google.com/maps/place/Sedana+Trading+Abu+Dhabi/data=!4m7!3m6!1s0x3e5e4111cea681c9:0x785df62777f71a4b!8m2!3d24.3806077!4d54.4898217!16s%2Fg%2F1hf1s69p9!19sChIJyYGmzhFBXj4RSxr3dyf2XXg?authuser=0&hl=tr&rclk=1",
    "website_url": "http://www.sedana.com/",
    "rating_text": "4,0",
    "stars": null,
    "number_of_reviews": null,
    "price_level": "",
    "open_hours": "",
    "extraction_timestamp": "2025-06-08T03:39:12.930Z",
    "source_name": "google",
    "source_query": "Irrigation Equipment",
    "source_country": "AE",
    "country": "United Arab Emirates",
    "state": "Abu Dhabi Emirate",
    "city": "Musaffah"
  },
  {
    "source_id": "ChIJ6S_1mzZBXj4R6W-qsMf3qpQ",
    "name": "Bright Deal International - Complete pipeline solution provider (HDPE, PPR, UPVC, GRP, DI & MS)",
    "category": "Bright Deal International - Complete pipeline solution provider (HDPE, PPR, UPVC, GRP, DI & MS)",
    "formatted_address": "Bright Deal International - Complete pipeline solution provider (HDPE, PPR, UPVC, GRP, DI & MS)",
    "phone_number": "+97125586338",
    "source_url": "https://www.google.com/maps/place/Bright+Deal+International+-+Complete+pipeline+solution+provider+%28HDPE,+PPR,+UPVC,+GRP,+DI+%26+MS%29/data=!4m7!3m6!1s0x3e5e41369bf52fe9:0x94aaf7c7b0aa6fe9!8m2!3d24.3540156!4d54.4935806!16s%2Fg%2F11fhl2wqgc!19sChIJ6S_1mzZBXj4R6W-qsMf3qpQ?authuser=0&hl=tr&rclk=1",
    "website_url": "http://bdiuae.com/",
    "rating_text": "4,7",
    "stars": null,
    "number_of_reviews": null,
    "price_level": "",
    "open_hours": "",
    "extraction_timestamp": "2025-06-08T03:39:12.932Z",
    "source_name": "google",
    "source_query": "Irrigation Equipment",
    "source_country": "AE",
    "country": "United Arab Emirates",
    "state": "Abu Dhabi Emirate",
    "city": "Musaffah"
  },
  {
    "source_id": "ChIJwfEsSd9BXj4RIcNo8eUBPNI",
    "name": "Sweet Water Tanker Supplier Abu Dhabi",
    "category": "Sweet Water Tanker Supplier Abu Dhabi",
    "formatted_address": "5,0(3)",
    "phone_number": "+971527698888",
    "source_url": "https://www.google.com/maps/place/Sweet+Water+Tanker+Supplier+Abu+Dhabi/data=!4m7!3m6!1s0x3e5e41df492cf1c1:0xd23c01e5f168c321!8m2!3d24.3493083!4d54.5137729!16s%2Fg%2F11pdhry4mm!19sChIJwfEsSd9BXj4RIcNo8eUBPNI?authuser=0&hl=tr&rclk=1",
    "website_url": "",
    "rating_text": "5,0",
    "stars": null,
    "number_of_reviews": null,
    "price_level": "",
    "open_hours": "",
    "extraction_timestamp": "2025-06-08T03:39:12.933Z",
    "source_name": "google",
    "source_query": "Irrigation Equipment",
    "source_country": "AE",
    "country": "United Arab Emirates",
    "state": "Abu Dhabi Emirate",
    "city": "Musaffah"
  },
  {
    "source_id": "ChIJDXcJdlxmXj4RUwNUieWHSbw",
    "name": "Orient Irrigation Services LLC",
    "category": "Orient Irrigation Services LLC",
    "formatted_address": "3,3(7)",
    "phone_number": "+97126764040",
    "source_url": "https://www.google.com/maps/place/Orient+Irrigation+Services+LLC/data=!4m7!3m6!1s0x3e5e665c7609770d:0xbc4987e589540353!8m2!3d24.373743!4d54.5076137!16s%2Fg%2F11bbwps0tf!19sChIJDXcJdlxmXj4RUwNUieWHSbw?authuser=0&hl=tr&rclk=1",
    "website_url": "http://www.orientirrigation.com/",
    "rating_text": "3,3",
    "stars": null,
    "number_of_reviews": null,
    "price_level": "",
    "open_hours": "",
    "extraction_timestamp": "2025-06-08T03:39:12.934Z",
    "source_name": "google",
    "source_query": "Irrigation Equipment",
    "source_country": "AE",
    "country": "United Arab Emirates",
    "state": "Abu Dhabi Emirate",
    "city": "Musaffah"
  },
  {
    "source_id": "ChIJwYWUBpVAXj4RSiy3d_XgQSM",
    "name": "Al Sagar Engineering Company LLC",
    "category": "Al Sagar Engineering Company LLC",
    "formatted_address": "4,5(19)",
    "phone_number": "+97125511880",
    "source_url": "https://www.google.com/maps/place/Al+Sagar+Engineering+Company+LLC/data=!4m7!3m6!1s0x3e5e4095069485c1:0x2341e0f577b72c4a!8m2!3d24.3460434!4d54.4978496!16s%2Fg%2F1v76y38t!19sChIJwYWUBpVAXj4RSiy3d_XgQSM?authuser=0&hl=tr&rclk=1",
    "website_url": "http://www.alsagareng.com/",
    "rating_text": "4,5",
    "stars": null,
    "number_of_reviews": null,
    "price_level": "",
    "open_hours": "",
    "extraction_timestamp": "2025-06-08T03:39:12.935Z",
    "source_name": "google",
    "source_query": "Irrigation Equipment",
    "source_country": "AE",
    "country": "United Arab Emirates",
    "state": "Abu Dhabi Emirate",
    "city": "Musaffah"
  },
  {
    "source_id": "ChIJWUOGRxhmXj4RiNJ8DkDvGbw",
    "name": "Special Equipment Supplies",
    "category": "Special Equipment Supplies",
    "formatted_address": "5,0(3)",
    "phone_number": "+97125503224",
    "source_url": "https://www.google.com/maps/place/Special+Equipment+Supplies/data=!4m7!3m6!1s0x3e5e661847864359:0xbc19ef400e7cd288!8m2!3d24.3495399!4d54.4997718!16s%2Fg%2F11cfdmwlp!19sChIJWUOGRxhmXj4RiNJ8DkDvGbw?authuser=0&hl=tr&rclk=1",
    "website_url": "http://www.ses-uae.com/",
    "rating_text": "5,0",
    "stars": null,
    "number_of_reviews": null,
    "price_level": "",
    "open_hours": "",
    "extraction_timestamp": "2025-06-08T03:39:12.936Z",
    "source_name": "google",
    "source_query": "Irrigation Equipment",
    "source_country": "AE",
    "country": "United Arab Emirates",
    "state": "Abu Dhabi Emirate",
    "city": "Musaffah"
  },
  {
    "source_id": "ChIJezWAYoVBXj4Rl-PF7KCA4Mg",
    "name": "HYDRO SANITARY WARE TRADING",
    "category": "HYDRO SANITARY WARE TRADING",
    "formatted_address": "4,0(54)",
    "phone_number": "+97125548562",
    "source_url": "https://www.google.com/maps/place/HYDRO+SANITARY+WARE+TRADING/data=!4m7!3m6!1s0x3e5e41856280357b:0xc8e080a0ecc5e397!8m2!3d24.3763081!4d54.5076313!16s%2Fg%2F11ghzvc0vt!19sChIJezWAYoVBXj4Rl-PF7KCA4Mg?authuser=0&hl=tr&rclk=1",
    "website_url": "http://www.hydrosanitary.com/",
    "rating_text": "4,0",
    "stars": null,
    "number_of_reviews": null,
    "price_level": "",
    "open_hours": "",
    "extraction_timestamp": "2025-06-08T03:39:12.937Z",
    "source_name": "google",
    "source_query": "Irrigation Equipment",
    "source_country": "AE",
    "country": "United Arab Emirates",
    "state": "Abu Dhabi Emirate",
    "city": "Musaffah"
  },
  {
    "source_id": "ChIJL9Lhq4ZBXj4R6U1L1Wk_0hU",
    "name": "Water tanker and wast water supply in Abu dahabi",
    "category": "Water tanker and wast water supply in Abu dahabi",
    "formatted_address": "",
    "phone_number": "+971568586720",
    "source_url": "https://www.google.com/maps/place/Water+tanker+and+wast+water+supply+in+Abu+dahabi/data=!4m7!3m6!1s0x3e5e4186abe1d22f:0x15d23f69d54b4de9!8m2!3d24.3653918!4d54.4867065!16s%2Fg%2F11xgvs27zf!19sChIJL9Lhq4ZBXj4R6U1L1Wk_0hU?authuser=0&hl=tr&rclk=1",
    "website_url": "",
    "rating_text": "",
    "stars": null,
    "number_of_reviews": null,
    "price_level": "",
    "open_hours": "",
    "extraction_timestamp": "2025-06-08T03:39:12.938Z",
    "source_name": "google",
    "source_query": "Irrigation Equipment",
    "source_country": "AE",
    "country": "United Arab Emirates",
    "state": "Abu Dhabi Emirate",
    "city": "Musaffah"
  },
  {
    "source_id": "ChIJeSoc7PhBXj4RKtOnpLDvhU0",
    "name": "Al Hadhoudh Trading & contracting Est. Br",
    "category": "Al Hadhoudh Trading & contracting Est. Br",
    "formatted_address": "5,0(6)",
    "phone_number": "+97125548811",
    "source_url": "https://www.google.com/maps/place/Al+Hadhoudh+Trading+%26+contracting+Est.+Br/data=!4m7!3m6!1s0x3e5e41f8ec1c2a79:0x4d85efb0a4a7d32a!8m2!3d24.3747849!4d54.5099579!16s%2Fg%2F11fny_jsm0!19sChIJeSoc7PhBXj4RKtOnpLDvhU0?authuser=0&hl=tr&rclk=1",
    "website_url": "http://www.had.ae/",
    "rating_text": "5,0",
    "stars": null,
    "number_of_reviews": null,
    "price_level": "",
    "open_hours": "",
    "extraction_timestamp": "2025-06-08T03:39:12.939Z",
    "source_name": "google",
    "source_query": "Irrigation Equipment",
    "source_country": "AE",
    "country": "United Arab Emirates",
    "state": "Abu Dhabi Emirate",
    "city": "Musaffah"
  },
  {
    "source_id": "ChIJp8Wljr1BXj4R1EJcCkeQCSQ",
    "name": "RAJAB TRADING CO LLC HDPE DEPARTMENT",
    "category": "RAJAB TRADING CO LLC HDPE DEPARTMENT",
    "formatted_address": "4,7(23)",
    "phone_number": "+971506162135",
    "source_url": "https://www.google.com/maps/place/RAJAB+TRADING+CO+LLC+HDPE+DEPARTMENT/data=!4m7!3m6!1s0x3e5e41bd8ea5c5a7:0x240990470a5c42d4!8m2!3d24.3763527!4d54.5080328!16s%2Fg%2F11l6vd8k52!19sChIJp8Wljr1BXj4R1EJcCkeQCSQ?authuser=0&hl=tr&rclk=1",
    "website_url": "http://rajabtradinguae.com/",
    "rating_text": "4,7",
    "stars": null,
    "number_of_reviews": null,
    "price_level": "",
    "open_hours": "",
    "extraction_timestamp": "2025-06-08T03:39:12.941Z",
    "source_name": "google",
    "source_query": "Irrigation Equipment",
    "source_country": "AE",
    "country": "United Arab Emirates",
    "state": "Abu Dhabi Emirate",
    "city": "Musaffah"
  },
  {
    "source_id": "ChIJT9TqRthnXj4RiXLocAmUP-0",
    "name": "ARID LAND DEVELOPMENT CO.L.L.C - MAIN OFFICE",
    "category": "ARID LAND DEVELOPMENT CO.L.L.C - MAIN OFFICE",
    "formatted_address": "4,4(18)",
    "phone_number": "+97126319244",
    "source_url": "https://www.google.com/maps/place/ARID+LAND+DEVELOPMENT+CO.L.L.C+-+MAIN+OFFICE/data=!4m7!3m6!1s0x3e5e67d846ead44f:0xed3f940970e87289!8m2!3d24.4712728!4d54.3690496!16s%2Fg%2F1pp2tl7hl!19sChIJT9TqRthnXj4RiXLocAmUP-0?authuser=0&hl=tr&rclk=1",
    "website_url": "http://aridlanddevelopment.com/",
    "rating_text": "4,4",
    "stars": null,
    "number_of_reviews": null,
    "price_level": "",
    "open_hours": "",
    "extraction_timestamp": "2025-06-08T03:39:12.942Z",
    "source_name": "google",
    "source_query": "Irrigation Equipment",
    "source_country": "AE",
    "country": "United Arab Emirates",
    "state": "Abu Dhabi Emirate",
    "city": "Musaffah"
  },
  {
    "source_id": "ChIJK8uB9FhAXj4RFYJAX_veAWc",
    "name": "Bin Moosa & Daly - Main Branch بن موسى و ديلي - أبو ظبي",
    "category": "Bin Moosa & Daly - Main Branch بن موسى و ديلي - أبو ظبي",
    "formatted_address": "4,0(24)",
    "phone_number": "+97126437220",
    "source_url": "https://www.google.com/maps/place/Bin+Moosa+%26+Daly+-+Main+Branch+%D8%A8%D9%86+%D9%85%D9%88%D8%B3%D9%89+%D9%88+%D8%AF%D9%8A%D9%84%D9%8A+-+%D8%A3%D8%A8%D9%88+%D8%B8%D8%A8%D9%8A%E2%80%AD/data=!4m7!3m6!1s0x3e5e4058f481cb2b:0x6701defb5f408215!8m2!3d24.473469!4d54.3768853!16s%2Fg%2F1vr3bn75!19sChIJK8uB9FhAXj4RFYJAX_veAWc?authuser=0&hl=tr&rclk=1",
    "website_url": "https://www.moosa-daly.com/",
    "rating_text": "4,0",
    "stars": null,
    "number_of_reviews": null,
    "price_level": "",
    "open_hours": "",
    "extraction_timestamp": "2025-06-08T03:39:12.943Z",
    "source_name": "google",
    "source_query": "Irrigation Equipment",
    "source_country": "AE",
    "country": "United Arab Emirates",
    "state": "Abu Dhabi Emirate",
    "city": "Musaffah"
  },
  {
    "source_id": "ChIJnZ5LKOFBXj4RNlgtBEBkxzA",
    "name": "Ascon Equipment Trading",
    "category": "Ascon Equipment Trading",
    "formatted_address": "4,2(11)",
    "phone_number": "+971524467898",
    "source_url": "https://www.google.com/maps/place/Ascon+Equipment+Trading/data=!4m7!3m6!1s0x3e5e41e1284b9e9d:0x30c76440042d5836!8m2!3d24.3735389!4d54.5044904!16s%2Fg%2F11lh30qgxd!19sChIJnZ5LKOFBXj4RNlgtBEBkxzA?authuser=0&hl=tr&rclk=1",
    "website_url": "http://www.asconequipmenttrading.com/",
    "rating_text": "4,2",
    "stars": null,
    "number_of_reviews": null,
    "price_level": "",
    "open_hours": "",
    "extraction_timestamp": "2025-06-08T03:39:12.944Z",
    "source_name": "google",
    "source_query": "Irrigation Equipment",
    "source_country": "AE",
    "country": "United Arab Emirates",
    "state": "Abu Dhabi Emirate",
    "city": "Musaffah"
  },
  {
    "source_id": "ChIJrz7cnydBXj4Rs81tlXekbSk",
    "name": "Fine Emirates Hardwares",
    "category": "Fine Emirates Hardwares",
    "formatted_address": "3,2(14)",
    "phone_number": "+971528129639",
    "source_url": "https://www.google.com/maps/place/Fine+Emirates+Hardwares/data=!4m7!3m6!1s0x3e5e41279fdc3eaf:0x296da477956dcdb3!8m2!3d24.3736145!4d54.5080812!16s%2Fg%2F11hbvqbmwz!19sChIJrz7cnydBXj4Rs81tlXekbSk?authuser=0&hl=tr&rclk=1",
    "website_url": "",
    "rating_text": "3,2",
    "stars": null,
    "number_of_reviews": null,
    "price_level": "",
    "open_hours": "",
    "extraction_timestamp": "2025-06-08T03:39:12.945Z",
    "source_name": "google",
    "source_query": "Irrigation Equipment",
    "source_country": "AE",
    "country": "United Arab Emirates",
    "state": "Abu Dhabi Emirate",
    "city": "Musaffah"
  },
  {
    "source_id": "ChIJxY7DmFlAXj4RK-X4eqeUACo",
    "name": "Wecare Machinery",
    "category": "Wecare Machinery",
    "formatted_address": "4,9(63)",
    "phone_number": "",
    "source_url": "https://www.google.com/maps/place/Wecare+Machinery/data=!4m7!3m6!1s0x3e5e405998c38ec5:0x2a0094a77af8e52b!8m2!3d24.3505104!4d54.4738667!16s%2Fg%2F11bxf92hvc!19sChIJxY7DmFlAXj4RK-X4eqeUACo?authuser=0&hl=tr&rclk=1",
    "website_url": "http://www.wecaregroup.net/",
    "rating_text": "4,9",
    "stars": null,
    "number_of_reviews": null,
    "price_level": "",
    "open_hours": "",
    "extraction_timestamp": "2025-06-08T03:39:12.946Z",
    "source_name": "google",
    "source_query": "Irrigation Equipment",
    "source_country": "AE",
    "country": "United Arab Emirates",
    "state": "Abu Dhabi Emirate",
    "city": "Musaffah"
  },
  {
    "source_id": "ChIJQWQXeqY4Xj4RMXJlMT5oXIs",
    "name": "Penelope Marine Equipment's & industrial suppliers in uae (المعدات البحرية)",
    "category": "Penelope Marine Equipment's & industrial suppliers in uae (المعدات البحرية)",
    "formatted_address": "4,9(22)",
    "phone_number": "+971544423467",
    "source_url": "https://www.google.com/maps/place/Penelope+Marine+Equipment%27s+%26+industrial+suppliers+in+uae+%28%D8%A7%D9%84%D9%85%D8%B9%D8%AF%D8%A7%D8%AA+%D8%A7%D9%84%D8%A8%D8%AD%D8%B1%D9%8A%D8%A9%29%E2%80%AD/data=!4m7!3m6!1s0x3e5e38a67a176441:0x8b5c683e31657231!8m2!3d24.3747384!4d54.4975805!16s%2Fg%2F11c6z496p5!19sChIJQWQXeqY4Xj4RMXJlMT5oXIs?authuser=0&hl=tr&rclk=1",
    "website_url": "https://penelopemarine.com/",
    "rating_text": "4,9",
    "stars": null,
    "number_of_reviews": null,
    "price_level": "",
    "open_hours": "",
    "extraction_timestamp": "2025-06-08T03:39:12.947Z",
    "source_name": "google",
    "source_query": "Irrigation Equipment",
    "source_country": "AE",
    "country": "United Arab Emirates",
    "state": "Abu Dhabi Emirate",
    "city": "Musaffah"
  },
  {
    "source_id": "ChIJD8MOPUNBXj4RpUqSGvPZWTM",
    "name": "Texsa Waterproofing Systems - UAE",
    "category": "Texsa Waterproofing Systems - UAE",
    "formatted_address": "4,6(7)",
    "phone_number": "+971561298887",
    "source_url": "https://www.google.com/maps/place/Texsa+Waterproofing+Systems+-+UAE/data=!4m7!3m6!1s0x3e5e41433d0ec30f:0x3359d9f31a924aa5!8m2!3d24.3569518!4d54.4964851!16s%2Fg%2F11wj7sbkht!19sChIJD8MOPUNBXj4RpUqSGvPZWTM?authuser=0&hl=tr&rclk=1",
    "website_url": "",
    "rating_text": "4,6",
    "stars": null,
    "number_of_reviews": null,
    "price_level": "",
    "open_hours": "",
    "extraction_timestamp": "2025-06-08T03:39:12.948Z",
    "source_name": "google",
    "source_query": "Irrigation Equipment",
    "source_country": "AE",
    "country": "United Arab Emirates",
    "state": "Abu Dhabi Emirate",
    "city": "Musaffah"
  },
  {
    "source_id": "ChIJM9bd57RBXj4Rt-T-Snzyh4s",
    "name": "Titan Build Building Materials L.L.C S.P.C",
    "category": "Titan Build Building Materials L.L.C S.P.C",
    "formatted_address": "",
    "phone_number": "+971551020745",
    "source_url": "https://www.google.com/maps/place/Titan+Build+Building+Materials+L.L.C+S.P.C/data=!4m7!3m6!1s0x3e5e41b4e7ddd633:0x8b87f27c4afee4b7!8m2!3d24.3719976!4d54.4879176!16s%2Fg%2F11xfrz9mmd!19sChIJM9bd57RBXj4Rt-T-Snzyh4s?authuser=0&hl=tr&rclk=1",
    "website_url": "https://titanbuild.netlify.app/index.html",
    "rating_text": "",
    "stars": null,
    "number_of_reviews": null,
    "price_level": "",
    "open_hours": "",
    "extraction_timestamp": "2025-06-08T03:39:12.949Z",
    "source_name": "google",
    "source_query": "Irrigation Equipment",
    "source_country": "AE",
    "country": "United Arab Emirates",
    "state": "Abu Dhabi Emirate",
    "city": "Musaffah"
  },
  {
    "source_id": "ChIJcZPkY_VAXj4RssALhUs3BRM",
    "name": "M.A.H.Y.KHOORY & CO. LLC",
    "category": "M.A.H.Y.KHOORY & CO. LLC",
    "formatted_address": "4,4(20)",
    "phone_number": "+97126749722",
    "source_url": "https://www.google.com/maps/place/M.A.H.Y.KHOORY+%26+CO.+LLC/data=!4m7!3m6!1s0x3e5e40f563e49371:0x1305374b850bc0b2!8m2!3d24.3454517!4d54.4782621!16s%2Fg%2F11bz0wt5qx!19sChIJcZPkY_VAXj4RssALhUs3BRM?authuser=0&hl=tr&rclk=1",
    "website_url": "http://www.mahykhoory.com/",
    "rating_text": "4,4",
    "stars": null,
    "number_of_reviews": null,
    "price_level": "",
    "open_hours": "",
    "extraction_timestamp": "2025-06-08T03:39:12.950Z",
    "source_name": "google",
    "source_query": "Irrigation Equipment",
    "source_country": "AE",
    "country": "United Arab Emirates",
    "state": "Abu Dhabi Emirate",
    "city": "Musaffah"
  },
  {
    "source_id": "ChIJ__Bnzp1BXj4R1B8XR4gvuAE",
    "name": "ARJ Water Technology Abu Dhabi Showroom",
    "category": "ARJ Water Technology Abu Dhabi Showroom",
    "formatted_address": "Pompa Tedarikçisi · St 16, Next to Belhasa Car Rental, Diagonally Opposite ICAD Residential City, Gate 2Kapalı ⋅ Açılış saati: 08:30 · +971 2 672 2029",
    "phone_number": "+97126722029",
    "source_url": "https://www.google.com/maps/place/ARJ+Water+Technology+Abu+Dhabi+Showroom/data=!4m7!3m6!1s0x3e5e419dce67f0ff:0x1b82f8847171fd4!8m2!3d24.3453973!4d54.4783182!16s%2Fg%2F11fp8bpf64!19sChIJ__Bnzp1BXj4R1B8XR4gvuAE?authuser=0&hl=tr&rclk=1",
    "website_url": "",
    "rating_text": "",
    "stars": null,
    "number_of_reviews": null,
    "price_level": "",
    "open_hours": "",
    "extraction_timestamp": "2025-06-08T03:39:12.951Z",
    "source_name": "google",
    "source_query": "Irrigation Equipment",
    "source_country": "AE",
    "country": "United Arab Emirates",
    "state": "Abu Dhabi Emirate",
    "city": "Musaffah"
  },
  {
    "source_id": "ChIJj0eEfslAXj4RLCEARaKbQwQ",
    "name": "Delight Equipment International LLC",
    "category": "Delight Equipment International LLC",
    "formatted_address": "4,6(20)",
    "phone_number": "+97125515641",
    "source_url": "https://www.google.com/maps/place/Delight+Equipment+International+LLC/data=!4m7!3m6!1s0x3e5e40c97e84478f:0x4439ba24500212c!8m2!3d24.3464742!4d54.4685722!16s%2Fg%2F11bbwn0z5s!19sChIJj0eEfslAXj4RLCEARaKbQwQ?authuser=0&hl=tr&rclk=1",
    "website_url": "https://delightintl.ae/",
    "rating_text": "4,6",
    "stars": null,
    "number_of_reviews": null,
    "price_level": "",
    "open_hours": "",
    "extraction_timestamp": "2025-06-08T03:39:12.952Z",
    "source_name": "google",
    "source_query": "Irrigation Equipment",
    "source_country": "AE",
    "country": "United Arab Emirates",
    "state": "Abu Dhabi Emirate",
    "city": "Musaffah"
  },
  {
    "source_id": "ChIJF93hpIlBXj4R8QmLXN_rk6Q",
    "name": "Niqa Hygiene Cleaning Services LLC",
    "category": "Niqa Hygiene Cleaning Services LLC",
    "formatted_address": "4,8(80)",
    "phone_number": "+971505425873",
    "source_url": "https://www.google.com/maps/place/Niqa+Hygiene+Cleaning+Services+LLC/data=!4m7!3m6!1s0x3e5e4189a4e1dd17:0xa493ebdf5c8b09f1!8m2!3d24.3496877!4d54.4794024!16s%2Fg%2F11y7_6sq1n!19sChIJF93hpIlBXj4R8QmLXN_rk6Q?authuser=0&hl=tr&rclk=1",
    "website_url": "https://www.niqa.ae/",
    "rating_text": "4,8",
    "stars": null,
    "number_of_reviews": null,
    "price_level": "",
    "open_hours": "",
    "extraction_timestamp": "2025-06-08T03:39:12.953Z",
    "source_name": "google",
    "source_query": "Irrigation Equipment",
    "source_country": "AE",
    "country": "United Arab Emirates",
    "state": "Abu Dhabi Emirate",
    "city": "Musaffah"
  },
  {
    "source_id": "ChIJn7pIfhpBXj4RlOKlZm4rmzE",
    "name": "qatarat alghaith water trade",
    "category": "qatarat alghaith water trade",
    "formatted_address": "",
    "phone_number": "+971506658936",
    "source_url": "https://www.google.com/maps/place/qatarat+alghaith+water+trade/data=!4m7!3m6!1s0x3e5e411a7e48ba9f:0x319b2b6e66a5e294!8m2!3d24.3582031!4d54.4869003!16s%2Fg%2F11l1m03czs!19sChIJn7pIfhpBXj4RlOKlZm4rmzE?authuser=0&hl=tr&rclk=1",
    "website_url": "",
    "rating_text": "",
    "stars": null,
    "number_of_reviews": null,
    "price_level": "",
    "open_hours": "",
    "extraction_timestamp": "2025-06-08T03:39:12.954Z",
    "source_name": "google",
    "source_query": "Irrigation Equipment",
    "source_country": "AE",
    "country": "United Arab Emirates",
    "state": "Abu Dhabi Emirate",
    "city": "Musaffah"
  },
  {
    "source_id": "ChIJL79olGVBXj4R3q8hIAosAzE",
    "name": "CONTROL SAFETY & FIRE EQUIPMENT LLC",
    "category": "CONTROL SAFETY & FIRE EQUIPMENT LLC",
    "formatted_address": "4,8(46)",
    "phone_number": "+971551342318",
    "source_url": "https://www.google.com/maps/place/CONTROL+SAFETY+%26+FIRE+EQUIPMENT+LLC/data=!4m7!3m6!1s0x3e5e41659468bf2f:0x31032c0a2021afde!8m2!3d24.3469317!4d54.4852845!16s%2Fg%2F11g4gcdcrr!19sChIJL79olGVBXj4R3q8hIAosAzE?authuser=0&hl=tr&rclk=1",
    "website_url": "http://www.controlfire.store/",
    "rating_text": "4,8",
    "stars": null,
    "number_of_reviews": null,
    "price_level": "",
    "open_hours": "",
    "extraction_timestamp": "2025-06-08T03:39:12.955Z",
    "source_name": "google",
    "source_query": "Irrigation Equipment",
    "source_country": "AE",
    "country": "United Arab Emirates",
    "state": "Abu Dhabi Emirate",
    "city": "Musaffah"
  }
]
