[
  {
    "source_id": "ChIJS_AllbhxVxMRb4q8gTJ1bZg",
    "name": "CavaToitos",
    "category": "CavaToitos",
    "formatted_address": "5,0(33)",
    "phone_number": "+302386022489",
    "source_url": "https://www.google.com/maps/place/CavaToitos/data=!4m7!3m6!1s0x135771b89525f04b:0x986d753281bc8a6f!8m2!3d40.6911818!4d21.6775703!16s%2Fg%2F11h2qmtbp4!19sChIJS_AllbhxVxMRb4q8gTJ1bZg?authuser=0&hl=tr&rclk=1",
    "website_url": "https://www.instagram.com/cava_toitos_est.1982/",
    "rating_text": "5,0",
    "stars": null,
    "number_of_reviews": null,
    "price_level": "",
    "open_hours": "",
    "extraction_timestamp": "2025-06-07T15:26:36.659Z",
    "source_name": "google",
    "source_query": "Irrigation Equipment",
    "source_country": "GR",
    "country": "Greece",
    "state": "West Macedonia Region",
    "city": "Amýntaio"
  },
  {
    "source_id": "ChIJx3gkXPBxVxMRNQj0RFp6ySU",
    "name": "2 τροχοί Γρομπανόπουλος (Παπαδάκη Όλγα)",
    "category": "2 τροχοί Γρομπανόπουλος (Παπαδάκη Όλγα)",
    "formatted_address": "4,9(22)",
    "phone_number": "+302386022496",
    "source_url": "https://www.google.com/maps/place/2+%CF%84%CF%81%CE%BF%CF%87%CE%BF%CE%AF+%CE%93%CF%81%CE%BF%CE%BC%CF%80%CE%B1%CE%BD%CF%8C%CF%80%CE%BF%CF%85%CE%BB%CE%BF%CF%82+%28%CE%A0%CE%B1%CF%80%CE%B1%CE%B4%CE%AC%CE%BA%CE%B7+%CE%8C%CE%BB%CE%B3%CE%B1%29/data=!4m7!3m6!1s0x135771f05c2478c7:0x25c97a5a44f40835!8m2!3d40.6929819!4d21.6727762!16s%2Fg%2F11c5rtt644!19sChIJx3gkXPBxVxMRNQj0RFp6ySU?authuser=0&hl=tr&rclk=1",
    "website_url": "https://www.facebook.com/2-%CE%A4%CF%81%CE%BF%CF%87%CE%BF%CE%AF-%CE%93%CF%81%CE%BF%CE%BC%CF%80%CE%B1%CE%BD%CF%8C%CF%80%CE%BF%CF%85%CE%BB%CE%BF%CF%82-1608678636032519/?fref=ts",
    "rating_text": "4,9",
    "stars": null,
    "number_of_reviews": null,
    "price_level": "",
    "open_hours": "",
    "extraction_timestamp": "2025-06-07T15:26:36.661Z",
    "source_name": "google",
    "source_query": "Irrigation Equipment",
    "source_country": "GR",
    "country": "Greece",
    "state": "West Macedonia Region",
    "city": "Amýntaio"
  },
  {
    "source_id": "ChIJK2lydoBxVxMRY0-Nhi_wiKg",
    "name": "Total Market",
    "category": "Total Market",
    "formatted_address": "4,6(144)",
    "phone_number": "+302386024208",
    "source_url": "https://www.google.com/maps/place/Total+Market/data=!4m7!3m6!1s0x135771807672692b:0xa888f02f868d4f63!8m2!3d40.6889072!4d21.676038!16s%2Fg%2F11h7sx_v1x!19sChIJK2lydoBxVxMRY0-Nhi_wiKg?authuser=0&hl=tr&rclk=1",
    "website_url": "http://www.totalmarket.gr/",
    "rating_text": "4,6",
    "stars": null,
    "number_of_reviews": null,
    "price_level": "",
    "open_hours": "",
    "extraction_timestamp": "2025-06-07T15:26:36.663Z",
    "source_name": "google",
    "source_query": "Irrigation Equipment",
    "source_country": "GR",
    "country": "Greece",
    "state": "West Macedonia Region",
    "city": "Amýntaio"
  },
  {
    "source_id": "ChIJP6mV10R_WBMRmKs2kVzQQL0",
    "name": "ADRITEC EUROPE S.A.",
    "category": "ADRITEC EUROPE S.A.",
    "formatted_address": "4,6(20)",
    "phone_number": "+302410975170",
    "source_url": "https://www.google.com/maps/place/ADRITEC+EUROPE+S.A./data=!4m7!3m6!1s0x13587f44d795a93f:0xbd40d05c9136ab98!8m2!3d39.6762619!4d22.5489292!16s%2Fg%2F11_qtp7mx!19sChIJP6mV10R_WBMRmKs2kVzQQL0?authuser=0&hl=tr&rclk=1",
    "website_url": "https://www.adriteceurope.gr/",
    "rating_text": "4,6",
    "stars": null,
    "number_of_reviews": null,
    "price_level": "",
    "open_hours": "",
    "extraction_timestamp": "2025-06-07T15:26:36.665Z",
    "source_name": "google",
    "source_query": "Irrigation Equipment",
    "source_country": "GR",
    "country": "Greece",
    "state": "West Macedonia Region",
    "city": "Amýntaio"
  },
  {
    "source_id": "ChIJAeGAD1xxVxMRZhwzDUcz2CU",
    "name": "Πρόοδος Market",
    "category": "Πρόοδος Market",
    "formatted_address": "4,7(99)",
    "phone_number": "+302386022856",
    "source_url": "https://www.google.com/maps/place/%CE%A0%CF%81%CF%8C%CE%BF%CE%B4%CE%BF%CF%82+Market/data=!4m7!3m6!1s0x1357715c0f80e101:0x25d833470d331c66!8m2!3d40.6901469!4d21.6805818!16s%2Fg%2F11g2xln7h5!19sChIJAeGAD1xxVxMRZhwzDUcz2CU?authuser=0&hl=tr&rclk=1",
    "website_url": "",
    "rating_text": "4,7",
    "stars": null,
    "number_of_reviews": null,
    "price_level": "",
    "open_hours": "",
    "extraction_timestamp": "2025-06-07T15:26:36.667Z",
    "source_name": "google",
    "source_query": "Irrigation Equipment",
    "source_country": "GR",
    "country": "Greece",
    "state": "West Macedonia Region",
    "city": "Amýntaio"
  },
  {
    "source_id": "ChIJp9W0mGOuoRQRcFupHUAUUcs",
    "name": "Saba Sole Shareholder Co. Ltd",
    "category": "Saba Sole Shareholder Co. Ltd",
    "formatted_address": "5,0(1)",
    "phone_number": "+302105562495",
    "source_url": "https://www.google.com/maps/place/Saba+Sole+Shareholder+Co.+Ltd/data=!4m7!3m6!1s0x14a1ae6398b4d5a7:0xcb5114401da95b70!8m2!3d38.0798304!4d23.4928611!16s%2Fg%2F11gz7hxq6!19sChIJp9W0mGOuoRQRcFupHUAUUcs?authuser=0&hl=tr&rclk=1",
    "website_url": "http://watersprinklers.eu/en/",
    "rating_text": "5,0",
    "stars": null,
    "number_of_reviews": null,
    "price_level": "",
    "open_hours": "",
    "extraction_timestamp": "2025-06-07T15:26:36.668Z",
    "source_name": "google",
    "source_query": "Irrigation Equipment",
    "source_country": "GR",
    "country": "Greece",
    "state": "West Macedonia Region",
    "city": "Amýntaio"
  },
  {
    "source_id": "ChIJf16DYvpxVxMRwdOjQ0rbPiA",
    "name": "ΚΡΗΤΙΚΟΣ Super market",
    "category": "ΚΡΗΤΙΚΟΣ Super market",
    "formatted_address": "4,4(70)",
    "phone_number": "+302386024344",
    "source_url": "https://www.google.com/maps/place/%CE%9A%CE%A1%CE%97%CE%A4%CE%99%CE%9A%CE%9F%CE%A3+Super+market/data=!4m7!3m6!1s0x135771fa62835e7f:0x203edb4a43a3d3c1!8m2!3d40.6913053!4d21.6771719!16s%2Fg%2F11gbfdycwt!19sChIJf16DYvpxVxMRwdOjQ0rbPiA?authuser=0&hl=tr&rclk=1",
    "website_url": "http://www.kritikos-sm.gr/",
    "rating_text": "4,4",
    "stars": null,
    "number_of_reviews": null,
    "price_level": "",
    "open_hours": "",
    "extraction_timestamp": "2025-06-07T15:26:36.670Z",
    "source_name": "google",
    "source_query": "Irrigation Equipment",
    "source_country": "GR",
    "country": "Greece",
    "state": "West Macedonia Region",
    "city": "Amýntaio"
  },
  {
    "source_id": "ChIJdYGHPD8lqBQRqZQqWivtcXs",
    "name": "AGRODRIP S.A.",
    "category": "AGRODRIP S.A.",
    "formatted_address": "4,8(25)",
    "phone_number": "+302310796731",
    "source_url": "https://www.google.com/maps/place/AGRODRIP+S.A./data=!4m7!3m6!1s0x14a8253f3c878175:0x7b71ed2b5a2a94a9!8m2!3d40.6845245!4d22.7916908!16s%2Fg%2F1hf2l336l!19sChIJdYGHPD8lqBQRqZQqWivtcXs?authuser=0&hl=tr&rclk=1",
    "website_url": "http://www.agrodrip.gr/",
    "rating_text": "4,8",
    "stars": null,
    "number_of_reviews": null,
    "price_level": "",
    "open_hours": "",
    "extraction_timestamp": "2025-06-07T15:26:36.673Z",
    "source_name": "google",
    "source_query": "Irrigation Equipment",
    "source_country": "GR",
    "country": "Greece",
    "state": "West Macedonia Region",
    "city": "Amýntaio"
  },
  {
    "source_id": "ChIJh0IN5PlxVxMRQTOD8-pmFR0",
    "name": "Στεγαστρα",
    "category": "Στεγαστρα",
    "formatted_address": "4,1(8)",
    "phone_number": "+302386024144",
    "source_url": "https://www.google.com/maps/place/%CE%A3%CF%84%CE%B5%CE%B3%CE%B1%CF%83%CF%84%CF%81%CE%B1/data=!4m7!3m6!1s0x135771f9e40d4287:0x1d1566eaf3833341!8m2!3d40.6905094!4d21.6796426!16s%2Fg%2F1pv6yjp1n!19sChIJh0IN5PlxVxMRQTOD8-pmFR0?authuser=0&hl=tr&rclk=1",
    "website_url": "",
    "rating_text": "4,1",
    "stars": null,
    "number_of_reviews": null,
    "price_level": "",
    "open_hours": "",
    "extraction_timestamp": "2025-06-07T15:26:36.675Z",
    "source_name": "google",
    "source_query": "Irrigation Equipment",
    "source_country": "GR",
    "country": "Greece",
    "state": "West Macedonia Region",
    "city": "Amýntaio"
  },
  {
    "source_id": "ChIJZzHlBpxxVxMRIl-eNfR3eCM",
    "name": "Mercado Cafe bar",
    "category": "Mercado Cafe bar",
    "formatted_address": "5,0(8)",
    "phone_number": "+302386024303",
    "source_url": "https://www.google.com/maps/place/Mercado+Cafe+bar/data=!4m7!3m6!1s0x1357719c06e53167:0x237877f4359e5f22!8m2!3d40.6908151!4d21.6804748!16s%2Fg%2F11x0f2t63l!19sChIJZzHlBpxxVxMRIl-eNfR3eCM?authuser=0&hl=tr&rclk=1",
    "website_url": "https://www.instagram.com/",
    "rating_text": "5,0",
    "stars": null,
    "number_of_reviews": null,
    "price_level": "",
    "open_hours": "",
    "extraction_timestamp": "2025-06-07T15:26:36.676Z",
    "source_name": "google",
    "source_query": "Irrigation Equipment",
    "source_country": "GR",
    "country": "Greece",
    "state": "West Macedonia Region",
    "city": "Amýntaio"
  },
  {
    "source_id": "ChIJhWjwfsIVVBMRRLnszbZbxUk",
    "name": "Irrigationpro",
    "category": "Irrigationpro",
    "formatted_address": "5,0(1)",
    "phone_number": "+38970401147",
    "source_url": "https://www.google.com/maps/place/Irrigationpro/data=!4m7!3m6!1s0x135415c27ef06885:0x49c55bb6cdecb944!8m2!3d41.9907145!4d21.4371336!16s%2Fg%2F11h27mkf2n!19sChIJhWjwfsIVVBMRRLnszbZbxUk?authuser=0&hl=tr&rclk=1",
    "website_url": "http://www.irrigationpro.mk/",
    "rating_text": "5,0",
    "stars": null,
    "number_of_reviews": null,
    "price_level": "",
    "open_hours": "",
    "extraction_timestamp": "2025-06-07T15:26:36.678Z",
    "source_name": "google",
    "source_query": "Irrigation Equipment",
    "source_country": "GR",
    "country": "Greece",
    "state": "West Macedonia Region",
    "city": "Amýntaio"
  },
  {
    "source_id": "ChIJE8Ur0OhxVxMRlnTGa5nnk24",
    "name": "Lidl",
    "category": "Lidl",
    "formatted_address": "4,2(479)",
    "phone_number": "+302311768568",
    "source_url": "https://www.google.com/maps/place/Lidl/data=!4m7!3m6!1s0x135771e8d02bc513:0x6e93e7996bc67496!8m2!3d40.6830598!4d21.6807007!16s%2Fg%2F12hz3hvh0!19sChIJE8Ur0OhxVxMRlnTGa5nnk24?authuser=0&hl=tr&rclk=1",
    "website_url": "https://www.lidl-hellas.gr/",
    "rating_text": "4,2",
    "stars": null,
    "number_of_reviews": null,
    "price_level": "",
    "open_hours": "",
    "extraction_timestamp": "2025-06-07T15:26:36.680Z",
    "source_name": "google",
    "source_query": "Irrigation Equipment",
    "source_country": "GR",
    "country": "Greece",
    "state": "West Macedonia Region",
    "city": "Amýntaio"
  },
  {
    "source_id": "ChIJkXf6gfpxVxMR2z9qKEc2iBc",
    "name": "Ζαχαροπλαστεία ''Ρωμανίδης''",
    "category": "Ζαχαροπλαστεία ''Ρωμανίδης''",
    "formatted_address": "4,5(61)",
    "phone_number": "+302386022888",
    "source_url": "https://www.google.com/maps/place/%CE%96%CE%B1%CF%87%CE%B1%CF%81%CE%BF%CF%80%CE%BB%CE%B1%CF%83%CF%84%CE%B5%CE%AF%CE%B1+%27%27%CE%A1%CF%89%CE%BC%CE%B1%CE%BD%CE%AF%CE%B4%CE%B7%CF%82%27%27/data=!4m7!3m6!1s0x135771fa81fa7791:0x17883647286a3fdb!8m2!3d40.6909062!4d21.6780082!16s%2Fg%2F11fy_qhwx_!19sChIJkXf6gfpxVxMR2z9qKEc2iBc?authuser=0&hl=tr&rclk=1",
    "website_url": "",
    "rating_text": "4,5",
    "stars": null,
    "number_of_reviews": null,
    "price_level": "",
    "open_hours": "",
    "extraction_timestamp": "2025-06-07T15:26:36.682Z",
    "source_name": "google",
    "source_query": "Irrigation Equipment",
    "source_country": "GR",
    "country": "Greece",
    "state": "West Macedonia Region",
    "city": "Amýntaio"
  },
  {
    "source_id": "ChIJTX8kXPBxVxMR-Ijh1IvUK1k",
    "name": "Coffee Island",
    "category": "Coffee Island",
    "formatted_address": "4,6(236) · €1–5",
    "phone_number": "+302386023670",
    "source_url": "https://www.google.com/maps/place/Coffee+Island/data=!4m7!3m6!1s0x135771f05c247f4d:0x592bd48bd4e188f8!8m2!3d40.6908334!4d21.6785785!16s%2Fg%2F11hbfhp658!19sChIJTX8kXPBxVxMR-Ijh1IvUK1k?authuser=0&hl=tr&rclk=1",
    "website_url": "https://www.coffeeisland.gr/catalog/view/452-ag-konstantinou-elenis-sq-amyntaio?utm_campaign=google_reserve_place_order_action&utm_medium=organic&utm_source=google",
    "rating_text": "4,6",
    "stars": null,
    "number_of_reviews": null,
    "price_level": "",
    "open_hours": "",
    "extraction_timestamp": "2025-06-07T15:26:36.684Z",
    "source_name": "google",
    "source_query": "Irrigation Equipment",
    "source_country": "GR",
    "country": "Greece",
    "state": "West Macedonia Region",
    "city": "Amýntaio"
  },
  {
    "source_id": "ChIJ06T3ONRxVxMRHq_IGBFPmcw",
    "name": "Mikel Coffee",
    "category": "Mikel Coffee",
    "formatted_address": "4,1(96) · €1–5",
    "phone_number": "+302386022911",
    "source_url": "https://www.google.com/maps/place/Mikel+Coffee/data=!4m7!3m6!1s0x135771d438f7a4d3:0xcc994f1118c8af1e!8m2!3d40.6908788!4d21.6784206!16s%2Fg%2F11sm70z1wl!19sChIJ06T3ONRxVxMRHq_IGBFPmcw?authuser=0&hl=tr&rclk=1",
    "website_url": "http://www.mikelcoffee.com/",
    "rating_text": "4,1",
    "stars": null,
    "number_of_reviews": null,
    "price_level": "",
    "open_hours": "",
    "extraction_timestamp": "2025-06-07T15:26:36.686Z",
    "source_name": "google",
    "source_query": "Irrigation Equipment",
    "source_country": "GR",
    "country": "Greece",
    "state": "West Macedonia Region",
    "city": "Amýntaio"
  }
]
