[
  {
    "source_id": "ChIJVXGkJkD7WRMRP3dFgXmdR30",
    "name": "ΒΟΥΝΟ & ΠΟΔΗΛΑΤΟ - Παρίντας Γιώργος",
    "category": "ΒΟΥΝΟ & ΠΟΔΗΛΑΤΟ - Παρίντας Γιώργος",
    "formatted_address": "5,0(6)",
    "phone_number": "+302467043360",
    "source_url": "https://www.google.com/maps/place/%CE%92%CE%9F%CE%A5%CE%9D%CE%9F+%26+%CE%A0%CE%9F%CE%94%CE%97%CE%9B%CE%91%CE%A4%CE%9F+-+%CE%A0%CE%B1%CF%81%CE%AF%CE%BD%CF%84%CE%B1%CF%82+%CE%93%CE%B9%CF%8E%CF%81%CE%B3%CE%BF%CF%82/data=!4m7!3m6!1s0x1359fb4026a47155:0x7d479d798145773f!8m2!3d40.4509631!4d21.2608835!16s%2Fg%2F11gbpc23n6!19sChIJVXGkJkD7WRMRP3dFgXmdR30?authuser=0&hl=tr&rclk=1",
    "website_url": "http://www.facebook.com/podilata.parintas/",
    "rating_text": "5,0",
    "stars": null,
    "number_of_reviews": null,
    "price_level": "",
    "open_hours": "",
    "extraction_timestamp": "2025-06-07T15:25:59.835Z",
    "source_name": "google",
    "source_query": "Irrigation Equipment",
    "source_country": "GR",
    "country": "Greece",
    "state": "West Macedonia Region",
    "city": "Argos Orestiko"
  },
  {
    "source_id": "ChIJO4TG9z_7WRMRdg0w-1LdY2M",
    "name": "SUPER ΠΕΡΙΠΤΕΡΑΚΙ",
    "category": "SUPER ΠΕΡΙΠΤΕΡΑΚΙ",
    "formatted_address": "4,9(131)",
    "phone_number": "",
    "source_url": "https://www.google.com/maps/place/SUPER+%CE%A0%CE%95%CE%A1%CE%99%CE%A0%CE%A4%CE%95%CE%A1%CE%91%CE%9A%CE%99/data=!4m7!3m6!1s0x1359fb3ff7c6843b:0x6363dd52fb300d76!8m2!3d40.4491627!4d21.2615126!16s%2Fg%2F11g6xq361c!19sChIJO4TG9z_7WRMRdg0w-1LdY2M?authuser=0&hl=tr&rclk=1",
    "website_url": "https://www.facebook.com/super.peripteraki/",
    "rating_text": "4,9",
    "stars": null,
    "number_of_reviews": null,
    "price_level": "",
    "open_hours": "",
    "extraction_timestamp": "2025-06-07T15:25:59.837Z",
    "source_name": "google",
    "source_query": "Irrigation Equipment",
    "source_country": "GR",
    "country": "Greece",
    "state": "West Macedonia Region",
    "city": "Argos Orestiko"
  },
  {
    "source_id": "ChIJud5p1mr7WRMRjMM5cCjhJc4",
    "name": "taergaleiamou.gr",
    "category": "taergaleiamou.gr",
    "formatted_address": "5,0(31)",
    "phone_number": "+302467305031",
    "source_url": "https://www.google.com/maps/place/taergaleiamou.gr/data=!4m7!3m6!1s0x1359fb6ad669deb9:0xce25e1287039c38c!8m2!3d40.4503519!4d21.257798!16s%2Fg%2F11bzx36wf0!19sChIJud5p1mr7WRMRjMM5cCjhJc4?authuser=0&hl=tr&rclk=1",
    "website_url": "https://www.taergaleiamou.gr/",
    "rating_text": "5,0",
    "stars": null,
    "number_of_reviews": null,
    "price_level": "",
    "open_hours": "",
    "extraction_timestamp": "2025-06-07T15:25:59.839Z",
    "source_name": "google",
    "source_query": "Irrigation Equipment",
    "source_country": "GR",
    "country": "Greece",
    "state": "West Macedonia Region",
    "city": "Argos Orestiko"
  },
  {
    "source_id": "ChIJP6mV10R_WBMRmKs2kVzQQL0",
    "name": "ADRITEC EUROPE S.A.",
    "category": "ADRITEC EUROPE S.A.",
    "formatted_address": "4,6(20)",
    "phone_number": "+302410975170",
    "source_url": "https://www.google.com/maps/place/ADRITEC+EUROPE+S.A./data=!4m7!3m6!1s0x13587f44d795a93f:0xbd40d05c9136ab98!8m2!3d39.6762619!4d22.5489292!16s%2Fg%2F11_qtp7mx!19sChIJP6mV10R_WBMRmKs2kVzQQL0?authuser=0&hl=tr&rclk=1",
    "website_url": "https://www.adriteceurope.gr/",
    "rating_text": "4,6",
    "stars": null,
    "number_of_reviews": null,
    "price_level": "",
    "open_hours": "",
    "extraction_timestamp": "2025-06-07T15:25:59.841Z",
    "source_name": "google",
    "source_query": "Irrigation Equipment",
    "source_country": "GR",
    "country": "Greece",
    "state": "West Macedonia Region",
    "city": "Argos Orestiko"
  }
]
