[
  {
    "source_id": "ChIJnRkZtydBVxMRhNLRc7wjbU4",
    "name": "Δαϊρετζής Παντελής",
    "category": "Δαϊρετζής Παντελής",
    "formatted_address": "4,4(7)",
    "phone_number": "+302385024446",
    "source_url": "https://www.google.com/maps/place/%CE%94%CE%B1%CF%8A%CF%81%CE%B5%CF%84%CE%B6%CE%AE%CF%82+%CE%A0%CE%B1%CE%BD%CF%84%CE%B5%CE%BB%CE%AE%CF%82/data=!4m7!3m6!1s0x13574127b719199d:0x4e6d23bc73d1d284!8m2!3d40.7783634!4d21.4110851!16s%2Fg%2F11g073d944!19sChIJnRkZtydBVxMRhNLRc7wjbU4?authuser=0&hl=tr&rclk=1",
    "website_url": "",
    "rating_text": "4,4",
    "stars": null,
    "number_of_reviews": null,
    "price_level": "",
    "open_hours": "",
    "extraction_timestamp": "2025-06-07T15:29:44.364Z",
    "source_name": "google",
    "source_query": "Irrigation Equipment",
    "source_country": "GR",
    "country": "Greece",
    "state": "West Macedonia Region",
    "city": "Flórina"
  },
  {
    "source_id": "ChIJzSqsPeRBVxMRhWULjNkWM30",
    "name": "Πέϊος Αντώνιος \"Θερμοϋδραυλικός\"",
    "category": "Πέϊος Αντώνιος \"Θερμοϋδραυλικός\"",
    "formatted_address": "4,6(11)",
    "phone_number": "+306983483709",
    "source_url": "https://www.google.com/maps/place/%CE%A0%CE%AD%CF%8A%CE%BF%CF%82+%CE%91%CE%BD%CF%84%CF%8E%CE%BD%CE%B9%CE%BF%CF%82+%22%CE%98%CE%B5%CF%81%CE%BC%CE%BF%CF%8B%CE%B4%CF%81%CE%B1%CF%85%CE%BB%CE%B9%CE%BA%CF%8C%CF%82%22/data=!4m7!3m6!1s0x135741e43dac2acd:0x7d3316d98c0b6585!8m2!3d40.7850357!4d21.4179817!16s%2Fg%2F11s5xmwvj8!19sChIJzSqsPeRBVxMRhWULjNkWM30?authuser=0&hl=tr&rclk=1",
    "website_url": "",
    "rating_text": "4,6",
    "stars": null,
    "number_of_reviews": null,
    "price_level": "",
    "open_hours": "",
    "extraction_timestamp": "2025-06-07T15:29:44.365Z",
    "source_name": "google",
    "source_query": "Irrigation Equipment",
    "source_country": "GR",
    "country": "Greece",
    "state": "West Macedonia Region",
    "city": "Flórina"
  },
  {
    "source_id": "ChIJjSOxVRtBVxMRhcjySzFgC-k",
    "name": "SIAMKOURIS",
    "category": "SIAMKOURIS",
    "formatted_address": "4,9(22)",
    "phone_number": "+302385046046",
    "source_url": "https://www.google.com/maps/place/SIAMKOURIS/data=!4m7!3m6!1s0x1357411b55b1238d:0xe90b60314bf2c885!8m2!3d40.784266!4d21.4181002!16s%2Fg%2F1tfh6ts6!19sChIJjSOxVRtBVxMRhcjySzFgC-k?authuser=0&hl=tr&rclk=1",
    "website_url": "",
    "rating_text": "4,9",
    "stars": null,
    "number_of_reviews": null,
    "price_level": "",
    "open_hours": "",
    "extraction_timestamp": "2025-06-07T15:29:44.367Z",
    "source_name": "google",
    "source_query": "Irrigation Equipment",
    "source_country": "GR",
    "country": "Greece",
    "state": "West Macedonia Region",
    "city": "Flórina"
  },
  {
    "source_id": "ChIJC31yx8JBVxMRd4CLenwgikY",
    "name": "X- MOUNTAIN . BIKES AND SKI SHOP. //ΜΠΟΓΔΑΝΗΣ ΒΑΣΙΛΕΙΟΣ",
    "category": "X- MOUNTAIN . BIKES AND SKI SHOP. //ΜΠΟΓΔΑΝΗΣ ΒΑΣΙΛΕΙΟΣ",
    "formatted_address": "4,9(14)",
    "phone_number": "+302385044951",
    "source_url": "https://www.google.com/maps/place/X-+MOUNTAIN+.+BIKES+AND+SKI+SHOP.+%2F%2F%CE%9C%CE%A0%CE%9F%CE%93%CE%94%CE%91%CE%9D%CE%97%CE%A3+%CE%92%CE%91%CE%A3%CE%99%CE%9B%CE%95%CE%99%CE%9F%CE%A3/data=!4m7!3m6!1s0x135741c2c7727d0b:0x468a207c7a8b8077!8m2!3d40.7807109!4d21.4087958!16s%2Fg%2F11h1ybr1n6!19sChIJC31yx8JBVxMRd4CLenwgikY?authuser=0&hl=tr&rclk=1",
    "website_url": "",
    "rating_text": "4,9",
    "stars": null,
    "number_of_reviews": null,
    "price_level": "",
    "open_hours": "",
    "extraction_timestamp": "2025-06-07T15:29:44.368Z",
    "source_name": "google",
    "source_query": "Irrigation Equipment",
    "source_country": "GR",
    "country": "Greece",
    "state": "West Macedonia Region",
    "city": "Flórina"
  },
  {
    "source_id": "ChIJTRhk0hlBVxMRTr16dv5Htjg",
    "name": "Malamas Vasileios",
    "category": "Malamas Vasileios",
    "formatted_address": "4,8(19)",
    "phone_number": "+302385026439",
    "source_url": "https://www.google.com/maps/place/Malamas+Vasileios/data=!4m7!3m6!1s0x13574119d264184d:0x38b647fe767abd4e!8m2!3d40.7808687!4d21.4069302!16s%2Fg%2F11g_wzs1m!19sChIJTRhk0hlBVxMRTr16dv5Htjg?authuser=0&hl=tr&rclk=1",
    "website_url": "",
    "rating_text": "4,8",
    "stars": null,
    "number_of_reviews": null,
    "price_level": "",
    "open_hours": "",
    "extraction_timestamp": "2025-06-07T15:29:44.370Z",
    "source_name": "google",
    "source_query": "Irrigation Equipment",
    "source_country": "GR",
    "country": "Greece",
    "state": "West Macedonia Region",
    "city": "Flórina"
  },
  {
    "source_id": "ChIJ-S2tLDpBVxMRfJDPBnIpaBA",
    "name": "Total Market",
    "category": "Total Market",
    "formatted_address": "4,5(207)",
    "phone_number": "+302385022504",
    "source_url": "https://www.google.com/maps/place/Total+Market/data=!4m7!3m6!1s0x1357413a2cad2df9:0x1068297206cf907c!8m2!3d40.7783296!4d21.3947725!16s%2Fg%2F11g_ydr39!19sChIJ-S2tLDpBVxMRfJDPBnIpaBA?authuser=0&hl=tr&rclk=1",
    "website_url": "",
    "rating_text": "4,5",
    "stars": null,
    "number_of_reviews": null,
    "price_level": "",
    "open_hours": "",
    "extraction_timestamp": "2025-06-07T15:29:44.371Z",
    "source_name": "google",
    "source_query": "Irrigation Equipment",
    "source_country": "GR",
    "country": "Greece",
    "state": "West Macedonia Region",
    "city": "Flórina"
  },
  {
    "source_id": "ChIJS02rX1lBVxMRxvz9YklhVo4",
    "name": "Cielo River Area",
    "category": "Cielo River Area",
    "formatted_address": "4,9(47) · €1–5",
    "phone_number": "+306988580770",
    "source_url": "https://www.google.com/maps/place/Cielo+River+Area/data=!4m7!3m6!1s0x135741595fab4d4b:0x8e56614962fdfcc6!8m2!3d40.7771944!4d21.4036217!16s%2Fg%2F11t6lqvpnx!19sChIJS02rX1lBVxMRxvz9YklhVo4?authuser=0&hl=tr&rclk=1",
    "website_url": "",
    "rating_text": "4,9",
    "stars": null,
    "number_of_reviews": null,
    "price_level": "",
    "open_hours": "",
    "extraction_timestamp": "2025-06-07T15:29:44.373Z",
    "source_name": "google",
    "source_query": "Irrigation Equipment",
    "source_country": "GR",
    "country": "Greece",
    "state": "West Macedonia Region",
    "city": "Flórina"
  },
  {
    "source_id": "ChIJM7gZ8RdBVxMRp-ZHih_KG1c",
    "name": "Total Market",
    "category": "Total Market",
    "formatted_address": "4,5(108)",
    "phone_number": "+302385022155",
    "source_url": "https://www.google.com/maps/place/Total+Market/data=!4m7!3m6!1s0x13574117f119b833:0x571bca1f8a47e6a7!8m2!3d40.7801507!4d21.4047072!16s%2Fg%2F11f1w_3k37!19sChIJM7gZ8RdBVxMRp-ZHih_KG1c?authuser=0&hl=tr&rclk=1",
    "website_url": "",
    "rating_text": "4,5",
    "stars": null,
    "number_of_reviews": null,
    "price_level": "",
    "open_hours": "",
    "extraction_timestamp": "2025-06-07T15:29:44.374Z",
    "source_name": "google",
    "source_query": "Irrigation Equipment",
    "source_country": "GR",
    "country": "Greece",
    "state": "West Macedonia Region",
    "city": "Flórina"
  },
  {
    "source_id": "ChIJz8sotoRBVxMRDHyxOdi5kSc",
    "name": "εμπορια ανταλλακτικων οικιακων συσκευων",
    "category": "εμπορια ανταλλακτικων οικιακων συσκευων",
    "formatted_address": "5,0(1)",
    "phone_number": "+302385023619",
    "source_url": "https://www.google.com/maps/place/%CE%B5%CE%BC%CF%80%CE%BF%CF%81%CE%B9%CE%B1+%CE%B1%CE%BD%CF%84%CE%B1%CE%BB%CE%BB%CE%B1%CE%BA%CF%84%CE%B9%CE%BA%CF%89%CE%BD+%CE%BF%CE%B9%CE%BA%CE%B9%CE%B1%CE%BA%CF%89%CE%BD+%CF%83%CF%85%CF%83%CE%BA%CE%B5%CF%85%CF%89%CE%BD/data=!4m7!3m6!1s0x13574184b628cbcf:0x2791b9d839b17c0c!8m2!3d40.7786341!4d21.4091242!16s%2Fg%2F11j1bzqhrh!19sChIJz8sotoRBVxMRDHyxOdi5kSc?authuser=0&hl=tr&rclk=1",
    "website_url": "",
    "rating_text": "5,0",
    "stars": null,
    "number_of_reviews": null,
    "price_level": "",
    "open_hours": "",
    "extraction_timestamp": "2025-06-07T15:29:44.375Z",
    "source_name": "google",
    "source_query": "Irrigation Equipment",
    "source_country": "GR",
    "country": "Greece",
    "state": "West Macedonia Region",
    "city": "Flórina"
  },
  {
    "source_id": "ChIJzanyXj1BVxMRc4ZHAJ_hrP8",
    "name": "Deuaph",
    "category": "Deuaph",
    "formatted_address": "1,7(19)",
    "phone_number": "+302385024606",
    "source_url": "https://www.google.com/maps/place/Deuaph/data=!4m7!3m6!1s0x1357413d5ef2a9cd:0xfface19f00478673!8m2!3d40.7799948!4d21.4030605!16s%2Fg%2F11bc73rbxx!19sChIJzanyXj1BVxMRc4ZHAJ_hrP8?authuser=0&hl=tr&rclk=1",
    "website_url": "",
    "rating_text": "1,7",
    "stars": null,
    "number_of_reviews": null,
    "price_level": "",
    "open_hours": "",
    "extraction_timestamp": "2025-06-07T15:29:44.377Z",
    "source_name": "google",
    "source_query": "Irrigation Equipment",
    "source_country": "GR",
    "country": "Greece",
    "state": "West Macedonia Region",
    "city": "Flórina"
  },
  {
    "source_id": "ChIJN2oQF-BBVxMRoieEMbCTenQ",
    "name": "Total Market",
    "category": "Total Market",
    "formatted_address": "4,6(112)",
    "phone_number": "+302385045587",
    "source_url": "https://www.google.com/maps/place/Total+Market/data=!4m7!3m6!1s0x135741e017106a37:0x747a93b0318427a2!8m2!3d40.7804914!4d21.4127086!16s%2Fg%2F11gtsd2qhs!19sChIJN2oQF-BBVxMRoieEMbCTenQ?authuser=0&hl=tr&rclk=1",
    "website_url": "",
    "rating_text": "4,6",
    "stars": null,
    "number_of_reviews": null,
    "price_level": "",
    "open_hours": "",
    "extraction_timestamp": "2025-06-07T15:29:44.378Z",
    "source_name": "google",
    "source_query": "Irrigation Equipment",
    "source_country": "GR",
    "country": "Greece",
    "state": "West Macedonia Region",
    "city": "Flórina"
  },
  {
    "source_id": "ChIJl0QJXANBVxMRVfcM3wevLgs",
    "name": "EAS Florina, AGRICULTURAL COOPERATIVE",
    "category": "EAS Florina, AGRICULTURAL COOPERATIVE",
    "formatted_address": "EAS Florina, AGRICULTURAL COOPERATIVE",
    "phone_number": "+302385022322",
    "source_url": "https://www.google.com/maps/place/EAS+Florina,+AGRICULTURAL+COOPERATIVE/data=!4m7!3m6!1s0x135741035c094497:0xb2eaf07df0cf755!8m2!3d40.7835892!4d21.4167127!16s%2Fg%2F12m984w1_!19sChIJl0QJXANBVxMRVfcM3wevLgs?authuser=0&hl=tr&rclk=1",
    "website_url": "",
    "rating_text": "5,0",
    "stars": null,
    "number_of_reviews": null,
    "price_level": "",
    "open_hours": "",
    "extraction_timestamp": "2025-06-07T15:29:44.379Z",
    "source_name": "google",
    "source_query": "Irrigation Equipment",
    "source_country": "GR",
    "country": "Greece",
    "state": "West Macedonia Region",
    "city": "Flórina"
  },
  {
    "source_id": "ChIJp3PBzxlBVxMRGKObSaxmUYQ",
    "name": "SportShopping",
    "category": "SportShopping",
    "formatted_address": "5,0(253)",
    "phone_number": "+302385044727",
    "source_url": "https://www.google.com/maps/place/SportShopping/data=!4m7!3m6!1s0x13574119cfc173a7:0x845166ac499ba318!8m2!3d40.7809885!4d21.407371!16s%2Fg%2F11g8wdd7hv!19sChIJp3PBzxlBVxMRGKObSaxmUYQ?authuser=0&hl=tr&rclk=1",
    "website_url": "",
    "rating_text": "5,0",
    "stars": null,
    "number_of_reviews": null,
    "price_level": "",
    "open_hours": "",
    "extraction_timestamp": "2025-06-07T15:29:44.381Z",
    "source_name": "google",
    "source_query": "Irrigation Equipment",
    "source_country": "GR",
    "country": "Greece",
    "state": "West Macedonia Region",
    "city": "Flórina"
  },
  {
    "source_id": "ChIJx_O7mUJBVxMRxnC-Fqs7M3k",
    "name": "Total Market",
    "category": "Total Market",
    "formatted_address": "4,7(19)",
    "phone_number": "+302385045223",
    "source_url": "https://www.google.com/maps/place/Total+Market/data=!4m7!3m6!1s0x1357414299bbf3c7:0x79333bab16be70c6!8m2!3d40.7824544!4d21.4086741!16s%2Fg%2F11gty1g3gq!19sChIJx_O7mUJBVxMRxnC-Fqs7M3k?authuser=0&hl=tr&rclk=1",
    "website_url": "",
    "rating_text": "4,7",
    "stars": null,
    "number_of_reviews": null,
    "price_level": "",
    "open_hours": "",
    "extraction_timestamp": "2025-06-07T15:29:44.382Z",
    "source_name": "google",
    "source_query": "Irrigation Equipment",
    "source_country": "GR",
    "country": "Greece",
    "state": "West Macedonia Region",
    "city": "Flórina"
  },
  {
    "source_id": "ChIJg7A_2URBVxMRWuVAaM-YNkk",
    "name": "Hall Of Sports",
    "category": "Hall Of Sports",
    "formatted_address": "5,0(9)",
    "phone_number": "+302385026646",
    "source_url": "https://www.google.com/maps/place/Hall+Of+Sports/data=!4m7!3m6!1s0x13574144d93fb083:0x493698cf6840e55a!8m2!3d40.7803686!4d21.408679!16s%2Fg%2F11h8csjrx6!19sChIJg7A_2URBVxMRWuVAaM-YNkk?authuser=0&hl=tr&rclk=1",
    "website_url": "",
    "rating_text": "5,0",
    "stars": null,
    "number_of_reviews": null,
    "price_level": "",
    "open_hours": "",
    "extraction_timestamp": "2025-06-07T15:29:44.383Z",
    "source_name": "google",
    "source_query": "Irrigation Equipment",
    "source_country": "GR",
    "country": "Greece",
    "state": "West Macedonia Region",
    "city": "Flórina"
  },
  {
    "source_id": "ChIJawvfLQNBVxMRqcKQT61uZQE",
    "name": "O Mpakalogatos",
    "category": "O Mpakalogatos",
    "formatted_address": "4,7(45)",
    "phone_number": "+302385503017",
    "source_url": "https://www.google.com/maps/place/O+Mpakalogatos/data=!4m7!3m6!1s0x135741032ddf0b6b:0x1656ead4f90c2a9!8m2!3d40.7853109!4d21.4160001!16s%2Fg%2F11bxgbng2b!19sChIJawvfLQNBVxMRqcKQT61uZQE?authuser=0&hl=tr&rclk=1",
    "website_url": "",
    "rating_text": "4,7",
    "stars": null,
    "number_of_reviews": null,
    "price_level": "",
    "open_hours": "",
    "extraction_timestamp": "2025-06-07T15:29:44.384Z",
    "source_name": "google",
    "source_query": "Irrigation Equipment",
    "source_country": "GR",
    "country": "Greece",
    "state": "West Macedonia Region",
    "city": "Flórina"
  },
  {
    "source_id": "ChIJk-vfiz1BVxMR4tUlq2tPSKs",
    "name": "7ης Cafe",
    "category": "7ης Cafe",
    "formatted_address": "4,7(160) · €1–5",
    "phone_number": "+302385026024",
    "source_url": "https://www.google.com/maps/place/7%CE%B7%CF%82+Cafe/data=!4m7!3m6!1s0x1357413d8bdfeb93:0xab484f6bab25d5e2!8m2!3d40.7835993!4d21.4158441!16s%2Fg%2F11gxn0dlvk!19sChIJk-vfiz1BVxMR4tUlq2tPSKs?authuser=0&hl=tr&rclk=1",
    "website_url": "",
    "rating_text": "4,7",
    "stars": null,
    "number_of_reviews": null,
    "price_level": "",
    "open_hours": "",
    "extraction_timestamp": "2025-06-07T15:29:44.387Z",
    "source_name": "google",
    "source_query": "Irrigation Equipment",
    "source_country": "GR",
    "country": "Greece",
    "state": "West Macedonia Region",
    "city": "Flórina"
  },
  {
    "source_id": "ChIJP1vbqIlBVxMRGV54XUTNSAU",
    "name": "Florina New Park Cafe",
    "category": "Florina New Park Cafe",
    "formatted_address": "4,4(29) · €1–10",
    "phone_number": "+302385028747",
    "source_url": "https://www.google.com/maps/place/Florina+New+Park+Cafe/data=!4m7!3m6!1s0x13574189a8db5b3f:0x548cd445d785e19!8m2!3d40.7819583!4d21.4095422!16s%2Fg%2F11q7bhl7xn!19sChIJP1vbqIlBVxMRGV54XUTNSAU?authuser=0&hl=tr&rclk=1",
    "website_url": "",
    "rating_text": "4,4",
    "stars": null,
    "number_of_reviews": null,
    "price_level": "",
    "open_hours": "",
    "extraction_timestamp": "2025-06-07T15:29:44.388Z",
    "source_name": "google",
    "source_query": "Irrigation Equipment",
    "source_country": "GR",
    "country": "Greece",
    "state": "West Macedonia Region",
    "city": "Flórina"
  },
  {
    "source_id": "ChIJGXgSALhBVxMR0vppq9Bu-Ws",
    "name": "Dash coffee & more Φλώρινα",
    "category": "Dash coffee & more Φλώρινα",
    "formatted_address": "4,7(88) · €1–5",
    "phone_number": "+302385022555",
    "source_url": "https://www.google.com/maps/place/Dash+coffee+%26+more+%CE%A6%CE%BB%CF%8E%CF%81%CE%B9%CE%BD%CE%B1/data=!4m7!3m6!1s0x135741b800127819:0x6bf96ed0ab69fad2!8m2!3d40.7809979!4d21.4074056!16s%2Fg%2F11lkxx2tb0!19sChIJGXgSALhBVxMR0vppq9Bu-Ws?authuser=0&hl=tr&rclk=1",
    "website_url": "",
    "rating_text": "4,7",
    "stars": null,
    "number_of_reviews": null,
    "price_level": "",
    "open_hours": "",
    "extraction_timestamp": "2025-06-07T15:29:44.389Z",
    "source_name": "google",
    "source_query": "Irrigation Equipment",
    "source_country": "GR",
    "country": "Greece",
    "state": "West Macedonia Region",
    "city": "Flórina"
  },
  {
    "source_id": "ChIJL5YhYFBAVxMR7RBYHt29p24",
    "name": "ΑΒ Βασιλόπουλος",
    "category": "ΑΒ Βασιλόπουλος",
    "formatted_address": "4,4(370)",
    "phone_number": "+302385044713",
    "source_url": "https://www.google.com/maps/place/%CE%91%CE%92+%CE%92%CE%B1%CF%83%CE%B9%CE%BB%CF%8C%CF%80%CE%BF%CF%85%CE%BB%CE%BF%CF%82/data=!4m7!3m6!1s0x135740506021962f:0x6ea7bddd1e5810ed!8m2!3d40.7929267!4d21.4364681!16s%2Fg%2F11c5hjmp5k!19sChIJL5YhYFBAVxMR7RBYHt29p24?authuser=0&hl=tr&rclk=1",
    "website_url": "",
    "rating_text": "4,4",
    "stars": null,
    "number_of_reviews": null,
    "price_level": "",
    "open_hours": "",
    "extraction_timestamp": "2025-06-07T15:29:44.391Z",
    "source_name": "google",
    "source_query": "Irrigation Equipment",
    "source_country": "GR",
    "country": "Greece",
    "state": "West Macedonia Region",
    "city": "Flórina"
  },
  {
    "source_id": "ChIJLQ_Y6xdBVxMRYw2BwspJqYA",
    "name": "Sklavenitis",
    "category": "Sklavenitis",
    "formatted_address": "4,4(423)",
    "phone_number": "+302385044137",
    "source_url": "https://www.google.com/maps/place/Sklavenitis/data=!4m7!3m6!1s0x13574117ebd80f2d:0x80a949cac2810d63!8m2!3d40.7795328!4d21.4049119!16s%2Fg%2F11dym4gq1t!19sChIJLQ_Y6xdBVxMRYw2BwspJqYA?authuser=0&hl=tr&rclk=1",
    "website_url": "",
    "rating_text": "4,4",
    "stars": null,
    "number_of_reviews": null,
    "price_level": "",
    "open_hours": "",
    "extraction_timestamp": "2025-06-07T15:29:44.392Z",
    "source_name": "google",
    "source_query": "Irrigation Equipment",
    "source_country": "GR",
    "country": "Greece",
    "state": "West Macedonia Region",
    "city": "Flórina"
  },
  {
    "source_id": "ChIJgXjKaxhBVxMRVtq3WU0l-rY",
    "name": "Masoutis",
    "category": "Masoutis",
    "formatted_address": "4,4(157)",
    "phone_number": "+302385028468",
    "source_url": "https://www.google.com/maps/place/Masoutis/data=!4m7!3m6!1s0x135741186bca7881:0xb6fa254d59b7da56!8m2!3d40.7822571!4d21.4139439!16s%2Fg%2F11cn6kqw6l!19sChIJgXjKaxhBVxMRVtq3WU0l-rY?authuser=0&hl=tr&rclk=1",
    "website_url": "",
    "rating_text": "4,4",
    "stars": null,
    "number_of_reviews": null,
    "price_level": "",
    "open_hours": "",
    "extraction_timestamp": "2025-06-07T15:29:44.393Z",
    "source_name": "google",
    "source_query": "Irrigation Equipment",
    "source_country": "GR",
    "country": "Greece",
    "state": "West Macedonia Region",
    "city": "Flórina"
  },
  {
    "source_id": "ChIJ36e_hPxBVxMR24IJyWom3Vo",
    "name": "Καραδίσογλου Ελευθέριος ΓΕΩΛΟΓΟΣ - ΠΕΡΙΒΑΛΛΟΝΤΟΛΟΓΟΣ",
    "category": "Καραδίσογλου Ελευθέριος ΓΕΩΛΟΓΟΣ - ΠΕΡΙΒΑΛΛΟΝΤΟΛΟΓΟΣ",
    "formatted_address": "",
    "phone_number": "+306947800192",
    "source_url": "https://www.google.com/maps/place/%CE%9A%CE%B1%CF%81%CE%B1%CE%B4%CE%AF%CF%83%CE%BF%CE%B3%CE%BB%CE%BF%CF%85+%CE%95%CE%BB%CE%B5%CF%85%CE%B8%CE%AD%CF%81%CE%B9%CE%BF%CF%82+%CE%93%CE%95%CE%A9%CE%9B%CE%9F%CE%93%CE%9F%CE%A3+-+%CE%A0%CE%95%CE%A1%CE%99%CE%92%CE%91%CE%9B%CE%9B%CE%9F%CE%9D%CE%A4%CE%9F%CE%9B%CE%9F%CE%93%CE%9F%CE%A3/data=!4m7!3m6!1s0x135741fc84bfa7df:0x5add266ac90982db!8m2!3d40.780557!4d21.4095333!16s%2Fg%2F11q1q4mxjy!19sChIJ36e_hPxBVxMR24IJyWom3Vo?authuser=0&hl=tr&rclk=1",
    "website_url": "",
    "rating_text": "",
    "stars": null,
    "number_of_reviews": null,
    "price_level": "",
    "open_hours": "",
    "extraction_timestamp": "2025-06-07T15:29:44.395Z",
    "source_name": "google",
    "source_query": "Irrigation Equipment",
    "source_country": "GR",
    "country": "Greece",
    "state": "West Macedonia Region",
    "city": "Flórina"
  },
  {
    "source_id": "ChIJTT3I59JBVxMRHvBALQfhdVo",
    "name": "Το Διατηρητέο",
    "category": "Το Διατηρητέο",
    "formatted_address": "4,7(282) · €15–25",
    "phone_number": "+306980850970",
    "source_url": "https://www.google.com/maps/place/%CE%A4%CE%BF+%CE%94%CE%B9%CE%B1%CF%84%CE%B7%CF%81%CE%B7%CF%84%CE%AD%CE%BF/data=!4m7!3m6!1s0x135741d2e7c83d4d:0x5a75e1072d40f01e!8m2!3d40.7780914!4d21.4066804!16s%2Fg%2F11rxvt15t1!19sChIJTT3I59JBVxMRHvBALQfhdVo?authuser=0&hl=tr&rclk=1",
    "website_url": "",
    "rating_text": "4,7",
    "stars": null,
    "number_of_reviews": null,
    "price_level": "",
    "open_hours": "",
    "extraction_timestamp": "2025-06-07T15:29:44.397Z",
    "source_name": "google",
    "source_query": "Irrigation Equipment",
    "source_country": "GR",
    "country": "Greece",
    "state": "West Macedonia Region",
    "city": "Flórina"
  },
  {
    "source_id": "ChIJO-9nkmBBVxMRb-DeQRWQ7yw",
    "name": "Peripteráki",
    "category": "Peripteráki",
    "formatted_address": "5,0(4)",
    "phone_number": "+302385029773",
    "source_url": "https://www.google.com/maps/place/Peripter%C3%A1ki/data=!4m7!3m6!1s0x135741609267ef3b:0x2cef901541dee06f!8m2!3d40.7797752!4d21.4057855!16s%2Fg%2F11fkm81hfc!19sChIJO-9nkmBBVxMRb-DeQRWQ7yw?authuser=0&hl=tr&rclk=1",
    "website_url": "",
    "rating_text": "5,0",
    "stars": null,
    "number_of_reviews": null,
    "price_level": "",
    "open_hours": "",
    "extraction_timestamp": "2025-06-07T15:29:44.398Z",
    "source_name": "google",
    "source_query": "Irrigation Equipment",
    "source_country": "GR",
    "country": "Greece",
    "state": "West Macedonia Region",
    "city": "Flórina"
  },
  {
    "source_id": "ChIJC686xeBBVxMRykLjYaxo4WY",
    "name": "ΚΡΗΤΙΚΟΣ Cash & Carru",
    "category": "ΚΡΗΤΙΚΟΣ Cash & Carru",
    "formatted_address": "4,8(10)",
    "phone_number": "+302385044455",
    "source_url": "https://www.google.com/maps/place/%CE%9A%CE%A1%CE%97%CE%A4%CE%99%CE%9A%CE%9F%CE%A3+Cash+%26+Carru/data=!4m7!3m6!1s0x135741e0c53aaf0b:0x66e168ac61e342ca!8m2!3d40.7937711!4d21.4355554!16s%2Fg%2F11kxkbmgfj!19sChIJC686xeBBVxMRykLjYaxo4WY?authuser=0&hl=tr&rclk=1",
    "website_url": "",
    "rating_text": "4,8",
    "stars": null,
    "number_of_reviews": null,
    "price_level": "",
    "open_hours": "",
    "extraction_timestamp": "2025-06-07T15:29:44.399Z",
    "source_name": "google",
    "source_query": "Irrigation Equipment",
    "source_country": "GR",
    "country": "Greece",
    "state": "West Macedonia Region",
    "city": "Flórina"
  },
  {
    "source_id": "ChIJRfS9W8FBVxMRGHi-0VS73g0",
    "name": "θερμοϋδραυλικός Κισκας",
    "category": "θερμοϋδραυλικός Κισκας",
    "formatted_address": "",
    "phone_number": "+306981003798",
    "source_url": "https://www.google.com/maps/place/%CE%B8%CE%B5%CF%81%CE%BC%CE%BF%CF%8B%CE%B4%CF%81%CE%B1%CF%85%CE%BB%CE%B9%CE%BA%CF%8C%CF%82+%CE%9A%CE%B9%CF%83%CE%BA%CE%B1%CF%82/data=!4m7!3m6!1s0x135741c15bbdf445:0xddebb54d1be7818!8m2!3d40.7887494!4d21.413656!16s%2Fg%2F11w85f7w3f!19sChIJRfS9W8FBVxMRGHi-0VS73g0?authuser=0&hl=tr&rclk=1",
    "website_url": "",
    "rating_text": "",
    "stars": null,
    "number_of_reviews": null,
    "price_level": "",
    "open_hours": "",
    "extraction_timestamp": "2025-06-07T15:29:44.408Z",
    "source_name": "google",
    "source_query": "Irrigation Equipment",
    "source_country": "GR",
    "country": "Greece",
    "state": "West Macedonia Region",
    "city": "Flórina"
  },
  {
    "source_id": "ChIJ6VpwWBdBVxMRyGAKgaZay9U",
    "name": "Sklavenitis",
    "category": "Sklavenitis",
    "formatted_address": "4,4(92)",
    "phone_number": "+302385044360",
    "source_url": "https://www.google.com/maps/place/Sklavenitis/data=!4m7!3m6!1s0x1357411758705ae9:0xd5cb5aa6810a60c8!8m2!3d40.7801959!4d21.4086806!16s%2Fg%2F11dywsz0v4!19sChIJ6VpwWBdBVxMRyGAKgaZay9U?authuser=0&hl=tr&rclk=1",
    "website_url": "",
    "rating_text": "4,4",
    "stars": null,
    "number_of_reviews": null,
    "price_level": "",
    "open_hours": "",
    "extraction_timestamp": "2025-06-07T15:29:44.409Z",
    "source_name": "google",
    "source_query": "Irrigation Equipment",
    "source_country": "GR",
    "country": "Greece",
    "state": "West Macedonia Region",
    "city": "Flórina"
  },
  {
    "source_id": "ChIJlabUSqdBVxMRGSfFqfJ3RWw",
    "name": "Oh Bear Boutique",
    "category": "Oh Bear Boutique",
    "formatted_address": "5,0(83)",
    "phone_number": "+302385045452",
    "source_url": "https://www.google.com/maps/place/Oh+Bear+Boutique/data=!4m7!3m6!1s0x135741a74ad4a695:0x6c4577f2a9c52719!8m2!3d40.7786825!4d21.4054641!16s%2Fg%2F11std_bnh5!19sChIJlabUSqdBVxMRGSfFqfJ3RWw?authuser=0&hl=tr&rclk=1",
    "website_url": "",
    "rating_text": "5,0",
    "stars": null,
    "number_of_reviews": null,
    "price_level": "",
    "open_hours": "",
    "extraction_timestamp": "2025-06-07T15:29:44.411Z",
    "source_name": "google",
    "source_query": "Irrigation Equipment",
    "source_country": "GR",
    "country": "Greece",
    "state": "West Macedonia Region",
    "city": "Flórina"
  }
]
