[
  {
    "source_id": "ChIJ86yk3KqXWRMRrg1--33tw6M",
    "name": "Θέρμανση - Υδραυλικά Στεργιούλας",
    "category": "Θέρμανση - Υδραυλικά Στεργιούλας",
    "formatted_address": "5,0(23)",
    "phone_number": "+306945623816",
    "source_url": "https://www.google.com/maps/place/%CE%98%CE%AD%CF%81%CE%BC%CE%B1%CE%BD%CF%83%CE%B7+-+%CE%A5%CE%B4%CF%81%CE%B1%CF%85%CE%BB%CE%B9%CE%BA%CE%AC+%CE%A3%CF%84%CE%B5%CF%81%CE%B3%CE%B9%CE%BF%CF%8D%CE%BB%CE%B1%CF%82/data=!4m7!3m6!1s0x135997aadca4acf3:0xa3c3ed7dfb7e0dae!8m2!3d40.0838939!4d21.4297662!16s%2Fg%2F11gbk2wcfm!19sChIJ86yk3KqXWRMRrg1--33tw6M?authuser=0&hl=tr&rclk=1",
    "website_url": "",
    "rating_text": "5,0",
    "stars": null,
    "number_of_reviews": null,
    "price_level": "",
    "open_hours": "",
    "extraction_timestamp": "2025-06-07T15:34:43.454Z",
    "source_name": "google",
    "source_query": "Irrigation Equipment",
    "source_country": "GR",
    "country": "Greece",
    "state": "West Macedonia Region",
    "city": "Grevená"
  },
  {
    "source_id": "ChIJkSg4_A6XWRMRQAr3M3ccFPM",
    "name": "ΠΛΑΤΣΑΤΟΥΡΑΣ ΘΕΟΔΩΡΟΣ ΒΑΣΙΛΕΙΟΣ",
    "category": "ΠΛΑΤΣΑΤΟΥΡΑΣ ΘΕΟΔΩΡΟΣ ΒΑΣΙΛΕΙΟΣ",
    "formatted_address": "5,0(12)",
    "phone_number": "+302462080332",
    "source_url": "https://www.google.com/maps/place/%CE%A0%CE%9B%CE%91%CE%A4%CE%A3%CE%91%CE%A4%CE%9F%CE%A5%CE%A1%CE%91%CE%A3+%CE%98%CE%95%CE%9F%CE%94%CE%A9%CE%A1%CE%9F%CE%A3+%CE%92%CE%91%CE%A3%CE%99%CE%9B%CE%95%CE%99%CE%9F%CE%A3/data=!4m7!3m6!1s0x1359970efc382891:0xf3141c7733f70a40!8m2!3d40.0776749!4d21.4217529!16s%2Fg%2F11c1t64kth!19sChIJkSg4_A6XWRMRQAr3M3ccFPM?authuser=0&hl=tr&rclk=1",
    "website_url": "",
    "rating_text": "5,0",
    "stars": null,
    "number_of_reviews": null,
    "price_level": "",
    "open_hours": "",
    "extraction_timestamp": "2025-06-07T15:34:43.455Z",
    "source_name": "google",
    "source_query": "Irrigation Equipment",
    "source_country": "GR",
    "country": "Greece",
    "state": "West Macedonia Region",
    "city": "Grevená"
  },
  {
    "source_id": "ChIJESy_zVSWWRMR52dBzdFB9wE",
    "name": "ΚΟΤΛΙΔΑΣ ΘΩΜΑΣ",
    "category": "ΚΟΤΛΙΔΑΣ ΘΩΜΑΣ",
    "formatted_address": "5,0(17)",
    "phone_number": "+302462028529",
    "source_url": "https://www.google.com/maps/place/%CE%9A%CE%9F%CE%A4%CE%9B%CE%99%CE%94%CE%91%CE%A3+%CE%98%CE%A9%CE%9C%CE%91%CE%A3/data=!4m7!3m6!1s0x13599654cdbf2c11:0x1f741d1cd4167e7!8m2!3d40.0846448!4d21.4314807!16s%2Fg%2F11g_l3wrn!19sChIJESy_zVSWWRMR52dBzdFB9wE?authuser=0&hl=tr&rclk=1",
    "website_url": "",
    "rating_text": "5,0",
    "stars": null,
    "number_of_reviews": null,
    "price_level": "",
    "open_hours": "",
    "extraction_timestamp": "2025-06-07T15:34:43.456Z",
    "source_name": "google",
    "source_query": "Irrigation Equipment",
    "source_country": "GR",
    "country": "Greece",
    "state": "West Macedonia Region",
    "city": "Grevená"
  },
  {
    "source_id": "ChIJ2XqedgCXWRMRyzVGFubV9i4",
    "name": "Zarkadas, th., Bros O.E.",
    "category": "Zarkadas, th., Bros O.E.",
    "formatted_address": "Zarkadas, th., Bros O.E.",
    "phone_number": "+302462087790",
    "source_url": "https://www.google.com/maps/place/Zarkadas,+th.,+Bros+O.E./data=!4m7!3m6!1s0x13599700769e7ad9:0x2ef6d5e6164635cb!8m2!3d40.0734447!4d21.4104218!16s%2Fg%2F11g_q6d9r!19sChIJ2XqedgCXWRMRyzVGFubV9i4?authuser=0&hl=tr&rclk=1",
    "website_url": "",
    "rating_text": "4,9",
    "stars": null,
    "number_of_reviews": null,
    "price_level": "",
    "open_hours": "",
    "extraction_timestamp": "2025-06-07T15:34:43.458Z",
    "source_name": "google",
    "source_query": "Irrigation Equipment",
    "source_country": "GR",
    "country": "Greece",
    "state": "West Macedonia Region",
    "city": "Grevená"
  },
  {
    "source_id": "ChIJ1VFtvKiXWRMRQdyKBhdw6Bc",
    "name": "Σαρουσαββίδης Κυριάκος Ύδρευση θέρμανση",
    "category": "Σαρουσαββίδης Κυριάκος Ύδρευση θέρμανση",
    "formatted_address": "5,0(1)",
    "phone_number": "+306970975440",
    "source_url": "https://www.google.com/maps/place/%CE%A3%CE%B1%CF%81%CE%BF%CF%85%CF%83%CE%B1%CE%B2%CE%B2%CE%AF%CE%B4%CE%B7%CF%82+%CE%9A%CF%85%CF%81%CE%B9%CE%AC%CE%BA%CE%BF%CF%82+%CE%8E%CE%B4%CF%81%CE%B5%CF%85%CF%83%CE%B7+%CE%B8%CE%AD%CF%81%CE%BC%CE%B1%CE%BD%CF%83%CE%B7/data=!4m7!3m6!1s0x135997a8bc6d51d5:0x17e87017068adc41!8m2!3d40.0853272!4d21.4336177!16s%2Fg%2F11tx5mgz8k!19sChIJ1VFtvKiXWRMRQdyKBhdw6Bc?authuser=0&hl=tr&rclk=1",
    "website_url": "",
    "rating_text": "5,0",
    "stars": null,
    "number_of_reviews": null,
    "price_level": "",
    "open_hours": "",
    "extraction_timestamp": "2025-06-07T15:34:43.460Z",
    "source_name": "google",
    "source_query": "Irrigation Equipment",
    "source_country": "GR",
    "country": "Greece",
    "state": "West Macedonia Region",
    "city": "Grevená"
  },
  {
    "source_id": "ChIJXc5OmcX46RURekxE-CA9QCU",
    "name": "ελίν",
    "category": "ελίν",
    "formatted_address": "5,0(3)",
    "phone_number": "+302462022363",
    "source_url": "https://www.google.com/maps/place/%CE%B5%CE%BB%CE%AF%CE%BD/data=!4m7!3m6!1s0x15e9f8c5994ece5d:0x25403d20f8444c7a!8m2!3d40.0745097!4d21.4189402!16s%2Fg%2F11h0t_n3_!19sChIJXc5OmcX46RURekxE-CA9QCU?authuser=0&hl=tr&rclk=1",
    "website_url": "",
    "rating_text": "5,0",
    "stars": null,
    "number_of_reviews": null,
    "price_level": "",
    "open_hours": "",
    "extraction_timestamp": "2025-06-07T15:34:43.461Z",
    "source_name": "google",
    "source_query": "Irrigation Equipment",
    "source_country": "GR",
    "country": "Greece",
    "state": "West Macedonia Region",
    "city": "Grevená"
  },
  {
    "source_id": "ChIJW0qsN4yXWRMRkMU75PgzS-8",
    "name": "Φρέσκα Φρούτα και Λαχανικά - Μπαρμπαγιάννης Δημήτριος",
    "category": "Φρέσκα Φρούτα και Λαχανικά - Μπαρμπαγιάννης Δημήτριος",
    "formatted_address": "4,7(23)",
    "phone_number": "+302462028934",
    "source_url": "https://www.google.com/maps/place/%CE%A6%CF%81%CE%AD%CF%83%CE%BA%CE%B1+%CE%A6%CF%81%CE%BF%CF%8D%CF%84%CE%B1+%CE%BA%CE%B1%CE%B9+%CE%9B%CE%B1%CF%87%CE%B1%CE%BD%CE%B9%CE%BA%CE%AC+-+%CE%9C%CF%80%CE%B1%CF%81%CE%BC%CF%80%CE%B1%CE%B3%CE%B9%CE%AC%CE%BD%CE%BD%CE%B7%CF%82+%CE%94%CE%B7%CE%BC%CE%AE%CF%84%CF%81%CE%B9%CE%BF%CF%82/data=!4m7!3m6!1s0x1359978c37ac4a5b:0xef4b33f8e43bc590!8m2!3d40.0843285!4d21.4316149!16s%2Fg%2F11g0hm370g!19sChIJW0qsN4yXWRMRkMU75PgzS-8?authuser=0&hl=tr&rclk=1",
    "website_url": "",
    "rating_text": "4,7",
    "stars": null,
    "number_of_reviews": null,
    "price_level": "",
    "open_hours": "",
    "extraction_timestamp": "2025-06-07T15:34:43.462Z",
    "source_name": "google",
    "source_query": "Irrigation Equipment",
    "source_country": "GR",
    "country": "Greece",
    "state": "West Macedonia Region",
    "city": "Grevená"
  },
  {
    "source_id": "ChIJZ3lPylSWWRMRZdtLnKW6xKo",
    "name": "Greek Diet Tentoglou Nikolaos",
    "category": "Greek Diet Tentoglou Nikolaos",
    "formatted_address": "4,2(21)",
    "phone_number": "+302462100354",
    "source_url": "https://www.google.com/maps/place/Greek+Diet+Tentoglou+Nikolaos/data=!4m7!3m6!1s0x13599654ca4f7967:0xaac4baa59c4bdb65!8m2!3d40.0831976!4d21.4273863!16s%2Fg%2F11fxdz4scw!19sChIJZ3lPylSWWRMRZdtLnKW6xKo?authuser=0&hl=tr&rclk=1",
    "website_url": "",
    "rating_text": "4,2",
    "stars": null,
    "number_of_reviews": null,
    "price_level": "",
    "open_hours": "",
    "extraction_timestamp": "2025-06-07T15:34:43.463Z",
    "source_name": "google",
    "source_query": "Irrigation Equipment",
    "source_country": "GR",
    "country": "Greece",
    "state": "West Macedonia Region",
    "city": "Grevená"
  }
]
