[
  {
    "source_id": "ChIJK1qlHm7SWRMRELu_kuMZXwQ",
    "name": "WATER SERVICE",
    "category": "WATER SERVICE",
    "formatted_address": "5,0(14)",
    "phone_number": "+302461502778",
    "source_url": "https://www.google.com/maps/place/WATER+SERVICE/data=!4m7!3m6!1s0x1359d26e1ea55a2b:0x45f19e392bfbb10!8m2!3d40.2976114!4d21.7925627!16s%2Fg%2F11c74zr43g!19sChIJK1qlHm7SWRMRELu_kuMZXwQ?authuser=0&hl=tr&rclk=1",
    "website_url": "",
    "rating_text": "5,0",
    "stars": null,
    "number_of_reviews": null,
    "price_level": "",
    "open_hours": "",
    "extraction_timestamp": "2025-06-07T15:31:14.702Z",
    "source_name": "google",
    "source_query": "Irrigation Equipment",
    "source_country": "GR",
    "country": "Greece",
    "state": "West Macedonia Region",
    "city": "Kozáni"
  },
  {
    "source_id": "ChIJzSJhlAzSWRMR2Ju5tVOd9mw",
    "name": "ΖΕΡΒΑΝΤΑΡΙΔΗΣ Γ. ΦΩΤΙΟΣ ΓΕΩΠΟΝΟΣ Α.Π.Θ.",
    "category": "ΖΕΡΒΑΝΤΑΡΙΔΗΣ Γ. ΦΩΤΙΟΣ ΓΕΩΠΟΝΟΣ Α.Π.Θ.",
    "formatted_address": "4,9(118)",
    "phone_number": "+302461023533",
    "source_url": "https://www.google.com/maps/place/%CE%96%CE%95%CE%A1%CE%92%CE%91%CE%9D%CE%A4%CE%91%CE%A1%CE%99%CE%94%CE%97%CE%A3+%CE%93.+%CE%A6%CE%A9%CE%A4%CE%99%CE%9F%CE%A3+%CE%93%CE%95%CE%A9%CE%A0%CE%9F%CE%9D%CE%9F%CE%A3+%CE%91.%CE%A0.%CE%98./data=!4m7!3m6!1s0x1359d20c946122cd:0x6cf69d53b5b99bd8!8m2!3d40.2948923!4d21.7843008!16s%2Fg%2F1pp2tgm09!19sChIJzSJhlAzSWRMR2Ju5tVOd9mw?authuser=0&hl=tr&rclk=1",
    "website_url": "",
    "rating_text": "4,9",
    "stars": null,
    "number_of_reviews": null,
    "price_level": "",
    "open_hours": "",
    "extraction_timestamp": "2025-06-07T15:31:14.703Z",
    "source_name": "google",
    "source_query": "Irrigation Equipment",
    "source_country": "GR",
    "country": "Greece",
    "state": "West Macedonia Region",
    "city": "Kozáni"
  },
  {
    "source_id": "ChIJEdwvEyHTWRMRw5agkgeTpdc",
    "name": "Ο Πόντιος - Υδραυλικός Κοζάνη",
    "category": "Ο Πόντιος - Υδραυλικός Κοζάνη",
    "formatted_address": "4,7(59)",
    "phone_number": "+306972338676",
    "source_url": "https://www.google.com/maps/place/%CE%9F+%CE%A0%CF%8C%CE%BD%CF%84%CE%B9%CE%BF%CF%82+-+%CE%A5%CE%B4%CF%81%CE%B1%CF%85%CE%BB%CE%B9%CE%BA%CF%8C%CF%82+%CE%9A%CE%BF%CE%B6%CE%AC%CE%BD%CE%B7/data=!4m7!3m6!1s0x1359d321132fdc11:0xd7a5930792a096c3!8m2!3d40.3013854!4d21.7878835!16s%2Fg%2F11n05s5mc2!19sChIJEdwvEyHTWRMRw5agkgeTpdc?authuser=0&hl=tr&rclk=1",
    "website_url": "",
    "rating_text": "4,7",
    "stars": null,
    "number_of_reviews": null,
    "price_level": "",
    "open_hours": "",
    "extraction_timestamp": "2025-06-07T15:31:14.705Z",
    "source_name": "google",
    "source_query": "Irrigation Equipment",
    "source_country": "GR",
    "country": "Greece",
    "state": "West Macedonia Region",
    "city": "Kozáni"
  },
  {
    "source_id": "ChIJ_VtrP3fSWRMReFbMqhjiuXA",
    "name": "Α.Θ.ΚΕΧΑΓΙΑΣ",
    "category": "Α.Θ.ΚΕΧΑΓΙΑΣ",
    "formatted_address": "4,8(27)",
    "phone_number": "+302461022696",
    "source_url": "https://www.google.com/maps/place/%CE%91.%CE%98.%CE%9A%CE%95%CE%A7%CE%91%CE%93%CE%99%CE%91%CE%A3/data=!4m7!3m6!1s0x1359d2773f6b5bfd:0x70b9e218aacc5678!8m2!3d40.2907226!4d21.7957391!16s%2Fg%2F11c1qlrw2n!19sChIJ_VtrP3fSWRMReFbMqhjiuXA?authuser=0&hl=tr&rclk=1",
    "website_url": "",
    "rating_text": "4,8",
    "stars": null,
    "number_of_reviews": null,
    "price_level": "",
    "open_hours": "",
    "extraction_timestamp": "2025-06-07T15:31:14.706Z",
    "source_name": "google",
    "source_query": "Irrigation Equipment",
    "source_country": "GR",
    "country": "Greece",
    "state": "West Macedonia Region",
    "city": "Kozáni"
  },
  {
    "source_id": "ChIJ6VIlOXStCWYRnLy_fVci9aQ",
    "name": "Στυλιανός Κων. Κικίδης",
    "category": "Στυλιανός Κων. Κικίδης",
    "formatted_address": "5,0(7)",
    "phone_number": "+306975712940",
    "source_url": "https://www.google.com/maps/place/%CE%A3%CF%84%CF%85%CE%BB%CE%B9%CE%B1%CE%BD%CF%8C%CF%82+%CE%9A%CF%89%CE%BD.+%CE%9A%CE%B9%CE%BA%CE%AF%CE%B4%CE%B7%CF%82/data=!4m7!3m6!1s0x6609ad74392552e9:0xa4f522577dbfbc9c!8m2!3d40.3310233!4d21.6294594!16s%2Fg%2F11s8w7rg6r!19sChIJ6VIlOXStCWYRnLy_fVci9aQ?authuser=0&hl=tr&rclk=1",
    "website_url": "",
    "rating_text": "5,0",
    "stars": null,
    "number_of_reviews": null,
    "price_level": "",
    "open_hours": "",
    "extraction_timestamp": "2025-06-07T15:31:14.707Z",
    "source_name": "google",
    "source_query": "Irrigation Equipment",
    "source_country": "GR",
    "country": "Greece",
    "state": "West Macedonia Region",
    "city": "Kozáni"
  },
  {
    "source_id": "ChIJD3ns7mXSWRMRC_8Fe_727SA",
    "name": "PAPADOPOULOS, I., - N. KOZIKOPOULOS O.E.",
    "category": "PAPADOPOULOS, I., - N. KOZIKOPOULOS O.E.",
    "formatted_address": "PAPADOPOULOS, I., - N. KOZIKOPOULOS O.E.",
    "phone_number": "+302461041439",
    "source_url": "https://www.google.com/maps/place/PAPADOPOULOS,+I.,+-+N.+KOZIKOPOULOS+O.E./data=!4m7!3m6!1s0x1359d265eeec790f:0x20edf6fe7b05ff0b!8m2!3d40.3001512!4d21.7983209!16s%2Fg%2F11c57crlft!19sChIJD3ns7mXSWRMRC_8Fe_727SA?authuser=0&hl=tr&rclk=1",
    "website_url": "",
    "rating_text": "5,0",
    "stars": null,
    "number_of_reviews": null,
    "price_level": "",
    "open_hours": "",
    "extraction_timestamp": "2025-06-07T15:31:14.708Z",
    "source_name": "google",
    "source_query": "Irrigation Equipment",
    "source_country": "GR",
    "country": "Greece",
    "state": "West Macedonia Region",
    "city": "Kozáni"
  },
  {
    "source_id": "ChIJj9kVeW_SWRMR0i6T1QkDHQo",
    "name": "INTERSPORT Κοζάνης",
    "category": "INTERSPORT Κοζάνης",
    "formatted_address": "4,4(432)",
    "phone_number": "+302102806060",
    "source_url": "https://www.google.com/maps/place/INTERSPORT+%CE%9A%CE%BF%CE%B6%CE%AC%CE%BD%CE%B7%CF%82/data=!4m7!3m6!1s0x1359d26f7915d98f:0xa1d0309d5932ed2!8m2!3d40.2989378!4d21.7967171!16s%2Fg%2F11f1jx0njj!19sChIJj9kVeW_SWRMR0i6T1QkDHQo?authuser=0&hl=tr&rclk=1",
    "website_url": "",
    "rating_text": "4,4",
    "stars": null,
    "number_of_reviews": null,
    "price_level": "",
    "open_hours": "",
    "extraction_timestamp": "2025-06-07T15:31:14.709Z",
    "source_name": "google",
    "source_query": "Irrigation Equipment",
    "source_country": "GR",
    "country": "Greece",
    "state": "West Macedonia Region",
    "city": "Kozáni"
  },
  {
    "source_id": "ChIJkanMmnHSWRMRbKWMws8zdok",
    "name": "PETRIDIS • ΠΕΤΡΙΔΗΣ",
    "category": "PETRIDIS • ΠΕΤΡΙΔΗΣ",
    "formatted_address": "4,8(95)",
    "phone_number": "+302461036080",
    "source_url": "https://www.google.com/maps/place/PETRIDIS+%E2%80%A2+%CE%A0%CE%95%CE%A4%CE%A1%CE%99%CE%94%CE%97%CE%A3/data=!4m7!3m6!1s0x1359d2719acca991:0x897633cfc28ca56c!8m2!3d40.3059767!4d21.8082607!16s%2Fg%2F11b6_f9z8d!19sChIJkanMmnHSWRMRbKWMws8zdok?authuser=0&hl=tr&rclk=1",
    "website_url": "",
    "rating_text": "4,8",
    "stars": null,
    "number_of_reviews": null,
    "price_level": "",
    "open_hours": "",
    "extraction_timestamp": "2025-06-07T15:31:14.710Z",
    "source_name": "google",
    "source_query": "Irrigation Equipment",
    "source_country": "GR",
    "country": "Greece",
    "state": "West Macedonia Region",
    "city": "Kozáni"
  },
  {
    "source_id": "ChIJKyIsDcWnViARPovnkrmx2UI",
    "name": "Αποφρακτική Δυτικής Μακεδονίας",
    "category": "Αποφρακτική Δυτικής Μακεδονίας",
    "formatted_address": "",
    "phone_number": "+306944160261",
    "source_url": "https://www.google.com/maps/place/%CE%91%CF%80%CE%BF%CF%86%CF%81%CE%B1%CE%BA%CF%84%CE%B9%CE%BA%CE%AE+%CE%94%CF%85%CF%84%CE%B9%CE%BA%CE%AE%CF%82+%CE%9C%CE%B1%CE%BA%CE%B5%CE%B4%CE%BF%CE%BD%CE%AF%CE%B1%CF%82/data=!4m7!3m6!1s0x2056a7c50d2c222b:0x42d9b1b992e78b3e!8m2!3d40.2997957!4d21.7860775!16s%2Fg%2F11scw1tfwf!19sChIJKyIsDcWnViARPovnkrmx2UI?authuser=0&hl=tr&rclk=1",
    "website_url": "",
    "rating_text": "",
    "stars": null,
    "number_of_reviews": null,
    "price_level": "",
    "open_hours": "",
    "extraction_timestamp": "2025-06-07T15:31:14.712Z",
    "source_name": "google",
    "source_query": "Irrigation Equipment",
    "source_country": "GR",
    "country": "Greece",
    "state": "West Macedonia Region",
    "city": "Kozáni"
  }
]
