[
  {
    "source_id": "ChIJm-UQ2_v8WRMRJdCVRqVDsd0",
    "name": "myAGROmarket - Agromarket Καστοριάς",
    "category": "myAGROmarket - Agromarket Καστοριάς",
    "formatted_address": "4,8(82)",
    "phone_number": "+302467084310",
    "source_url": "https://www.google.com/maps/place/myAGROmarket+-+Agromarket+%CE%9A%CE%B1%CF%83%CF%84%CE%BF%CF%81%CE%B9%CE%AC%CF%82/data=!4m7!3m6!1s0x1359fcfbdb10e59b:0xddb143a54695d025!8m2!3d40.5048311!4d21.2433058!16s%2Fg%2F11b6nlnlmn!19sChIJm-UQ2_v8WRMRJdCVRqVDsd0?authuser=0&hl=tr&rclk=1",
    "website_url": "",
    "rating_text": "4,8",
    "stars": null,
    "number_of_reviews": null,
    "price_level": "",
    "open_hours": "",
    "extraction_timestamp": "2025-06-07T15:25:51.153Z",
    "source_name": "google",
    "source_query": "Irrigation Equipment",
    "source_country": "GR",
    "country": "Greece",
    "state": "West Macedonia Region",
    "city": "Maniákoi"
  },
  {
    "source_id": "ChIJP6mV10R_WBMRmKs2kVzQQL0",
    "name": "ADRITEC EUROPE S.A.",
    "category": "ADRITEC EUROPE S.A.",
    "formatted_address": "4,6(20)",
    "phone_number": "+302410975170",
    "source_url": "https://www.google.com/maps/place/ADRITEC+EUROPE+S.A./data=!4m7!3m6!1s0x13587f44d795a93f:0xbd40d05c9136ab98!8m2!3d39.6762619!4d22.5489292!16s%2Fg%2F11_qtp7mx!19sChIJP6mV10R_WBMRmKs2kVzQQL0?authuser=0&hl=tr&rclk=1",
    "website_url": "",
    "rating_text": "4,6",
    "stars": null,
    "number_of_reviews": null,
    "price_level": "",
    "open_hours": "",
    "extraction_timestamp": "2025-06-07T15:25:51.155Z",
    "source_name": "google",
    "source_query": "Irrigation Equipment",
    "source_country": "GR",
    "country": "Greece",
    "state": "West Macedonia Region",
    "city": "Maniákoi"
  },
  {
    "source_id": "ChIJiZEHi_z9WRMR432Wk5J-Wa8",
    "name": "Αθανάσιος Β. Ιωάννου",
    "category": "Αθανάσιος Β. Ιωάννου",
    "formatted_address": "",
    "phone_number": "+306945766700",
    "source_url": "https://www.google.com/maps/place/%CE%91%CE%B8%CE%B1%CE%BD%CE%AC%CF%83%CE%B9%CE%BF%CF%82+%CE%92.+%CE%99%CF%89%CE%AC%CE%BD%CE%BD%CE%BF%CF%85/data=!4m7!3m6!1s0x1359fdfc8b079189:0xaf597e9293967de3!8m2!3d40.5066355!4d21.2420916!16s%2Fg%2F11h0xg_sgg!19sChIJiZEHi_z9WRMR432Wk5J-Wa8?authuser=0&hl=tr&rclk=1",
    "website_url": "",
    "rating_text": "",
    "stars": null,
    "number_of_reviews": null,
    "price_level": "",
    "open_hours": "",
    "extraction_timestamp": "2025-06-07T15:25:51.156Z",
    "source_name": "google",
    "source_query": "Irrigation Equipment",
    "source_country": "GR",
    "country": "Greece",
    "state": "West Macedonia Region",
    "city": "Maniákoi"
  },
  {
    "source_id": "ChIJhyxamm4dHyURiknD7iXTJn8",
    "name": "Δώρος Στέργιος Υδραυλικός Θερμοϋδραυλικός Καστοριά",
    "category": "Δώρος Στέργιος Υδραυλικός Θερμοϋδραυλικός Καστοριά",
    "formatted_address": "",
    "phone_number": "+306980359736",
    "source_url": "https://www.google.com/maps/place/%CE%94%CF%8E%CF%81%CE%BF%CF%82+%CE%A3%CF%84%CE%AD%CF%81%CE%B3%CE%B9%CE%BF%CF%82+%CE%A5%CE%B4%CF%81%CE%B1%CF%85%CE%BB%CE%B9%CE%BA%CF%8C%CF%82+%CE%98%CE%B5%CF%81%CE%BC%CE%BF%CF%8B%CE%B4%CF%81%CE%B1%CF%85%CE%BB%CE%B9%CE%BA%CF%8C%CF%82+%CE%9A%CE%B1%CF%83%CF%84%CE%BF%CF%81%CE%B9%CE%AC/data=!4m7!3m6!1s0x251f1d6e9a5a2c87:0x7f26d325eec3498a!8m2!3d40.5038554!4d21.2444186!16s%2Fg%2F11vrdl1tlm!19sChIJhyxamm4dHyURiknD7iXTJn8?authuser=0&hl=tr&rclk=1",
    "website_url": "",
    "rating_text": "",
    "stars": null,
    "number_of_reviews": null,
    "price_level": "",
    "open_hours": "",
    "extraction_timestamp": "2025-06-07T15:25:51.158Z",
    "source_name": "google",
    "source_query": "Irrigation Equipment",
    "source_country": "GR",
    "country": "Greece",
    "state": "West Macedonia Region",
    "city": "Maniákoi"
  },
  {
    "source_id": "ChIJbUM5ZPn8WRMR4AddQTwJghE",
    "name": "Masoutis",
    "category": "Masoutis",
    "formatted_address": "4,6(379)",
    "phone_number": "+302467055124",
    "source_url": "https://www.google.com/maps/place/Masoutis/data=!4m7!3m6!1s0x1359fcf96439436d:0x1182093c415d07e0!8m2!3d40.5046454!4d21.2424582!16s%2Fg%2F11df81p1rm!19sChIJbUM5ZPn8WRMR4AddQTwJghE?authuser=0&hl=tr&rclk=1",
    "website_url": "",
    "rating_text": "4,6",
    "stars": null,
    "number_of_reviews": null,
    "price_level": "",
    "open_hours": "",
    "extraction_timestamp": "2025-06-07T15:25:51.160Z",
    "source_name": "google",
    "source_query": "Irrigation Equipment",
    "source_country": "GR",
    "country": "Greece",
    "state": "West Macedonia Region",
    "city": "Maniákoi"
  },
  {
    "source_id": "ChIJ7Wf4b_v9WRMRdgB0o0q_iP0",
    "name": "Εξειδικευμένο συνεργείο Αμανατίδης",
    "category": "Εξειδικευμένο συνεργείο Αμανατίδης",
    "formatted_address": "5,0(9)",
    "phone_number": "+302467081448",
    "source_url": "https://www.google.com/maps/place/%CE%95%CE%BE%CE%B5%CE%B9%CE%B4%CE%B9%CE%BA%CE%B5%CF%85%CE%BC%CE%AD%CE%BD%CE%BF+%CF%83%CF%85%CE%BD%CE%B5%CF%81%CE%B3%CE%B5%CE%AF%CE%BF+%CE%91%CE%BC%CE%B1%CE%BD%CE%B1%CF%84%CE%AF%CE%B4%CE%B7%CF%82/data=!4m7!3m6!1s0x1359fdfb6ff867ed:0xfd88bf4aa3740076!8m2!3d40.5060765!4d21.2351135!16s%2Fg%2F11kr6w4w7p!19sChIJ7Wf4b_v9WRMRdgB0o0q_iP0?authuser=0&hl=tr&rclk=1",
    "website_url": "",
    "rating_text": "5,0",
    "stars": null,
    "number_of_reviews": null,
    "price_level": "",
    "open_hours": "",
    "extraction_timestamp": "2025-06-07T15:25:51.161Z",
    "source_name": "google",
    "source_query": "Irrigation Equipment",
    "source_country": "GR",
    "country": "Greece",
    "state": "West Macedonia Region",
    "city": "Maniákoi"
  },
  {
    "source_id": "ChIJq6NHjfr8WRMR0cRNW2qbFrE",
    "name": "Centro For All",
    "category": "Centro For All",
    "formatted_address": "4,5(91) · ₺",
    "phone_number": "+302467100301",
    "source_url": "https://www.google.com/maps/place/Centro+For+All/data=!4m7!3m6!1s0x1359fcfa8d47a3ab:0xb1169b6a5b4dc4d1!8m2!3d40.5020043!4d21.2465448!16s%2Fg%2F11dfhwjp0c!19sChIJq6NHjfr8WRMR0cRNW2qbFrE?authuser=0&hl=tr&rclk=1",
    "website_url": "",
    "rating_text": "4,5",
    "stars": null,
    "number_of_reviews": null,
    "price_level": "",
    "open_hours": "",
    "extraction_timestamp": "2025-06-07T15:25:51.163Z",
    "source_name": "google",
    "source_query": "Irrigation Equipment",
    "source_country": "GR",
    "country": "Greece",
    "state": "West Macedonia Region",
    "city": "Maniákoi"
  },
  {
    "source_id": "ChIJp9W0mGOuoRQRcFupHUAUUcs",
    "name": "Saba Sole Shareholder Co. Ltd",
    "category": "Saba Sole Shareholder Co. Ltd",
    "formatted_address": "5,0(1)",
    "phone_number": "+302105562495",
    "source_url": "https://www.google.com/maps/place/Saba+Sole+Shareholder+Co.+Ltd/data=!4m7!3m6!1s0x14a1ae6398b4d5a7:0xcb5114401da95b70!8m2!3d38.0798304!4d23.4928611!16s%2Fg%2F11gz7hxq6!19sChIJp9W0mGOuoRQRcFupHUAUUcs?authuser=0&hl=tr&rclk=1",
    "website_url": "",
    "rating_text": "5,0",
    "stars": null,
    "number_of_reviews": null,
    "price_level": "",
    "open_hours": "",
    "extraction_timestamp": "2025-06-07T15:25:51.164Z",
    "source_name": "google",
    "source_query": "Irrigation Equipment",
    "source_country": "GR",
    "country": "Greece",
    "state": "West Macedonia Region",
    "city": "Maniákoi"
  },
  {
    "source_id": "ChIJpzrjrfb8WRMRaSQTmLHHlEA",
    "name": "ΜΙΧΟΥΛΗΣ ΓΕΩΡΓΙΟΣ ΠΑΥΛΟΣ",
    "category": "ΜΙΧΟΥΛΗΣ ΓΕΩΡΓΙΟΣ ΠΑΥΛΟΣ",
    "formatted_address": "4,8(16)",
    "phone_number": "+302467080488",
    "source_url": "https://www.google.com/maps/place/%CE%9C%CE%99%CE%A7%CE%9F%CE%A5%CE%9B%CE%97%CE%A3+%CE%93%CE%95%CE%A9%CE%A1%CE%93%CE%99%CE%9F%CE%A3+%CE%A0%CE%91%CE%A5%CE%9B%CE%9F%CE%A3/data=!4m7!3m6!1s0x1359fcf6ade33aa7:0x4094c7b198132469!8m2!3d40.4972801!4d21.2423689!16s%2Fg%2F11cs327960!19sChIJpzrjrfb8WRMRaSQTmLHHlEA?authuser=0&hl=tr&rclk=1",
    "website_url": "",
    "rating_text": "4,8",
    "stars": null,
    "number_of_reviews": null,
    "price_level": "",
    "open_hours": "",
    "extraction_timestamp": "2025-06-07T15:25:51.165Z",
    "source_name": "google",
    "source_query": "Irrigation Equipment",
    "source_country": "GR",
    "country": "Greece",
    "state": "West Macedonia Region",
    "city": "Maniákoi"
  },
  {
    "source_id": "ChIJTbKBkvr8WRMR8eCMmpDQUWE",
    "name": "ΚΡΗΤΙΚΟΣ Super market",
    "category": "ΚΡΗΤΙΚΟΣ Super market",
    "formatted_address": "4,0(56)",
    "phone_number": "+302467080868",
    "source_url": "https://www.google.com/maps/place/%CE%9A%CE%A1%CE%97%CE%A4%CE%99%CE%9A%CE%9F%CE%A3+Super+market/data=!4m7!3m6!1s0x1359fcfa9281b24d:0x6151d0909a8ce0f1!8m2!3d40.50188!4d21.2465!16s%2Fg%2F11bwqbggym!19sChIJTbKBkvr8WRMR8eCMmpDQUWE?authuser=0&hl=tr&rclk=1",
    "website_url": "",
    "rating_text": "4,0",
    "stars": null,
    "number_of_reviews": null,
    "price_level": "",
    "open_hours": "",
    "extraction_timestamp": "2025-06-07T15:25:51.166Z",
    "source_name": "google",
    "source_query": "Irrigation Equipment",
    "source_country": "GR",
    "country": "Greece",
    "state": "West Macedonia Region",
    "city": "Maniákoi"
  }
]
