[
  {
    "source_id": "ChIJ65Us_8P-WRMRinjXwV4jHSU",
    "name": "D.E.Y.A.K Kastoria",
    "category": "D.E.Y.A.K Kastoria",
    "formatted_address": "3,4(8)",
    "phone_number": "+302467061632",
    "source_url": "https://www.google.com/maps/place/D.E.Y.A.K+Kastoria/data=!4m7!3m6!1s0x1359fec3ff2c95eb:0x251d235ec1d7788a!8m2!3d40.5031209!4d21.1589407!16s%2Fg%2F11d_2j05r5!19sChIJ65Us_8P-WRMRinjXwV4jHSU?authuser=0&hl=tr&rclk=1",
    "website_url": "",
    "rating_text": "3,4",
    "stars": null,
    "number_of_reviews": null,
    "price_level": "",
    "open_hours": "",
    "extraction_timestamp": "2025-06-07T15:33:58.289Z",
    "source_name": "google",
    "source_query": "Irrigation Equipment",
    "source_country": "GR",
    "country": "Greece",
    "state": "West Macedonia Region",
    "city": "Mesopotamía"
  },
  {
    "source_id": "ChIJd2vAebj-WRMRm_GqsMModOU",
    "name": "Ελληνική Διατροφή Ισαακίδης Δημήτριος",
    "category": "Ελληνική Διατροφή Ισαακίδης Δημήτριος",
    "formatted_address": "4,8(56)",
    "phone_number": "+302467061562",
    "source_url": "https://www.google.com/maps/place/%CE%95%CE%BB%CE%BB%CE%B7%CE%BD%CE%B9%CE%BA%CE%AE+%CE%94%CE%B9%CE%B1%CF%84%CF%81%CE%BF%CF%86%CE%AE+%CE%99%CF%83%CE%B1%CE%B1%CE%BA%CE%AF%CE%B4%CE%B7%CF%82+%CE%94%CE%B7%CE%BC%CE%AE%CF%84%CF%81%CE%B9%CE%BF%CF%82/data=!4m7!3m6!1s0x1359feb879c06b77:0xe57428c3b0aaf19b!8m2!3d40.4988071!4d21.1654873!16s%2Fg%2F11c562_6mx!19sChIJd2vAebj-WRMRm_GqsMModOU?authuser=0&hl=tr&rclk=1",
    "website_url": "",
    "rating_text": "4,8",
    "stars": null,
    "number_of_reviews": null,
    "price_level": "",
    "open_hours": "",
    "extraction_timestamp": "2025-06-07T15:33:58.290Z",
    "source_name": "google",
    "source_query": "Irrigation Equipment",
    "source_country": "GR",
    "country": "Greece",
    "state": "West Macedonia Region",
    "city": "Mesopotamía"
  },
  {
    "source_id": "ChIJEeWB38P-WRMRhbS2pkApCK0",
    "name": "EXPRESS MARKET",
    "category": "EXPRESS MARKET",
    "formatted_address": "4,6(90)",
    "phone_number": "+302467061204",
    "source_url": "https://www.google.com/maps/place/EXPRESS+MARKET/data=!4m7!3m6!1s0x1359fec3df81e511:0xad082940a6b6b485!8m2!3d40.50534!4d21.15808!16s%2Fg%2F12hrvk56v!19sChIJEeWB38P-WRMRhbS2pkApCK0?authuser=0&hl=tr&rclk=1",
    "website_url": "",
    "rating_text": "4,6",
    "stars": null,
    "number_of_reviews": null,
    "price_level": "",
    "open_hours": "",
    "extraction_timestamp": "2025-06-07T15:33:58.290Z",
    "source_name": "google",
    "source_query": "Irrigation Equipment",
    "source_country": "GR",
    "country": "Greece",
    "state": "West Macedonia Region",
    "city": "Mesopotamía"
  },
  {
    "source_id": "ChIJ83c1KMf-WRMRFFFuoLCBkJQ",
    "name": "ΥΠΕΡ Γρηγοριάδης",
    "category": "ΥΠΕΡ Γρηγοριάδης",
    "formatted_address": "4,0(53)",
    "phone_number": "",
    "source_url": "https://www.google.com/maps/place/%CE%A5%CE%A0%CE%95%CE%A1+%CE%93%CF%81%CE%B7%CE%B3%CE%BF%CF%81%CE%B9%CE%AC%CE%B4%CE%B7%CF%82/data=!4m7!3m6!1s0x1359fec7283577f3:0x949081b0a06e5114!8m2!3d40.5018691!4d21.162378!16s%2Fg%2F11c1pb9ryy!19sChIJ83c1KMf-WRMRFFFuoLCBkJQ?authuser=0&hl=tr&rclk=1",
    "website_url": "",
    "rating_text": "4,0",
    "stars": null,
    "number_of_reviews": null,
    "price_level": "",
    "open_hours": "",
    "extraction_timestamp": "2025-06-07T15:33:58.291Z",
    "source_name": "google",
    "source_query": "Irrigation Equipment",
    "source_country": "GR",
    "country": "Greece",
    "state": "West Macedonia Region",
    "city": "Mesopotamía"
  },
  {
    "source_id": "ChIJP6mV10R_WBMRmKs2kVzQQL0",
    "name": "ADRITEC EUROPE S.A.",
    "category": "ADRITEC EUROPE S.A.",
    "formatted_address": "4,6(20)",
    "phone_number": "+302410975170",
    "source_url": "https://www.google.com/maps/place/ADRITEC+EUROPE+S.A./data=!4m7!3m6!1s0x13587f44d795a93f:0xbd40d05c9136ab98!8m2!3d39.6762619!4d22.5489292!16s%2Fg%2F11_qtp7mx!19sChIJP6mV10R_WBMRmKs2kVzQQL0?authuser=0&hl=tr&rclk=1",
    "website_url": "",
    "rating_text": "4,6",
    "stars": null,
    "number_of_reviews": null,
    "price_level": "",
    "open_hours": "",
    "extraction_timestamp": "2025-06-07T15:33:58.291Z",
    "source_name": "google",
    "source_query": "Irrigation Equipment",
    "source_country": "GR",
    "country": "Greece",
    "state": "West Macedonia Region",
    "city": "Mesopotamía"
  }
]
