[
  {
    "source_id": "ChIJK1qlHm7SWRMRELu_kuMZXwQ",
    "name": "WATER SERVICE",
    "category": "WATER SERVICE",
    "formatted_address": "5,0(14)",
    "phone_number": "+302461502778",
    "source_url": "https://www.google.com/maps/place/WATER+SERVICE/data=!4m7!3m6!1s0x1359d26e1ea55a2b:0x45f19e392bfbb10!8m2!3d40.2976114!4d21.7925627!16s%2Fg%2F11c74zr43g!19sChIJK1qlHm7SWRMRELu_kuMZXwQ?authuser=0&hl=tr&rclk=1",
    "website_url": "",
    "rating_text": "5,0",
    "stars": null,
    "number_of_reviews": null,
    "price_level": "",
    "open_hours": "",
    "extraction_timestamp": "2025-06-07T15:28:00.398Z",
    "source_name": "google",
    "source_query": "Irrigation Equipment",
    "source_country": "GR",
    "country": "Greece",
    "state": "West Macedonia Region",
    "city": "Nomós Kozánis"
  },
  {
    "source_id": "ChIJl0dDTODjR6oRhCKfDt_UvcE",
    "name": "ΤΟΥΠΕΚΤΣΗΣ ΥΔΡΕΥΣΗ · ΘΕΡΜΑΝΣΗ · Ζ.Ν.Χ",
    "category": "ΤΟΥΠΕΚΤΣΗΣ ΥΔΡΕΥΣΗ",
    "formatted_address": "ΘΕΡΜΑΝΣΗ",
    "phone_number": "+306972397581",
    "source_url": "https://www.google.com/maps/place/%CE%A4%CE%9F%CE%A5%CE%A0%CE%95%CE%9A%CE%A4%CE%A3%CE%97%CE%A3+%CE%A5%CE%94%CE%A1%CE%95%CE%A5%CE%A3%CE%97+%C2%B7+%CE%98%CE%95%CE%A1%CE%9C%CE%91%CE%9D%CE%A3%CE%97+%C2%B7+%CE%96.%CE%9D.%CE%A7/data=!4m7!3m6!1s0xaa47e3e04c434797:0xc1bdd4df0e9f2284!8m2!3d40.5218079!4d22.2049464!16s%2Fg%2F11v0t12b4j!19sChIJl0dDTODjR6oRhCKfDt_UvcE?authuser=0&hl=tr&rclk=1",
    "website_url": "",
    "rating_text": "5,0",
    "stars": null,
    "number_of_reviews": null,
    "price_level": "",
    "open_hours": "",
    "extraction_timestamp": "2025-06-07T15:28:00.399Z",
    "source_name": "google",
    "source_query": "Irrigation Equipment",
    "source_country": "GR",
    "country": "Greece",
    "state": "West Macedonia Region",
    "city": "Nomós Kozánis"
  },
  {
    "source_id": "ChIJzSJhlAzSWRMR2Ju5tVOd9mw",
    "name": "ΖΕΡΒΑΝΤΑΡΙΔΗΣ Γ. ΦΩΤΙΟΣ ΓΕΩΠΟΝΟΣ Α.Π.Θ.",
    "category": "ΖΕΡΒΑΝΤΑΡΙΔΗΣ Γ. ΦΩΤΙΟΣ ΓΕΩΠΟΝΟΣ Α.Π.Θ.",
    "formatted_address": "4,9(118)",
    "phone_number": "+302461023533",
    "source_url": "https://www.google.com/maps/place/%CE%96%CE%95%CE%A1%CE%92%CE%91%CE%9D%CE%A4%CE%91%CE%A1%CE%99%CE%94%CE%97%CE%A3+%CE%93.+%CE%A6%CE%A9%CE%A4%CE%99%CE%9F%CE%A3+%CE%93%CE%95%CE%A9%CE%A0%CE%9F%CE%9D%CE%9F%CE%A3+%CE%91.%CE%A0.%CE%98./data=!4m7!3m6!1s0x1359d20c946122cd:0x6cf69d53b5b99bd8!8m2!3d40.2948923!4d21.7843008!16s%2Fg%2F1pp2tgm09!19sChIJzSJhlAzSWRMR2Ju5tVOd9mw?authuser=0&hl=tr&rclk=1",
    "website_url": "",
    "rating_text": "4,9",
    "stars": null,
    "number_of_reviews": null,
    "price_level": "",
    "open_hours": "",
    "extraction_timestamp": "2025-06-07T15:28:00.401Z",
    "source_name": "google",
    "source_query": "Irrigation Equipment",
    "source_country": "GR",
    "country": "Greece",
    "state": "West Macedonia Region",
    "city": "Nomós Kozánis"
  },
  {
    "source_id": "ChIJW2i912zSWRMR1T4n-_HJ-xo",
    "name": "TECHNOBETON AE",
    "category": "TECHNOBETON AE",
    "formatted_address": "4,9(153)",
    "phone_number": "+302461045555",
    "source_url": "https://www.google.com/maps/place/TECHNOBETON+AE/data=!4m7!3m6!1s0x1359d26cd7bd685b:0x1afbc9f1fb273ed5!8m2!3d40.3495101!4d21.8012275!16s%2Fg%2F1v_hw6gw!19sChIJW2i912zSWRMR1T4n-_HJ-xo?authuser=0&hl=tr&rclk=1",
    "website_url": "",
    "rating_text": "4,9",
    "stars": null,
    "number_of_reviews": null,
    "price_level": "",
    "open_hours": "",
    "extraction_timestamp": "2025-06-07T15:28:00.402Z",
    "source_name": "google",
    "source_query": "Irrigation Equipment",
    "source_country": "GR",
    "country": "Greece",
    "state": "West Macedonia Region",
    "city": "Nomós Kozánis"
  },
  {
    "source_id": "ChIJ11Pa1wstWBMRTomjE1VAxuA",
    "name": "ΚΑΝΤΑΡΤΖΗΣ ΙΟΡΔΑΝΗΣ",
    "category": "ΚΑΝΤΑΡΤΖΗΣ ΙΟΡΔΑΝΗΣ",
    "formatted_address": "5,0(8)",
    "phone_number": "+306979442430",
    "source_url": "https://www.google.com/maps/place/%CE%9A%CE%91%CE%9D%CE%A4%CE%91%CE%A1%CE%A4%CE%96%CE%97%CE%A3+%CE%99%CE%9F%CE%A1%CE%94%CE%91%CE%9D%CE%97%CE%A3/data=!4m7!3m6!1s0x13582d0bd7da53d7:0xe0c6405513a3894e!8m2!3d40.2900499!4d21.8674505!16s%2Fg%2F11xfpwxx46!19sChIJ11Pa1wstWBMRTomjE1VAxuA?authuser=0&hl=tr&rclk=1",
    "website_url": "",
    "rating_text": "5,0",
    "stars": null,
    "number_of_reviews": null,
    "price_level": "",
    "open_hours": "",
    "extraction_timestamp": "2025-06-07T15:28:00.404Z",
    "source_name": "google",
    "source_query": "Irrigation Equipment",
    "source_country": "GR",
    "country": "Greece",
    "state": "West Macedonia Region",
    "city": "Nomós Kozánis"
  },
  {
    "source_id": "ChIJ3aDk-898VxMRnDM-x4dPsGU",
    "name": "KOTSIDIS PANAGIOTIS",
    "category": "KOTSIDIS PANAGIOTIS",
    "formatted_address": "4,6(50)",
    "phone_number": "+302463029890",
    "source_url": "https://www.google.com/maps/place/KOTSIDIS+PANAGIOTIS/data=!4m7!3m6!1s0x13577ccffbe4a0dd:0x65b04f87c73e339c!8m2!3d40.514594!4d21.6775865!16s%2Fg%2F1trzm74z!19sChIJ3aDk-898VxMRnDM-x4dPsGU?authuser=0&hl=tr&rclk=1",
    "website_url": "",
    "rating_text": "4,6",
    "stars": null,
    "number_of_reviews": null,
    "price_level": "",
    "open_hours": "",
    "extraction_timestamp": "2025-06-07T15:28:00.405Z",
    "source_name": "google",
    "source_query": "Irrigation Equipment",
    "source_country": "GR",
    "country": "Greece",
    "state": "West Macedonia Region",
    "city": "Nomós Kozánis"
  },
  {
    "source_id": "ChIJucEBw0bTWRMRmFV725RW55I",
    "name": "Ophélia",
    "category": "Ophélia",
    "formatted_address": "4,7(59)",
    "phone_number": "+306987917071",
    "source_url": "https://www.google.com/maps/place/Oph%C3%A9lia/data=!4m7!3m6!1s0x1359d346c301c1b9:0x92e75694db7b5598!8m2!3d40.3043238!4d21.7890082!16s%2Fg%2F11mcvz5039!19sChIJucEBw0bTWRMRmFV725RW55I?authuser=0&hl=tr&rclk=1",
    "website_url": "",
    "rating_text": "4,7",
    "stars": null,
    "number_of_reviews": null,
    "price_level": "",
    "open_hours": "",
    "extraction_timestamp": "2025-06-07T15:28:00.406Z",
    "source_name": "google",
    "source_query": "Irrigation Equipment",
    "source_country": "GR",
    "country": "Greece",
    "state": "West Macedonia Region",
    "city": "Nomós Kozánis"
  },
  {
    "source_id": "ChIJ86yk3KqXWRMRrg1--33tw6M",
    "name": "Θέρμανση - Υδραυλικά Στεργιούλας",
    "category": "Θέρμανση - Υδραυλικά Στεργιούλας",
    "formatted_address": "5,0(23)",
    "phone_number": "+306945623816",
    "source_url": "https://www.google.com/maps/place/%CE%98%CE%AD%CF%81%CE%BC%CE%B1%CE%BD%CF%83%CE%B7+-+%CE%A5%CE%B4%CF%81%CE%B1%CF%85%CE%BB%CE%B9%CE%BA%CE%AC+%CE%A3%CF%84%CE%B5%CF%81%CE%B3%CE%B9%CE%BF%CF%8D%CE%BB%CE%B1%CF%82/data=!4m7!3m6!1s0x135997aadca4acf3:0xa3c3ed7dfb7e0dae!8m2!3d40.0838939!4d21.4297662!16s%2Fg%2F11gbk2wcfm!19sChIJ86yk3KqXWRMRrg1--33tw6M?authuser=0&hl=tr&rclk=1",
    "website_url": "",
    "rating_text": "5,0",
    "stars": null,
    "number_of_reviews": null,
    "price_level": "",
    "open_hours": "",
    "extraction_timestamp": "2025-06-07T15:28:00.407Z",
    "source_name": "google",
    "source_query": "Irrigation Equipment",
    "source_country": "GR",
    "country": "Greece",
    "state": "West Macedonia Region",
    "city": "Nomós Kozánis"
  },
  {
    "source_id": "ChIJNeGDTyv9WRMRtiugZ20ODZg",
    "name": "ΚΑΡΑΓΕΩΡΓΙΑΔΗΣ ΒΑΣΙΛΗΣ - Η ΛΥΣΗ ΣΤΟ ΠΡΟΒΛΗΜΑ ΣΑΣ",
    "category": "ΚΑΡΑΓΕΩΡΓΙΑΔΗΣ ΒΑΣΙΛΗΣ - Η ΛΥΣΗ ΣΤΟ ΠΡΟΒΛΗΜΑ ΣΑΣ",
    "formatted_address": "3,8(11)",
    "phone_number": "+306947304227",
    "source_url": "https://www.google.com/maps/place/%CE%9A%CE%91%CE%A1%CE%91%CE%93%CE%95%CE%A9%CE%A1%CE%93%CE%99%CE%91%CE%94%CE%97%CE%A3+%CE%92%CE%91%CE%A3%CE%99%CE%9B%CE%97%CE%A3+-+%CE%97+%CE%9B%CE%A5%CE%A3%CE%97+%CE%A3%CE%A4%CE%9F+%CE%A0%CE%A1%CE%9F%CE%92%CE%9B%CE%97%CE%9C%CE%91+%CE%A3%CE%91%CE%A3/data=!4m7!3m6!1s0x1359fd2b4f83e135:0x980d0e6d67a02bb6!8m2!3d40.2308423!4d21.47931!16s%2Fg%2F11h4nbl66s!19sChIJNeGDTyv9WRMRtiugZ20ODZg?authuser=0&hl=tr&rclk=1",
    "website_url": "",
    "rating_text": "3,8",
    "stars": null,
    "number_of_reviews": null,
    "price_level": "",
    "open_hours": "",
    "extraction_timestamp": "2025-06-07T15:28:00.409Z",
    "source_name": "google",
    "source_query": "Irrigation Equipment",
    "source_country": "GR",
    "country": "Greece",
    "state": "West Macedonia Region",
    "city": "Nomós Kozánis"
  },
  {
    "source_id": "ChIJbWCfMG7SWRMR6YmkJmDy6Zk",
    "name": "LIMNIDIS SA",
    "category": "LIMNIDIS SA",
    "formatted_address": "4,2(143)",
    "phone_number": "+302461036459",
    "source_url": "https://www.google.com/maps/place/LIMNIDIS+SA/data=!4m7!3m6!1s0x1359d26e309f606d:0x99e9f26026a489e9!8m2!3d40.312418!4d21.823408!16s%2Fg%2F1thv2430!19sChIJbWCfMG7SWRMR6YmkJmDy6Zk?authuser=0&hl=tr&rclk=1",
    "website_url": "",
    "rating_text": "4,2",
    "stars": null,
    "number_of_reviews": null,
    "price_level": "",
    "open_hours": "",
    "extraction_timestamp": "2025-06-07T15:28:00.410Z",
    "source_name": "google",
    "source_query": "Irrigation Equipment",
    "source_country": "GR",
    "country": "Greece",
    "state": "West Macedonia Region",
    "city": "Nomós Kozánis"
  },
  {
    "source_id": "ChIJTYaybO7tWRMRuGeBgx8KyaI",
    "name": "Υδραυλικά \" Καπέσιος\"",
    "category": "Υδραυλικά \" Καπέσιος\"",
    "formatted_address": "5,0(1)",
    "phone_number": "+302468031254",
    "source_url": "https://www.google.com/maps/place/%CE%A5%CE%B4%CF%81%CE%B1%CF%85%CE%BB%CE%B9%CE%BA%CE%AC+%22+%CE%9A%CE%B1%CF%80%CE%AD%CF%83%CE%B9%CE%BF%CF%82%22/data=!4m7!3m6!1s0x1359edee6cb2864d:0xa2c90a1f838167b8!8m2!3d40.2622531!4d21.3235915!16s%2Fg%2F11fkwcwnkt!19sChIJTYaybO7tWRMRuGeBgx8KyaI?authuser=0&hl=tr&rclk=1",
    "website_url": "",
    "rating_text": "5,0",
    "stars": null,
    "number_of_reviews": null,
    "price_level": "",
    "open_hours": "",
    "extraction_timestamp": "2025-06-07T15:28:00.411Z",
    "source_name": "google",
    "source_query": "Irrigation Equipment",
    "source_country": "GR",
    "country": "Greece",
    "state": "West Macedonia Region",
    "city": "Nomós Kozánis"
  },
  {
    "source_id": "ChIJjzhrotp8VxMRAD75N75a3_g",
    "name": "Kotsidis Chryssovalantis",
    "category": "Kotsidis Chryssovalantis",
    "formatted_address": "4,8(21)",
    "phone_number": "+302463029234",
    "source_url": "https://www.google.com/maps/place/Kotsidis+Chryssovalantis/data=!4m7!3m6!1s0x13577cdaa26b388f:0xf8df5abe37f93e00!8m2!3d40.5126148!4d21.6674627!16s%2Fg%2F11h028snx!19sChIJjzhrotp8VxMRAD75N75a3_g?authuser=0&hl=tr&rclk=1",
    "website_url": "",
    "rating_text": "4,8",
    "stars": null,
    "number_of_reviews": null,
    "price_level": "",
    "open_hours": "",
    "extraction_timestamp": "2025-06-07T15:28:00.412Z",
    "source_name": "google",
    "source_query": "Irrigation Equipment",
    "source_country": "GR",
    "country": "Greece",
    "state": "West Macedonia Region",
    "city": "Nomós Kozánis"
  },
  {
    "source_id": "ChIJw_Lh3yR9VxMRiliPg3yXEko",
    "name": "ΑΘΑΝΑΣΙΟΣ ΒΛΑΧΟΔΗΜΟΣ ΤΟΥ ΚΩΝΣΤΑΝΤΙΝΟΥ",
    "category": "ΑΘΑΝΑΣΙΟΣ ΒΛΑΧΟΔΗΜΟΣ ΤΟΥ ΚΩΝΣΤΑΝΤΙΝΟΥ",
    "formatted_address": "5,0(4)",
    "phone_number": "+306973001138",
    "source_url": "https://www.google.com/maps/place/%CE%91%CE%98%CE%91%CE%9D%CE%91%CE%A3%CE%99%CE%9F%CE%A3+%CE%92%CE%9B%CE%91%CE%A7%CE%9F%CE%94%CE%97%CE%9C%CE%9F%CE%A3+%CE%A4%CE%9F%CE%A5+%CE%9A%CE%A9%CE%9D%CE%A3%CE%A4%CE%91%CE%9D%CE%A4%CE%99%CE%9D%CE%9F%CE%A5/data=!4m7!3m6!1s0x13577d24dfe1f2c3:0x4a12977c838f588a!8m2!3d40.5131261!4d21.6818395!16s%2Fg%2F11jzj8k9qv!19sChIJw_Lh3yR9VxMRiliPg3yXEko?authuser=0&hl=tr&rclk=1",
    "website_url": "",
    "rating_text": "5,0",
    "stars": null,
    "number_of_reviews": null,
    "price_level": "",
    "open_hours": "",
    "extraction_timestamp": "2025-06-07T15:28:00.413Z",
    "source_name": "google",
    "source_query": "Irrigation Equipment",
    "source_country": "GR",
    "country": "Greece",
    "state": "West Macedonia Region",
    "city": "Nomós Kozánis"
  },
  {
    "source_id": "ChIJW4WWtGjTWRMR69of4pOppqA",
    "name": "Siamidou Paraskevi \"Ydrodomi\"",
    "category": "Siamidou Paraskevi \"Ydrodomi\"",
    "formatted_address": "5,0(1)",
    "phone_number": "+302461092527",
    "source_url": "https://www.google.com/maps/place/Siamidou+Paraskevi+%22Ydrodomi%22/data=!4m7!3m6!1s0x1359d368b496855b:0xa0a6a993e21fdaeb!8m2!3d40.347247!4d21.827896!16s%2Fg%2F11h168wz4!19sChIJW4WWtGjTWRMR69of4pOppqA?authuser=0&hl=tr&rclk=1",
    "website_url": "",
    "rating_text": "5,0",
    "stars": null,
    "number_of_reviews": null,
    "price_level": "",
    "open_hours": "",
    "extraction_timestamp": "2025-06-07T15:28:00.414Z",
    "source_name": "google",
    "source_query": "Irrigation Equipment",
    "source_country": "GR",
    "country": "Greece",
    "state": "West Macedonia Region",
    "city": "Nomós Kozánis"
  },
  {
    "source_id": "ChIJtTzxxbN9VxMREIprHUJClwU",
    "name": "Ιωσηφίδης Χάρης ΥΔΡΑΥΛΙΚΑ",
    "category": "Ιωσηφίδης Χάρης ΥΔΡΑΥΛΙΚΑ",
    "formatted_address": "5,0(9)",
    "phone_number": "+306947844498",
    "source_url": "https://www.google.com/maps/place/%CE%99%CF%89%CF%83%CE%B7%CF%86%CE%AF%CE%B4%CE%B7%CF%82+%CE%A7%CE%AC%CF%81%CE%B7%CF%82+%CE%A5%CE%94%CE%A1%CE%91%CE%A5%CE%9B%CE%99%CE%9A%CE%91/data=!4m7!3m6!1s0x13577db3c5f13cb5:0x59742421d6b8a10!8m2!3d40.5094012!4d21.6747258!16s%2Fg%2F11krkdyrky!19sChIJtTzxxbN9VxMREIprHUJClwU?authuser=0&hl=tr&rclk=1",
    "website_url": "",
    "rating_text": "5,0",
    "stars": null,
    "number_of_reviews": null,
    "price_level": "",
    "open_hours": "",
    "extraction_timestamp": "2025-06-07T15:28:00.415Z",
    "source_name": "google",
    "source_query": "Irrigation Equipment",
    "source_country": "GR",
    "country": "Greece",
    "state": "West Macedonia Region",
    "city": "Nomós Kozánis"
  },
  {
    "source_id": "ChIJFYFjxqfTWRMR7o7nQA9VWfE",
    "name": "Zōophárma",
    "category": "Zōophárma",
    "formatted_address": "4,9(15)",
    "phone_number": "+302461026356",
    "source_url": "https://www.google.com/maps/place/Z%C5%8Doph%C3%A1rma/data=!4m7!3m6!1s0x1359d3a7c6638115:0xf159550f40e78eee!8m2!3d40.3055896!4d21.7898038!16s%2Fg%2F11qnlk8czq!19sChIJFYFjxqfTWRMR7o7nQA9VWfE?authuser=0&hl=tr&rclk=1",
    "website_url": "",
    "rating_text": "4,9",
    "stars": null,
    "number_of_reviews": null,
    "price_level": "",
    "open_hours": "",
    "extraction_timestamp": "2025-06-07T15:28:00.416Z",
    "source_name": "google",
    "source_query": "Irrigation Equipment",
    "source_country": "GR",
    "country": "Greece",
    "state": "West Macedonia Region",
    "city": "Nomós Kozánis"
  },
  {
    "source_id": "ChIJhWjwfsIVVBMRRLnszbZbxUk",
    "name": "Irrigationpro",
    "category": "Irrigationpro",
    "formatted_address": "5,0(1)",
    "phone_number": "+38970401147",
    "source_url": "https://www.google.com/maps/place/Irrigationpro/data=!4m7!3m6!1s0x135415c27ef06885:0x49c55bb6cdecb944!8m2!3d41.9907145!4d21.4371336!16s%2Fg%2F11h27mkf2n!19sChIJhWjwfsIVVBMRRLnszbZbxUk?authuser=0&hl=tr&rclk=1",
    "website_url": "",
    "rating_text": "5,0",
    "stars": null,
    "number_of_reviews": null,
    "price_level": "",
    "open_hours": "",
    "extraction_timestamp": "2025-06-07T15:28:00.417Z",
    "source_name": "google",
    "source_query": "Irrigation Equipment",
    "source_country": "GR",
    "country": "Greece",
    "state": "West Macedonia Region",
    "city": "Nomós Kozánis"
  },
  {
    "source_id": "ChIJa1A0aOXSWRMR-HEOPxrePY8",
    "name": "FUNNY BUNNY",
    "category": "FUNNY BUNNY",
    "formatted_address": "4,6(213)",
    "phone_number": "+302311113611",
    "source_url": "https://www.google.com/maps/place/FUNNY+BUNNY/data=!4m7!3m6!1s0x1359d2e56834506b:0x8f3dde1a3f0e71f8!8m2!3d40.312107!4d21.8235187!16s%2Fg%2F11c1wzp80b!19sChIJa1A0aOXSWRMR-HEOPxrePY8?authuser=0&hl=tr&rclk=1",
    "website_url": "",
    "rating_text": "4,6",
    "stars": null,
    "number_of_reviews": null,
    "price_level": "",
    "open_hours": "",
    "extraction_timestamp": "2025-06-07T15:28:00.419Z",
    "source_name": "google",
    "source_query": "Irrigation Equipment",
    "source_country": "GR",
    "country": "Greece",
    "state": "West Macedonia Region",
    "city": "Nomós Kozánis"
  },
  {
    "source_id": "ChIJ6VIlOXStCWYRnLy_fVci9aQ",
    "name": "Στυλιανός Κων. Κικίδης",
    "category": "Στυλιανός Κων. Κικίδης",
    "formatted_address": "5,0(7)",
    "phone_number": "+306975712940",
    "source_url": "https://www.google.com/maps/place/%CE%A3%CF%84%CF%85%CE%BB%CE%B9%CE%B1%CE%BD%CF%8C%CF%82+%CE%9A%CF%89%CE%BD.+%CE%9A%CE%B9%CE%BA%CE%AF%CE%B4%CE%B7%CF%82/data=!4m7!3m6!1s0x6609ad74392552e9:0xa4f522577dbfbc9c!8m2!3d40.3310233!4d21.6294594!16s%2Fg%2F11s8w7rg6r!19sChIJ6VIlOXStCWYRnLy_fVci9aQ?authuser=0&hl=tr&rclk=1",
    "website_url": "",
    "rating_text": "5,0",
    "stars": null,
    "number_of_reviews": null,
    "price_level": "",
    "open_hours": "",
    "extraction_timestamp": "2025-06-07T15:28:00.420Z",
    "source_name": "google",
    "source_query": "Irrigation Equipment",
    "source_country": "GR",
    "country": "Greece",
    "state": "West Macedonia Region",
    "city": "Nomós Kozánis"
  },
  {
    "source_id": "ChIJP6mV10R_WBMRmKs2kVzQQL0",
    "name": "ADRITEC EUROPE S.A.",
    "category": "ADRITEC EUROPE S.A.",
    "formatted_address": "4,6(20)",
    "phone_number": "+302410975170",
    "source_url": "https://www.google.com/maps/place/ADRITEC+EUROPE+S.A./data=!4m7!3m6!1s0x13587f44d795a93f:0xbd40d05c9136ab98!8m2!3d39.6762619!4d22.5489292!16s%2Fg%2F11_qtp7mx!19sChIJP6mV10R_WBMRmKs2kVzQQL0?authuser=0&hl=tr&rclk=1",
    "website_url": "",
    "rating_text": "4,6",
    "stars": null,
    "number_of_reviews": null,
    "price_level": "",
    "open_hours": "",
    "extraction_timestamp": "2025-06-07T15:28:00.420Z",
    "source_name": "google",
    "source_query": "Irrigation Equipment",
    "source_country": "GR",
    "country": "Greece",
    "state": "West Macedonia Region",
    "city": "Nomós Kozánis"
  },
  {
    "source_id": "ChIJjWDTbWXTWRMRlBnI0Nns39I",
    "name": "Mikel Spot",
    "category": "Mikel Spot",
    "formatted_address": "4,5(80) · €1–5",
    "phone_number": "",
    "source_url": "https://www.google.com/maps/place/Mikel+Spot/data=!4m7!3m6!1s0x1359d3656dd3608d:0xd2dfecd9d0c81994!8m2!3d40.3086853!4d21.7855625!16s%2Fg%2F11ll2pbyy8!19sChIJjWDTbWXTWRMRlBnI0Nns39I?authuser=0&hl=tr&rclk=1",
    "website_url": "",
    "rating_text": "4,5",
    "stars": null,
    "number_of_reviews": null,
    "price_level": "",
    "open_hours": "",
    "extraction_timestamp": "2025-06-07T15:28:00.421Z",
    "source_name": "google",
    "source_query": "Irrigation Equipment",
    "source_country": "GR",
    "country": "Greece",
    "state": "West Macedonia Region",
    "city": "Nomós Kozánis"
  },
  {
    "source_id": "ChIJUzhakLvTWRMRqspynQaL9B0",
    "name": "Take a Stick",
    "category": "Take a Stick",
    "formatted_address": "5,0(21) · €1–5",
    "phone_number": "+302461181390",
    "source_url": "https://www.google.com/maps/place/Take+a+Stick/data=!4m7!3m6!1s0x1359d3bb905a3853:0x1df48b069d72caaa!8m2!3d40.3010314!4d21.7853126!16s%2Fg%2F11kpt6bzcc!19sChIJUzhakLvTWRMRqspynQaL9B0?authuser=0&hl=tr&rclk=1",
    "website_url": "",
    "rating_text": "5,0",
    "stars": null,
    "number_of_reviews": null,
    "price_level": "",
    "open_hours": "",
    "extraction_timestamp": "2025-06-07T15:28:00.423Z",
    "source_name": "google",
    "source_query": "Irrigation Equipment",
    "source_country": "GR",
    "country": "Greece",
    "state": "West Macedonia Region",
    "city": "Nomós Kozánis"
  },
  {
    "source_id": "ChIJ0wkjRoILVxMRpbhQnW4TuxI",
    "name": "sweet 'n salty",
    "category": "sweet 'n salty",
    "formatted_address": "4,9(48)",
    "phone_number": "+302381031744",
    "source_url": "https://www.google.com/maps/place/sweet+%27n+salty/data=!4m7!3m6!1s0x13570b82462309d3:0x12bb136e9d50b8a5!8m2!3d40.7948934!4d21.8354647!16s%2Fg%2F11tcmkt230!19sChIJ0wkjRoILVxMRpbhQnW4TuxI?authuser=0&hl=tr&rclk=1",
    "website_url": "",
    "rating_text": "4,9",
    "stars": null,
    "number_of_reviews": null,
    "price_level": "",
    "open_hours": "",
    "extraction_timestamp": "2025-06-07T15:28:00.424Z",
    "source_name": "google",
    "source_query": "Irrigation Equipment",
    "source_country": "GR",
    "country": "Greece",
    "state": "West Macedonia Region",
    "city": "Nomós Kozánis"
  },
  {
    "source_id": "ChIJQ3DXWKXTWRMRGaATytXIiZY",
    "name": "Bangélēs",
    "category": "Bangélēs",
    "formatted_address": "4,9(13) · €1–5",
    "phone_number": "+302461300764",
    "source_url": "https://www.google.com/maps/place/Bang%C3%A9l%C4%93s/data=!4m7!3m6!1s0x1359d3a558d77043:0x9689c8d5ca13a019!8m2!3d40.3310309!4d21.789625!16s%2Fg%2F11vyg037dg!19sChIJQ3DXWKXTWRMRGaATytXIiZY?authuser=0&hl=tr&rclk=1",
    "website_url": "",
    "rating_text": "4,9",
    "stars": null,
    "number_of_reviews": null,
    "price_level": "",
    "open_hours": "",
    "extraction_timestamp": "2025-06-07T15:28:00.424Z",
    "source_name": "google",
    "source_query": "Irrigation Equipment",
    "source_country": "GR",
    "country": "Greece",
    "state": "West Macedonia Region",
    "city": "Nomós Kozánis"
  },
  {
    "source_id": "ChIJP4rAkt4LVxMRZDayPhtO2z4",
    "name": "Coupa Coffee",
    "category": "Coupa Coffee",
    "formatted_address": "4,9(41) · €1–5",
    "phone_number": "+302381031869",
    "source_url": "https://www.google.com/maps/place/Coupa+Coffee/data=!4m7!3m6!1s0x13570bde92c08a3f:0x3edb4e1b3eb23664!8m2!3d40.7961888!4d21.8329849!16s%2Fg%2F11sx6_wkz2!19sChIJP4rAkt4LVxMRZDayPhtO2z4?authuser=0&hl=tr&rclk=1",
    "website_url": "",
    "rating_text": "4,9",
    "stars": null,
    "number_of_reviews": null,
    "price_level": "",
    "open_hours": "",
    "extraction_timestamp": "2025-06-07T15:28:00.426Z",
    "source_name": "google",
    "source_query": "Irrigation Equipment",
    "source_country": "GR",
    "country": "Greece",
    "state": "West Macedonia Region",
    "city": "Nomós Kozánis"
  },
  {
    "source_id": "ChIJZVcRJRoCWBMRrXNMNo3Oi8Q",
    "name": "Zootrofika PetShop",
    "category": "Zootrofika PetShop",
    "formatted_address": "4,8(88)",
    "phone_number": "+302351027050",
    "source_url": "https://www.google.com/maps/place/Zootrofika+PetShop/data=!4m7!3m6!1s0x1358021a25115765:0xc48bce8d364c73ad!8m2!3d40.2837661!4d22.5134994!16s%2Fg%2F11c1xm7hly!19sChIJZVcRJRoCWBMRrXNMNo3Oi8Q?authuser=0&hl=tr&rclk=1",
    "website_url": "",
    "rating_text": "4,8",
    "stars": null,
    "number_of_reviews": null,
    "price_level": "",
    "open_hours": "",
    "extraction_timestamp": "2025-06-07T15:28:00.426Z",
    "source_name": "google",
    "source_query": "Irrigation Equipment",
    "source_country": "GR",
    "country": "Greece",
    "state": "West Macedonia Region",
    "city": "Nomós Kozánis"
  },
  {
    "source_id": "ChIJjR-7GwXTWRMRwIGbj3HAPpA",
    "name": "Kafenaidaki",
    "category": "Kafenaidaki",
    "formatted_address": "4,8(12)",
    "phone_number": "+302461021751",
    "source_url": "https://www.google.com/maps/place/Kafenaidaki/data=!4m7!3m6!1s0x1359d3051bbb1f8d:0x903ec0718f9b81c0!8m2!3d40.2976893!4d21.7861691!16s%2Fg%2F11rfn3lq1h!19sChIJjR-7GwXTWRMRwIGbj3HAPpA?authuser=0&hl=tr&rclk=1",
    "website_url": "",
    "rating_text": "4,8",
    "stars": null,
    "number_of_reviews": null,
    "price_level": "",
    "open_hours": "",
    "extraction_timestamp": "2025-06-07T15:28:00.427Z",
    "source_name": "google",
    "source_query": "Irrigation Equipment",
    "source_country": "GR",
    "country": "Greece",
    "state": "West Macedonia Region",
    "city": "Nomós Kozánis"
  },
  {
    "source_id": "ChIJDUXw_GXTWRMROlZhQbgV04s",
    "name": "Royal Bean",
    "category": "Royal Bean",
    "formatted_address": "4,8(125) · €1–5",
    "phone_number": "+302461308144",
    "source_url": "https://www.google.com/maps/place/Royal+Bean/data=!4m7!3m6!1s0x1359d365fcf0450d:0x8bd315b84161563a!8m2!3d40.3026533!4d21.8004812!16s%2Fg%2F11n1ncbsq6!19sChIJDUXw_GXTWRMROlZhQbgV04s?authuser=0&hl=tr&rclk=1",
    "website_url": "",
    "rating_text": "4,8",
    "stars": null,
    "number_of_reviews": null,
    "price_level": "",
    "open_hours": "",
    "extraction_timestamp": "2025-06-07T15:28:00.429Z",
    "source_name": "google",
    "source_query": "Irrigation Equipment",
    "source_country": "GR",
    "country": "Greece",
    "state": "West Macedonia Region",
    "city": "Nomós Kozánis"
  },
  {
    "source_id": "ChIJM-8EC9EJVxMRwwGJRHThFLM",
    "name": "ΠΑΝΤΟΠΩΛΕΙΟ \"ΧΟΡΟΜ\"",
    "category": "ΠΑΝΤΟΠΩΛΕΙΟ \"ΧΟΡΟΜ\"",
    "formatted_address": "4,5(22)",
    "phone_number": "+302381034317",
    "source_url": "https://www.google.com/maps/place/%CE%A0%CE%91%CE%9D%CE%A4%CE%9F%CE%A0%CE%A9%CE%9B%CE%95%CE%99%CE%9F+%22%CE%A7%CE%9F%CE%A1%CE%9F%CE%9C%22/data=!4m7!3m6!1s0x135709d10b04ef33:0xb314e174448901c3!8m2!3d40.8520091!4d21.8486567!16s%2Fg%2F1pv0bcs1k!19sChIJM-8EC9EJVxMRwwGJRHThFLM?authuser=0&hl=tr&rclk=1",
    "website_url": "",
    "rating_text": "4,5",
    "stars": null,
    "number_of_reviews": null,
    "price_level": "",
    "open_hours": "",
    "extraction_timestamp": "2025-06-07T15:28:00.429Z",
    "source_name": "google",
    "source_query": "Irrigation Equipment",
    "source_country": "GR",
    "country": "Greece",
    "state": "West Macedonia Region",
    "city": "Nomós Kozánis"
  },
  {
    "source_id": "ChIJZ1J8yt3RWRMRo6uKKY1FyEM",
    "name": "Mastranestis SA",
    "category": "Mastranestis SA",
    "formatted_address": "4,7(43)",
    "phone_number": "+302461037632",
    "source_url": "https://www.google.com/maps/place/Mastranestis+SA/data=!4m7!3m6!1s0x1359d1ddca7c5267:0x43c8458d298aaba3!8m2!3d40.3054275!4d21.7337741!16s%2Fg%2F11bx9csq1n!19sChIJZ1J8yt3RWRMRo6uKKY1FyEM?authuser=0&hl=tr&rclk=1",
    "website_url": "",
    "rating_text": "4,7",
    "stars": null,
    "number_of_reviews": null,
    "price_level": "",
    "open_hours": "",
    "extraction_timestamp": "2025-06-07T15:28:00.430Z",
    "source_name": "google",
    "source_query": "Irrigation Equipment",
    "source_country": "GR",
    "country": "Greece",
    "state": "West Macedonia Region",
    "city": "Nomós Kozánis"
  }
]
