[
  {
    "source_id": "ChIJP6mV10R_WBMRmKs2kVzQQL0",
    "name": "ADRITEC EUROPE S.A.",
    "category": "ADRITEC EUROPE S.A.",
    "formatted_address": "4,6(20)",
    "phone_number": "+302410975170",
    "source_url": "https://www.google.com/maps/place/ADRITEC+EUROPE+S.A./data=!4m7!3m6!1s0x13587f44d795a93f:0xbd40d05c9136ab98!8m2!3d39.6762619!4d22.5489292!16s%2Fg%2F11_qtp7mx!19sChIJP6mV10R_WBMRmKs2kVzQQL0?authuser=0&hl=tr&rclk=1",
    "website_url": "https://www.adriteceurope.gr/",
    "rating_text": "4,6",
    "stars": null,
    "number_of_reviews": null,
    "price_level": "",
    "open_hours": "",
    "extraction_timestamp": "2025-06-07T15:26:44.770Z",
    "source_name": "google",
    "source_query": "Irrigation Equipment",
    "source_country": "GR",
    "country": "Greece",
    "state": "West Macedonia Region",
    "city": "Platanórevma"
  },
  {
    "source_id": "ChIJDW05mHeZoRQRXHhD_XYglt0",
    "name": "ΑΓΡΟΔΟΜΗ - Μ. ΚΑΚΑΒΑ Ε.Ε.",
    "category": "ΑΓΡΟΔΟΜΗ - Μ. ΚΑΚΑΒΑ Ε.Ε.",
    "formatted_address": "4,7(19)",
    "phone_number": "+302106614141",
    "source_url": "https://www.google.com/maps/place/%CE%91%CE%93%CE%A1%CE%9F%CE%94%CE%9F%CE%9C%CE%97+-+%CE%9C.+%CE%9A%CE%91%CE%9A%CE%91%CE%92%CE%91+%CE%95.%CE%95./data=!4m7!3m6!1s0x14a1997798396d0d:0xdd962076fd43785c!8m2!3d38.0105257!4d23.8451325!16s%2Fg%2F1ttxf2r_!19sChIJDW05mHeZoRQRXHhD_XYglt0?authuser=0&hl=tr&rclk=1",
    "website_url": "http://www.agrodomi.gr/",
    "rating_text": "4,7",
    "stars": null,
    "number_of_reviews": null,
    "price_level": "",
    "open_hours": "",
    "extraction_timestamp": "2025-06-07T15:26:44.771Z",
    "source_name": "google",
    "source_query": "Irrigation Equipment",
    "source_country": "GR",
    "country": "Greece",
    "state": "West Macedonia Region",
    "city": "Platanórevma"
  },
  {
    "source_id": "ChIJ7f3YhRj_qRQRepBfgUmSdO8",
    "name": "drip irrigation system",
    "category": "drip irrigation system",
    "formatted_address": "",
    "phone_number": "+38970214420",
    "source_url": "https://www.google.com/maps/place/drip+irrigation+system/data=!4m7!3m6!1s0x14a9ff1885d8fded:0xef749249815f907a!8m2!3d41.4376826!4d22.6444234!16s%2Fg%2F11tjjvc857!19sChIJ7f3YhRj_qRQRepBfgUmSdO8?authuser=0&hl=tr&rclk=1",
    "website_url": "http://pronexhem.mk/",
    "rating_text": "",
    "stars": null,
    "number_of_reviews": null,
    "price_level": "",
    "open_hours": "",
    "extraction_timestamp": "2025-06-07T15:26:44.771Z",
    "source_name": "google",
    "source_query": "Irrigation Equipment",
    "source_country": "GR",
    "country": "Greece",
    "state": "West Macedonia Region",
    "city": "Platanórevma"
  },
  {
    "source_id": "ChIJdYGHPD8lqBQRqZQqWivtcXs",
    "name": "AGRODRIP S.A.",
    "category": "AGRODRIP S.A.",
    "formatted_address": "4,8(25)",
    "phone_number": "+302310796731",
    "source_url": "https://www.google.com/maps/place/AGRODRIP+S.A./data=!4m7!3m6!1s0x14a8253f3c878175:0x7b71ed2b5a2a94a9!8m2!3d40.6845245!4d22.7916908!16s%2Fg%2F1hf2l336l!19sChIJdYGHPD8lqBQRqZQqWivtcXs?authuser=0&hl=tr&rclk=1",
    "website_url": "http://www.agrodrip.gr/",
    "rating_text": "4,8",
    "stars": null,
    "number_of_reviews": null,
    "price_level": "",
    "open_hours": "",
    "extraction_timestamp": "2025-06-07T15:26:44.771Z",
    "source_name": "google",
    "source_query": "Irrigation Equipment",
    "source_country": "GR",
    "country": "Greece",
    "state": "West Macedonia Region",
    "city": "Platanórevma"
  },
  {
    "source_id": "ChIJpROts583qBQRjxHVzGML8UI",
    "name": "EVDOS S.A.",
    "category": "EVDOS S.A.",
    "formatted_address": "4,0(13)",
    "phone_number": "+302310681335",
    "source_url": "https://www.google.com/maps/place/EVDOS+S.A./data=!4m7!3m6!1s0x14a8379fb3ad13a5:0x42f10b63ccd5118f!8m2!3d40.6965937!4d22.9572893!16s%2Fg%2F1tnxz7vn!19sChIJpROts583qBQRjxHVzGML8UI?authuser=0&hl=tr&rclk=1",
    "website_url": "http://www.evdos.gr/",
    "rating_text": "4,0",
    "stars": null,
    "number_of_reviews": null,
    "price_level": "",
    "open_hours": "",
    "extraction_timestamp": "2025-06-07T15:26:44.772Z",
    "source_name": "google",
    "source_query": "Irrigation Equipment",
    "source_country": "GR",
    "country": "Greece",
    "state": "West Macedonia Region",
    "city": "Platanórevma"
  },
  {
    "source_id": "ChIJg5kQZ1F7WBMRMAG2pKLdIZQ",
    "name": "ΕΛΓΕΚ-ΠΑΣΙΑΣ ΧΡΥΣΟΒΑΛΑΝΤΗΣ ΜΟΝ ΙΚΕ",
    "category": "ΕΛΓΕΚ-ΠΑΣΙΑΣ ΧΡΥΣΟΒΑΛΑΝΤΗΣ ΜΟΝ ΙΚΕ",
    "formatted_address": "5,0(9)",
    "phone_number": "+302410541071",
    "source_url": "https://www.google.com/maps/place/%CE%95%CE%9B%CE%93%CE%95%CE%9A-%CE%A0%CE%91%CE%A3%CE%99%CE%91%CE%A3+%CE%A7%CE%A1%CE%A5%CE%A3%CE%9F%CE%92%CE%91%CE%9B%CE%91%CE%9D%CE%A4%CE%97%CE%A3+%CE%9C%CE%9F%CE%9D+%CE%99%CE%9A%CE%95/data=!4m7!3m6!1s0x13587b5167109983:0x9421dda2a4b60130!8m2!3d39.7663188!4d22.4902543!16s%2Fg%2F11fcr5ty4m!19sChIJg5kQZ1F7WBMRMAG2pKLdIZQ?authuser=0&hl=tr&rclk=1",
    "website_url": "http://elgekirrigation.com/",
    "rating_text": "5,0",
    "stars": null,
    "number_of_reviews": null,
    "price_level": "",
    "open_hours": "",
    "extraction_timestamp": "2025-06-07T15:26:44.772Z",
    "source_name": "google",
    "source_query": "Irrigation Equipment",
    "source_country": "GR",
    "country": "Greece",
    "state": "West Macedonia Region",
    "city": "Platanórevma"
  },
  {
    "source_id": "ChIJUcY0vRxJqBQRewPWB2sxkLk",
    "name": "Agritech - Εξοπλισμός Φυτωρίων",
    "category": "Agritech - Εξοπλισμός Φυτωρίων",
    "formatted_address": "4,5(22)",
    "phone_number": "+302394052488",
    "source_url": "https://www.google.com/maps/place/Agritech+-+%CE%95%CE%BE%CE%BF%CF%80%CE%BB%CE%B9%CF%83%CE%BC%CF%8C%CF%82+%CE%A6%CF%85%CF%84%CF%89%CF%81%CE%AF%CF%89%CE%BD/data=!4m7!3m6!1s0x14a8491cbd34c651:0xb990316b07d6037b!8m2!3d40.6912269!4d23.0621277!16s%2Fg%2F11g9qt5pmn!19sChIJUcY0vRxJqBQRewPWB2sxkLk?authuser=0&hl=tr&rclk=1",
    "website_url": "http://agritech.com.gr/",
    "rating_text": "4,5",
    "stars": null,
    "number_of_reviews": null,
    "price_level": "",
    "open_hours": "",
    "extraction_timestamp": "2025-06-07T15:26:44.772Z",
    "source_name": "google",
    "source_query": "Irrigation Equipment",
    "source_country": "GR",
    "country": "Greece",
    "state": "West Macedonia Region",
    "city": "Platanórevma"
  },
  {
    "source_id": "ChIJOw46Z9O8oRQRyxAr3MuaMa8",
    "name": "Pantelis Papadopoulos S.A.",
    "category": "Pantelis Papadopoulos S.A.",
    "formatted_address": "4,3(99)",
    "phone_number": "+302105193100",
    "source_url": "https://www.google.com/maps/place/Pantelis+Papadopoulos+S.A./data=!4m7!3m6!1s0x14a1bcd3673a0e3b:0xaf319acbdc2b10cb!8m2!3d37.9889866!4d23.7057373!16s%2Fg%2F11rvtn0c2!19sChIJOw46Z9O8oRQRyxAr3MuaMa8?authuser=0&hl=tr&rclk=1",
    "website_url": "http://www.papadopoulos.com.gr/",
    "rating_text": "4,3",
    "stars": null,
    "number_of_reviews": null,
    "price_level": "",
    "open_hours": "",
    "extraction_timestamp": "2025-06-07T15:26:44.773Z",
    "source_name": "google",
    "source_query": "Irrigation Equipment",
    "source_country": "GR",
    "country": "Greece",
    "state": "West Macedonia Region",
    "city": "Platanórevma"
  },
  {
    "source_id": "ChIJsVIewqE5qBQRpTlLNAwhwWM",
    "name": "ENOSI KATASKEVASTON GEORGIKON MICHANIMATON ELLADOS",
    "category": "ENOSI KATASKEVASTON GEORGIKON MICHANIMATON ELLADOS",
    "formatted_address": "5,0(2)",
    "phone_number": "+302310556229",
    "source_url": "https://www.google.com/maps/place/ENOSI+KATASKEVASTON+GEORGIKON+MICHANIMATON+ELLADOS/data=!4m7!3m6!1s0x14a839a1c21e52b1:0x63c1210c344b39a5!8m2!3d40.6410971!4d22.9308167!16s%2Fg%2F11gf0jpn2w!19sChIJsVIewqE5qBQRpTlLNAwhwWM?authuser=0&hl=tr&rclk=1",
    "website_url": "http://www.ekagem.gr/",
    "rating_text": "5,0",
    "stars": null,
    "number_of_reviews": null,
    "price_level": "",
    "open_hours": "",
    "extraction_timestamp": "2025-06-07T15:26:44.773Z",
    "source_name": "google",
    "source_query": "Irrigation Equipment",
    "source_country": "GR",
    "country": "Greece",
    "state": "West Macedonia Region",
    "city": "Platanórevma"
  },
  {
    "source_id": "ChIJ2fiRpP68oRQRe6-8QbNLzwc",
    "name": "Growit",
    "category": "Growit",
    "formatted_address": "4,8(115)",
    "phone_number": "+302109517000",
    "source_url": "https://www.google.com/maps/place/Growit/data=!4m7!3m6!1s0x14a1bcfea491f8d9:0x7cf4bb341bcaf7b!8m2!3d37.9614422!4d23.7104125!16s%2Fg%2F11g68x18x1!19sChIJ2fiRpP68oRQRe6-8QbNLzwc?authuser=0&hl=tr&rclk=1",
    "website_url": "https://www.growit.gr/",
    "rating_text": "4,8",
    "stars": null,
    "number_of_reviews": null,
    "price_level": "",
    "open_hours": "",
    "extraction_timestamp": "2025-06-07T15:26:44.773Z",
    "source_name": "google",
    "source_query": "Irrigation Equipment",
    "source_country": "GR",
    "country": "Greece",
    "state": "West Macedonia Region",
    "city": "Platanórevma"
  },
  {
    "source_id": "ChIJWeUSqXufoRQRcNjXdqzYHR0",
    "name": "Horomidis, E. & SP., O.E.",
    "category": "Horomidis, E. & SP., O.E.",
    "formatted_address": "Horomidis, E. & SP., O.E.",
    "phone_number": "+302102460660",
    "source_url": "https://www.google.com/maps/place/Horomidis,+E.+%26+SP.,+O.E./data=!4m7!3m6!1s0x14a19f7ba912e559:0x1d1dd8ac76d7d870!8m2!3d38.0920969!4d23.767626!16s%2Fg%2F11f102lfg7!19sChIJWeUSqXufoRQRcNjXdqzYHR0?authuser=0&hl=tr&rclk=1",
    "website_url": "https://horomidis.gr/",
    "rating_text": "4,8",
    "stars": null,
    "number_of_reviews": null,
    "price_level": "",
    "open_hours": "",
    "extraction_timestamp": "2025-06-07T15:26:44.773Z",
    "source_name": "google",
    "source_query": "Irrigation Equipment",
    "source_country": "GR",
    "country": "Greece",
    "state": "West Macedonia Region",
    "city": "Platanórevma"
  },
  {
    "source_id": "ChIJtQC1_-MpVhMRV3cd4tmjj38",
    "name": "Reppos Pumps",
    "category": "Reppos Pumps",
    "formatted_address": "4,3(12)",
    "phone_number": "+302343022317",
    "source_url": "https://www.google.com/maps/place/Reppos+Pumps/data=!4m7!3m6!1s0x135629e3ffb500b5:0x7f8fa3d9e21d7757!8m2!3d40.9866366!4d22.6146269!16s%2Fg%2F11c72lrhhw!19sChIJtQC1_-MpVhMRV3cd4tmjj38?authuser=0&hl=tr&rclk=1",
    "website_url": "http://www.reppospumps.gr/",
    "rating_text": "4,3",
    "stars": null,
    "number_of_reviews": null,
    "price_level": "",
    "open_hours": "",
    "extraction_timestamp": "2025-06-07T15:26:44.774Z",
    "source_name": "google",
    "source_query": "Irrigation Equipment",
    "source_country": "GR",
    "country": "Greece",
    "state": "West Macedonia Region",
    "city": "Platanórevma"
  }
]
