[
  {
    "source_id": "ChIJ3aDk-898VxMRnDM-x4dPsGU",
    "name": "KOTSIDIS PANAGIOTIS",
    "category": "KOTSIDIS PANAGIOTIS",
    "formatted_address": "4,6(50)",
    "phone_number": "+302463029890",
    "source_url": "https://www.google.com/maps/place/KOTSIDIS+PANAGIOTIS/data=!4m7!3m6!1s0x13577ccffbe4a0dd:0x65b04f87c73e339c!8m2!3d40.514594!4d21.6775865!16s%2Fg%2F1trzm74z!19sChIJ3aDk-898VxMRnDM-x4dPsGU?authuser=0&hl=tr&rclk=1",
    "website_url": "",
    "rating_text": "4,6",
    "stars": null,
    "number_of_reviews": null,
    "price_level": "",
    "open_hours": "",
    "extraction_timestamp": "2025-06-07T15:27:22.283Z",
    "source_name": "google",
    "source_query": "Irrigation Equipment",
    "source_country": "GR",
    "country": "Greece",
    "state": "West Macedonia Region",
    "city": "Ptolemaḯda"
  },
  {
    "source_id": "ChIJjzhrotp8VxMRAD75N75a3_g",
    "name": "Kotsidis Chryssovalantis",
    "category": "Kotsidis Chryssovalantis",
    "formatted_address": "4,8(21)",
    "phone_number": "+302463029234",
    "source_url": "https://www.google.com/maps/place/Kotsidis+Chryssovalantis/data=!4m7!3m6!1s0x13577cdaa26b388f:0xf8df5abe37f93e00!8m2!3d40.5126148!4d21.6674627!16s%2Fg%2F11h028snx!19sChIJjzhrotp8VxMRAD75N75a3_g?authuser=0&hl=tr&rclk=1",
    "website_url": "",
    "rating_text": "4,8",
    "stars": null,
    "number_of_reviews": null,
    "price_level": "",
    "open_hours": "",
    "extraction_timestamp": "2025-06-07T15:27:22.285Z",
    "source_name": "google",
    "source_query": "Irrigation Equipment",
    "source_country": "GR",
    "country": "Greece",
    "state": "West Macedonia Region",
    "city": "Ptolemaḯda"
  },
  {
    "source_id": "ChIJq7DtbsZ9VxMRPHq_2I-M9Tc",
    "name": "Υδρορροές | Ανδρεάδης Χρήστος",
    "category": "Υδρορροές | Ανδρεάδης Χρήστος",
    "formatted_address": "5,0(9)",
    "phone_number": "+306974729961",
    "source_url": "https://www.google.com/maps/place/%CE%A5%CE%B4%CF%81%CE%BF%CF%81%CF%81%CE%BF%CE%AD%CF%82+%7C+%CE%91%CE%BD%CE%B4%CF%81%CE%B5%CE%AC%CE%B4%CE%B7%CF%82+%CE%A7%CF%81%CE%AE%CF%83%CF%84%CE%BF%CF%82/data=!4m7!3m6!1s0x13577dc66eedb0ab:0x37f58c8fd8bf7a3c!8m2!3d40.510837!4d21.674409!16s%2Fg%2F11j2p68xy1!19sChIJq7DtbsZ9VxMRPHq_2I-M9Tc?authuser=0&hl=tr&rclk=1",
    "website_url": "",
    "rating_text": "5,0",
    "stars": null,
    "number_of_reviews": null,
    "price_level": "",
    "open_hours": "",
    "extraction_timestamp": "2025-06-07T15:27:22.286Z",
    "source_name": "google",
    "source_query": "Irrigation Equipment",
    "source_country": "GR",
    "country": "Greece",
    "state": "West Macedonia Region",
    "city": "Ptolemaḯda"
  },
  {
    "source_id": "ChIJtTzxxbN9VxMREIprHUJClwU",
    "name": "Ιωσηφίδης Χάρης ΥΔΡΑΥΛΙΚΑ",
    "category": "Ιωσηφίδης Χάρης ΥΔΡΑΥΛΙΚΑ",
    "formatted_address": "5,0(9)",
    "phone_number": "+306947844498",
    "source_url": "https://www.google.com/maps/place/%CE%99%CF%89%CF%83%CE%B7%CF%86%CE%AF%CE%B4%CE%B7%CF%82+%CE%A7%CE%AC%CF%81%CE%B7%CF%82+%CE%A5%CE%94%CE%A1%CE%91%CE%A5%CE%9B%CE%99%CE%9A%CE%91/data=!4m7!3m6!1s0x13577db3c5f13cb5:0x59742421d6b8a10!8m2!3d40.5094012!4d21.6747258!16s%2Fg%2F11krkdyrky!19sChIJtTzxxbN9VxMREIprHUJClwU?authuser=0&hl=tr&rclk=1",
    "website_url": "",
    "rating_text": "5,0",
    "stars": null,
    "number_of_reviews": null,
    "price_level": "",
    "open_hours": "",
    "extraction_timestamp": "2025-06-07T15:27:22.288Z",
    "source_name": "google",
    "source_query": "Irrigation Equipment",
    "source_country": "GR",
    "country": "Greece",
    "state": "West Macedonia Region",
    "city": "Ptolemaḯda"
  },
  {
    "source_id": "ChIJw_Lh3yR9VxMRiliPg3yXEko",
    "name": "ΑΘΑΝΑΣΙΟΣ ΒΛΑΧΟΔΗΜΟΣ ΤΟΥ ΚΩΝΣΤΑΝΤΙΝΟΥ",
    "category": "ΑΘΑΝΑΣΙΟΣ ΒΛΑΧΟΔΗΜΟΣ ΤΟΥ ΚΩΝΣΤΑΝΤΙΝΟΥ",
    "formatted_address": "5,0(4)",
    "phone_number": "+306973001138",
    "source_url": "https://www.google.com/maps/place/%CE%91%CE%98%CE%91%CE%9D%CE%91%CE%A3%CE%99%CE%9F%CE%A3+%CE%92%CE%9B%CE%91%CE%A7%CE%9F%CE%94%CE%97%CE%9C%CE%9F%CE%A3+%CE%A4%CE%9F%CE%A5+%CE%9A%CE%A9%CE%9D%CE%A3%CE%A4%CE%91%CE%9D%CE%A4%CE%99%CE%9D%CE%9F%CE%A5/data=!4m7!3m6!1s0x13577d24dfe1f2c3:0x4a12977c838f588a!8m2!3d40.5131261!4d21.6818395!16s%2Fg%2F11jzj8k9qv!19sChIJw_Lh3yR9VxMRiliPg3yXEko?authuser=0&hl=tr&rclk=1",
    "website_url": "",
    "rating_text": "5,0",
    "stars": null,
    "number_of_reviews": null,
    "price_level": "",
    "open_hours": "",
    "extraction_timestamp": "2025-06-07T15:27:22.289Z",
    "source_name": "google",
    "source_query": "Irrigation Equipment",
    "source_country": "GR",
    "country": "Greece",
    "state": "West Macedonia Region",
    "city": "Ptolemaḯda"
  },
  {
    "source_id": "ChIJbQhS74Z7VxMRxap0BtKexzw",
    "name": "ΚΑΡΑΝΑΚΗΣ ΒΑΣΙΛΕΙΟΣ ΘΕΡΜΟΥΔΡΑΥΛΙΚΟΣ",
    "category": "ΚΑΡΑΝΑΚΗΣ ΒΑΣΙΛΕΙΟΣ ΘΕΡΜΟΥΔΡΑΥΛΙΚΟΣ",
    "formatted_address": "5,0(9)",
    "phone_number": "+306934537881",
    "source_url": "https://www.google.com/maps/place/%CE%9A%CE%91%CE%A1%CE%91%CE%9D%CE%91%CE%9A%CE%97%CE%A3+%CE%92%CE%91%CE%A3%CE%99%CE%9B%CE%95%CE%99%CE%9F%CE%A3+%CE%98%CE%95%CE%A1%CE%9C%CE%9F%CE%A5%CE%94%CE%A1%CE%91%CE%A5%CE%9B%CE%99%CE%9A%CE%9F%CE%A3/data=!4m7!3m6!1s0x13577b86ef52086d:0x3cc79ed20674aac5!8m2!3d40.5143686!4d21.6771384!16s%2Fg%2F11m_sj6m56!19sChIJbQhS74Z7VxMRxap0BtKexzw?authuser=0&hl=tr&rclk=1",
    "website_url": "",
    "rating_text": "5,0",
    "stars": null,
    "number_of_reviews": null,
    "price_level": "",
    "open_hours": "",
    "extraction_timestamp": "2025-06-07T15:27:22.290Z",
    "source_name": "google",
    "source_query": "Irrigation Equipment",
    "source_country": "GR",
    "country": "Greece",
    "state": "West Macedonia Region",
    "city": "Ptolemaḯda"
  },
  {
    "source_id": "ChIJH_6mgNF8VxMRAcDSiQf3SeE",
    "name": "Xanthopoulos Michael",
    "category": "Xanthopoulos Michael",
    "formatted_address": "5,0(76)",
    "phone_number": "+306972826392",
    "source_url": "https://www.google.com/maps/place/Xanthopoulos+Michael/data=!4m7!3m6!1s0x13577cd180a6fe1f:0xe149f70789d2c001!8m2!3d40.5211996!4d21.6767264!16s%2Fg%2F11h1f57dh!19sChIJH_6mgNF8VxMRAcDSiQf3SeE?authuser=0&hl=tr&rclk=1",
    "website_url": "",
    "rating_text": "5,0",
    "stars": null,
    "number_of_reviews": null,
    "price_level": "",
    "open_hours": "",
    "extraction_timestamp": "2025-06-07T15:27:22.292Z",
    "source_name": "google",
    "source_query": "Irrigation Equipment",
    "source_country": "GR",
    "country": "Greece",
    "state": "West Macedonia Region",
    "city": "Ptolemaḯda"
  },
  {
    "source_id": "ChIJM-YJls98VxMRi--Q4QzEbcQ",
    "name": "Gkogkos Ioannis",
    "category": "Gkogkos Ioannis",
    "formatted_address": "5,0(8)",
    "phone_number": "+302463080790",
    "source_url": "https://www.google.com/maps/place/Gkogkos+Ioannis/data=!4m7!3m6!1s0x13577ccf9609e633:0xc46dc40ce190ef8b!8m2!3d40.5158878!4d21.6765941!16s%2Fg%2F11g_k6zvx!19sChIJM-YJls98VxMRi--Q4QzEbcQ?authuser=0&hl=tr&rclk=1",
    "website_url": "",
    "rating_text": "5,0",
    "stars": null,
    "number_of_reviews": null,
    "price_level": "",
    "open_hours": "",
    "extraction_timestamp": "2025-06-07T15:27:22.293Z",
    "source_name": "google",
    "source_query": "Irrigation Equipment",
    "source_country": "GR",
    "country": "Greece",
    "state": "West Macedonia Region",
    "city": "Ptolemaḯda"
  },
  {
    "source_id": "ChIJLfa-iM98VxMRGgqRFyYvqV0",
    "name": "RADOU MIKIS",
    "category": "RADOU MIKIS",
    "formatted_address": "5,0(3)",
    "phone_number": "+302463081920",
    "source_url": "https://www.google.com/maps/place/RADOU+MIKIS/data=!4m7!3m6!1s0x13577ccf88bef62d:0x5da92f2617910a1a!8m2!3d40.5159346!4d21.6773452!16s%2Fg%2F11bzw__6nf!19sChIJLfa-iM98VxMRGgqRFyYvqV0?authuser=0&hl=tr&rclk=1",
    "website_url": "",
    "rating_text": "5,0",
    "stars": null,
    "number_of_reviews": null,
    "price_level": "",
    "open_hours": "",
    "extraction_timestamp": "2025-06-07T15:27:22.294Z",
    "source_name": "google",
    "source_query": "Irrigation Equipment",
    "source_country": "GR",
    "country": "Greece",
    "state": "West Macedonia Region",
    "city": "Ptolemaḯda"
  },
  {
    "source_id": "ChIJd1azhzV9VxMR-h9_CN38Qt0",
    "name": "ΔΟΥΚΑΣ ΥΔΡΑΥΛΙΚΑ",
    "category": "ΔΟΥΚΑΣ ΥΔΡΑΥΛΙΚΑ",
    "formatted_address": "5,0(5)",
    "phone_number": "+306981544979",
    "source_url": "https://www.google.com/maps/place/%CE%94%CE%9F%CE%A5%CE%9A%CE%91%CE%A3+%CE%A5%CE%94%CE%A1%CE%91%CE%A5%CE%9B%CE%99%CE%9A%CE%91/data=!4m7!3m6!1s0x13577d3587b35677:0xdd42fcdd087f1ffa!8m2!3d40.5116449!4d21.6753438!16s%2Fg%2F11j153rz2j!19sChIJd1azhzV9VxMR-h9_CN38Qt0?authuser=0&hl=tr&rclk=1",
    "website_url": "",
    "rating_text": "5,0",
    "stars": null,
    "number_of_reviews": null,
    "price_level": "",
    "open_hours": "",
    "extraction_timestamp": "2025-06-07T15:27:22.296Z",
    "source_name": "google",
    "source_query": "Irrigation Equipment",
    "source_country": "GR",
    "country": "Greece",
    "state": "West Macedonia Region",
    "city": "Ptolemaḯda"
  },
  {
    "source_id": "ChIJD1aajMJ8VxMRrW-FnYagx1Q",
    "name": "ΠΟΔΗΛΑΤΟΜΑΝΙΑ ΑΔΑΜΙΔΗΣ ΑΝΑΣΤΑΣΙΟΣ",
    "category": "ΠΟΔΗΛΑΤΟΜΑΝΙΑ ΑΔΑΜΙΔΗΣ ΑΝΑΣΤΑΣΙΟΣ",
    "formatted_address": "4,7(46)",
    "phone_number": "+302463025923",
    "source_url": "https://www.google.com/maps/place/%CE%A0%CE%9F%CE%94%CE%97%CE%9B%CE%91%CE%A4%CE%9F%CE%9C%CE%91%CE%9D%CE%99%CE%91+%CE%91%CE%94%CE%91%CE%9C%CE%99%CE%94%CE%97%CE%A3+%CE%91%CE%9D%CE%91%CE%A3%CE%A4%CE%91%CE%A3%CE%99%CE%9F%CE%A3/data=!4m7!3m6!1s0x13577cc28c9a560f:0x54c7a0869d856fad!8m2!3d40.5142628!4d21.6886881!16s%2Fg%2F11hbg9781x!19sChIJD1aajMJ8VxMRrW-FnYagx1Q?authuser=0&hl=tr&rclk=1",
    "website_url": "",
    "rating_text": "4,7",
    "stars": null,
    "number_of_reviews": null,
    "price_level": "",
    "open_hours": "",
    "extraction_timestamp": "2025-06-07T15:27:22.297Z",
    "source_name": "google",
    "source_query": "Irrigation Equipment",
    "source_country": "GR",
    "country": "Greece",
    "state": "West Macedonia Region",
    "city": "Ptolemaḯda"
  },
  {
    "source_id": "ChIJ--pnO9B8VxMRKtjIaHhdBMw",
    "name": "Dimotiki Epicheirissi Tilethermansis Ptolemaidas",
    "category": "Dimotiki Epicheirissi Tilethermansis Ptolemaidas",
    "formatted_address": "4,2(48)",
    "phone_number": "+302463054420",
    "source_url": "https://www.google.com/maps/place/Dimotiki+Epicheirissi+Tilethermansis+Ptolemaidas/data=!4m7!3m6!1s0x13577cd03b67eafb:0xcc045d7868c8d82a!8m2!3d40.5127865!4d21.6770316!16s%2Fg%2F11h18d75g!19sChIJ--pnO9B8VxMRKtjIaHhdBMw?authuser=0&hl=tr&rclk=1",
    "website_url": "",
    "rating_text": "4,2",
    "stars": null,
    "number_of_reviews": null,
    "price_level": "",
    "open_hours": "",
    "extraction_timestamp": "2025-06-07T15:27:22.298Z",
    "source_name": "google",
    "source_query": "Irrigation Equipment",
    "source_country": "GR",
    "country": "Greece",
    "state": "West Macedonia Region",
    "city": "Ptolemaḯda"
  },
  {
    "source_id": "ChIJYxejaxp9VxMR2SHjSDgT4Wg",
    "name": "Υδραυλικός Πτολεμαΐδα Τεμουρτζίδης",
    "category": "Υδραυλικός Πτολεμαΐδα Τεμουρτζίδης",
    "formatted_address": "5,0(4)",
    "phone_number": "+306977168097",
    "source_url": "https://www.google.com/maps/place/%CE%A5%CE%B4%CF%81%CE%B1%CF%85%CE%BB%CE%B9%CE%BA%CF%8C%CF%82+%CE%A0%CF%84%CE%BF%CE%BB%CE%B5%CE%BC%CE%B1%CE%90%CE%B4%CE%B1+%CE%A4%CE%B5%CE%BC%CE%BF%CF%85%CF%81%CF%84%CE%B6%CE%AF%CE%B4%CE%B7%CF%82/data=!4m7!3m6!1s0x13577d1a6ba31763:0x68e1133848e321d9!8m2!3d40.5179902!4d21.6811175!16s%2Fg%2F11v00g2lct!19sChIJYxejaxp9VxMR2SHjSDgT4Wg?authuser=0&hl=tr&rclk=1",
    "website_url": "",
    "rating_text": "5,0",
    "stars": null,
    "number_of_reviews": null,
    "price_level": "",
    "open_hours": "",
    "extraction_timestamp": "2025-06-07T15:27:22.299Z",
    "source_name": "google",
    "source_query": "Irrigation Equipment",
    "source_country": "GR",
    "country": "Greece",
    "state": "West Macedonia Region",
    "city": "Ptolemaḯda"
  },
  {
    "source_id": "ChIJY7LOBtB8VxMRDT7BK9I9FQE",
    "name": "ΚΑΡΑΧΙΣΑΡΛΗΣ ΣΤΥΛΙΑΝΟΣ",
    "category": "ΚΑΡΑΧΙΣΑΡΛΗΣ ΣΤΥΛΙΑΝΟΣ",
    "formatted_address": "4,3(3)",
    "phone_number": "+302463022882",
    "source_url": "https://www.google.com/maps/place/%CE%9A%CE%91%CE%A1%CE%91%CE%A7%CE%99%CE%A3%CE%91%CE%A1%CE%9B%CE%97%CE%A3+%CE%A3%CE%A4%CE%A5%CE%9B%CE%99%CE%91%CE%9D%CE%9F%CE%A3/data=!4m7!3m6!1s0x13577cd006ceb263:0x1153dd22bc13e0d!8m2!3d40.5139639!4d21.6776995!16s%2Fg%2F1tpx20gh!19sChIJY7LOBtB8VxMRDT7BK9I9FQE?authuser=0&hl=tr&rclk=1",
    "website_url": "",
    "rating_text": "4,3",
    "stars": null,
    "number_of_reviews": null,
    "price_level": "",
    "open_hours": "",
    "extraction_timestamp": "2025-06-07T15:27:22.301Z",
    "source_name": "google",
    "source_query": "Irrigation Equipment",
    "source_country": "GR",
    "country": "Greece",
    "state": "West Macedonia Region",
    "city": "Ptolemaḯda"
  },
  {
    "source_id": "ChIJ_W1oudF8VxMRkFL8wS7ccOk",
    "name": "ERIMA GREECE - AΠΟ ΤΟ 2014 EΠΙΣΗΜOΣ ΑΝΤΙΠΡΟΣΩΠΟΣ ERIMA SPORTSWEAR ΕΛΛΑΔΑ - ΚΥΠΡΟ",
    "category": "ERIMA GREECE - AΠΟ ΤΟ 2014 EΠΙΣΗΜOΣ ΑΝΤΙΠΡΟΣΩΠΟΣ ERIMA SPORTSWEAR ΕΛΛΑΔΑ - ΚΥΠΡΟ",
    "formatted_address": "4,9(24)",
    "phone_number": "+306980369077",
    "source_url": "https://www.google.com/maps/place/ERIMA+GREECE+-+A%CE%A0%CE%9F+%CE%A4%CE%9F+2014+E%CE%A0%CE%99%CE%A3%CE%97%CE%9CO%CE%A3+%CE%91%CE%9D%CE%A4%CE%99%CE%A0%CE%A1%CE%9F%CE%A3%CE%A9%CE%A0%CE%9F%CE%A3+ERIMA+SPORTSWEAR+%CE%95%CE%9B%CE%9B%CE%91%CE%94%CE%91+-+%CE%9A%CE%A5%CE%A0%CE%A1%CE%9F/data=!4m7!3m6!1s0x13577cd1b9686dfd:0xe970dc2ec1fc5290!8m2!3d40.5143316!4d21.6847166!16s%2Fg%2F11csr1bb_2!19sChIJ_W1oudF8VxMRkFL8wS7ccOk?authuser=0&hl=tr&rclk=1",
    "website_url": "",
    "rating_text": "4,9",
    "stars": null,
    "number_of_reviews": null,
    "price_level": "",
    "open_hours": "",
    "extraction_timestamp": "2025-06-07T15:27:22.302Z",
    "source_name": "google",
    "source_query": "Irrigation Equipment",
    "source_country": "GR",
    "country": "Greece",
    "state": "West Macedonia Region",
    "city": "Ptolemaḯda"
  },
  {
    "source_id": "ChIJwbq5Ydp8VxMRG2C7KH1t3ig",
    "name": "A CHALKIDIS LP \"Tools Dynamics\"",
    "category": "A CHALKIDIS LP \"Tools Dynamics\"",
    "formatted_address": "4,5(68)",
    "phone_number": "+302463022266",
    "source_url": "https://www.google.com/maps/place/A+CHALKIDIS+LP+%22Tools+Dynamics%22/data=!4m7!3m6!1s0x13577cda61b9bac1:0x28de6d7d28bb601b!8m2!3d40.5195761!4d21.6813865!16s%2Fg%2F1tyh4ngn!19sChIJwbq5Ydp8VxMRG2C7KH1t3ig?authuser=0&hl=tr&rclk=1",
    "website_url": "",
    "rating_text": "4,5",
    "stars": null,
    "number_of_reviews": null,
    "price_level": "",
    "open_hours": "",
    "extraction_timestamp": "2025-06-07T15:27:22.303Z",
    "source_name": "google",
    "source_query": "Irrigation Equipment",
    "source_country": "GR",
    "country": "Greece",
    "state": "West Macedonia Region",
    "city": "Ptolemaḯda"
  },
  {
    "source_id": "ChIJBUVE-9l8VxMRfBa3IOQRjqY",
    "name": "Polytechniki S.A.",
    "category": "Polytechniki S.A.",
    "formatted_address": "4,0(10)",
    "phone_number": "+302463053649",
    "source_url": "https://www.google.com/maps/place/Polytechniki+S.A./data=!4m7!3m6!1s0x13577cd9fb444505:0xa68e11e420b7167c!8m2!3d40.5086555!4d21.6783483!16s%2Fg%2F1tydq6qj!19sChIJBUVE-9l8VxMRfBa3IOQRjqY?authuser=0&hl=tr&rclk=1",
    "website_url": "",
    "rating_text": "4,0",
    "stars": null,
    "number_of_reviews": null,
    "price_level": "",
    "open_hours": "",
    "extraction_timestamp": "2025-06-07T15:27:22.304Z",
    "source_name": "google",
    "source_query": "Irrigation Equipment",
    "source_country": "GR",
    "country": "Greece",
    "state": "West Macedonia Region",
    "city": "Ptolemaḯda"
  },
  {
    "source_id": "ChIJjzhrotp8VxMRYG9LjL-nFuE",
    "name": "Manolas Konstantinos",
    "category": "Manolas Konstantinos",
    "formatted_address": "4,0(1)",
    "phone_number": "+302463023280",
    "source_url": "https://www.google.com/maps/place/Manolas+Konstantinos/data=!4m7!3m6!1s0x13577cdaa26b388f:0xe116a7bf8c4b6f60!8m2!3d40.5129968!4d21.6784663!16s%2Fg%2F1hd_nx9hj!19sChIJjzhrotp8VxMRYG9LjL-nFuE?authuser=0&hl=tr&rclk=1",
    "website_url": "",
    "rating_text": "4,0",
    "stars": null,
    "number_of_reviews": null,
    "price_level": "",
    "open_hours": "",
    "extraction_timestamp": "2025-06-07T15:27:22.306Z",
    "source_name": "google",
    "source_query": "Irrigation Equipment",
    "source_country": "GR",
    "country": "Greece",
    "state": "West Macedonia Region",
    "city": "Ptolemaḯda"
  },
  {
    "source_id": "ChIJgZANTgZ9VxMR2l5jgGz2tLg",
    "name": "Polychronidis Motorsport",
    "category": "Polychronidis Motorsport",
    "formatted_address": "4,9(18)",
    "phone_number": "+302463053869",
    "source_url": "https://www.google.com/maps/place/Polychronidis+Motorsport/data=!4m7!3m6!1s0x13577d064e0d9081:0xb8b4f66c80635eda!8m2!3d40.5199783!4d21.6978554!16s%2Fg%2F11f5lqfdw7!19sChIJgZANTgZ9VxMR2l5jgGz2tLg?authuser=0&hl=tr&rclk=1",
    "website_url": "",
    "rating_text": "4,9",
    "stars": null,
    "number_of_reviews": null,
    "price_level": "",
    "open_hours": "",
    "extraction_timestamp": "2025-06-07T15:27:22.307Z",
    "source_name": "google",
    "source_query": "Irrigation Equipment",
    "source_country": "GR",
    "country": "Greece",
    "state": "West Macedonia Region",
    "city": "Ptolemaḯda"
  },
  {
    "source_id": "ChIJjzhrotp8VxMRgEu2MVliwUQ",
    "name": "Tzortzos John",
    "category": "Tzortzos John",
    "formatted_address": "4,7(3.595)",
    "phone_number": "+302463025036",
    "source_url": "https://www.google.com/maps/place/Tzortzos+John/data=!4m7!3m6!1s0x13577cdaa26b388f:0x44c1625931b64b80!8m2!3d40.5122667!4d21.6770473!16s%2Fg%2F11g_jbjs3!19sChIJjzhrotp8VxMRgEu2MVliwUQ?authuser=0&hl=tr&rclk=1",
    "website_url": "",
    "rating_text": "4,7",
    "stars": null,
    "number_of_reviews": null,
    "price_level": "",
    "open_hours": "",
    "extraction_timestamp": "2025-06-07T15:27:22.309Z",
    "source_name": "google",
    "source_query": "Irrigation Equipment",
    "source_country": "GR",
    "country": "Greece",
    "state": "West Macedonia Region",
    "city": "Ptolemaḯda"
  },
  {
    "source_id": "ChIJSSSy0iJ9VxMRJ0T0KsWFZ0M",
    "name": "Total Market",
    "category": "Total Market",
    "formatted_address": "4,8(51)",
    "phone_number": "+302463026963",
    "source_url": "https://www.google.com/maps/place/Total+Market/data=!4m7!3m6!1s0x13577d22d2b22449:0x436785c52af44427!8m2!3d40.5145042!4d21.6770802!16s%2Fg%2F11kplk_7d8!19sChIJSSSy0iJ9VxMRJ0T0KsWFZ0M?authuser=0&hl=tr&rclk=1",
    "website_url": "",
    "rating_text": "4,8",
    "stars": null,
    "number_of_reviews": null,
    "price_level": "",
    "open_hours": "",
    "extraction_timestamp": "2025-06-07T15:27:22.310Z",
    "source_name": "google",
    "source_query": "Irrigation Equipment",
    "source_country": "GR",
    "country": "Greece",
    "state": "West Macedonia Region",
    "city": "Ptolemaḯda"
  },
  {
    "source_id": "ChIJi9-HDEV9VxMR53iQpRAP8mg",
    "name": "Cava Kalomenidis | Κάβα Κρασιών & Ποτών",
    "category": "Cava Kalomenidis | Κάβα Κρασιών & Ποτών",
    "formatted_address": "5,0(15)",
    "phone_number": "+302463081498",
    "source_url": "https://www.google.com/maps/place/Cava+Kalomenidis+%7C+%CE%9A%CE%AC%CE%B2%CE%B1+%CE%9A%CF%81%CE%B1%CF%83%CE%B9%CF%8E%CE%BD+%26+%CE%A0%CE%BF%CF%84%CF%8E%CE%BD/data=!4m7!3m6!1s0x13577d450c87df8b:0x68f20f10a59078e7!8m2!3d40.5143706!4d21.6806418!16s%2Fg%2F11h4nh457x!19sChIJi9-HDEV9VxMR53iQpRAP8mg?authuser=0&hl=tr&rclk=1",
    "website_url": "",
    "rating_text": "5,0",
    "stars": null,
    "number_of_reviews": null,
    "price_level": "",
    "open_hours": "",
    "extraction_timestamp": "2025-06-07T15:27:22.311Z",
    "source_name": "google",
    "source_query": "Irrigation Equipment",
    "source_country": "GR",
    "country": "Greece",
    "state": "West Macedonia Region",
    "city": "Ptolemaḯda"
  },
  {
    "source_id": "ChIJvXFrFdB8VxMRMzkvTntN0ps",
    "name": "Dimtsas",
    "category": "Dimtsas",
    "formatted_address": "4,7(739)",
    "phone_number": "+302463022291",
    "source_url": "https://www.google.com/maps/place/Dimtsas/data=!4m7!3m6!1s0x13577cd0156b71bd:0x9bd24d7b4e2f3933!8m2!3d40.5134512!4d21.676651!16s%2Fg%2F1vc3khf9!19sChIJvXFrFdB8VxMRMzkvTntN0ps?authuser=0&hl=tr&rclk=1",
    "website_url": "",
    "rating_text": "4,7",
    "stars": null,
    "number_of_reviews": null,
    "price_level": "",
    "open_hours": "",
    "extraction_timestamp": "2025-06-07T15:27:22.313Z",
    "source_name": "google",
    "source_query": "Irrigation Equipment",
    "source_country": "GR",
    "country": "Greece",
    "state": "West Macedonia Region",
    "city": "Ptolemaḯda"
  },
  {
    "source_id": "ChIJBVVT88Z8VxMRwkmU3n1FBxw",
    "name": "Greek Diet Siapanidis Nikolaos",
    "category": "Greek Diet Siapanidis Nikolaos",
    "formatted_address": "4,1(10)",
    "phone_number": "+302463053308",
    "source_url": "https://www.google.com/maps/place/Greek+Diet+Siapanidis+Nikolaos/data=!4m7!3m6!1s0x13577cc6f3535505:0x1c07457dde9449c2!8m2!3d40.519647!4d21.6813743!16s%2Fg%2F11g8_2kmqf!19sChIJBVVT88Z8VxMRwkmU3n1FBxw?authuser=0&hl=tr&rclk=1",
    "website_url": "",
    "rating_text": "4,1",
    "stars": null,
    "number_of_reviews": null,
    "price_level": "",
    "open_hours": "",
    "extraction_timestamp": "2025-06-07T15:27:22.314Z",
    "source_name": "google",
    "source_query": "Irrigation Equipment",
    "source_country": "GR",
    "country": "Greece",
    "state": "West Macedonia Region",
    "city": "Ptolemaḯda"
  },
  {
    "source_id": "ChIJW-35ysV8VxMRSc5htVnxU4c",
    "name": "Athanasiadis Efstathios",
    "category": "Athanasiadis Efstathios",
    "formatted_address": "4,6(22)",
    "phone_number": "+302463022452",
    "source_url": "https://www.google.com/maps/place/Athanasiadis+Efstathios/data=!4m7!3m6!1s0x13577cc5caf9ed5b:0x8753f159b561ce49!8m2!3d40.5174479!4d21.6808117!16s%2Fg%2F11fxb8svbg!19sChIJW-35ysV8VxMRSc5htVnxU4c?authuser=0&hl=tr&rclk=1",
    "website_url": "",
    "rating_text": "4,6",
    "stars": null,
    "number_of_reviews": null,
    "price_level": "",
    "open_hours": "",
    "extraction_timestamp": "2025-06-07T15:27:22.315Z",
    "source_name": "google",
    "source_query": "Irrigation Equipment",
    "source_country": "GR",
    "country": "Greece",
    "state": "West Macedonia Region",
    "city": "Ptolemaḯda"
  },
  {
    "source_id": "ChIJjzhrotp8VxMREe2ZOeAlzP4",
    "name": "centro.spot",
    "category": "centro.spot",
    "formatted_address": "4,5(42)",
    "phone_number": "+302463024986",
    "source_url": "https://www.google.com/maps/place/centro.spot/data=!4m7!3m6!1s0x13577cdaa26b388f:0xfecc25e03999ed11!8m2!3d40.517234!4d21.6807913!16s%2Fg%2F11g_6kv0w!19sChIJjzhrotp8VxMREe2ZOeAlzP4?authuser=0&hl=tr&rclk=1",
    "website_url": "",
    "rating_text": "4,5",
    "stars": null,
    "number_of_reviews": null,
    "price_level": "",
    "open_hours": "",
    "extraction_timestamp": "2025-06-07T15:27:22.317Z",
    "source_name": "google",
    "source_query": "Irrigation Equipment",
    "source_country": "GR",
    "country": "Greece",
    "state": "West Macedonia Region",
    "city": "Ptolemaḯda"
  },
  {
    "source_id": "ChIJJYWPANp8VxMR5wDpHdHWxAw",
    "name": "ANTONIOU-HOMES",
    "category": "ANTONIOU-HOMES",
    "formatted_address": "3,6(14)",
    "phone_number": "+302463054899",
    "source_url": "https://www.google.com/maps/place/ANTONIOU-HOMES/data=!4m7!3m6!1s0x13577cda008f8525:0xcc4d6d11de900e7!8m2!3d40.5098655!4d21.6780556!16s%2Fg%2F11b70hmgy0!19sChIJJYWPANp8VxMR5wDpHdHWxAw?authuser=0&hl=tr&rclk=1",
    "website_url": "",
    "rating_text": "3,6",
    "stars": null,
    "number_of_reviews": null,
    "price_level": "",
    "open_hours": "",
    "extraction_timestamp": "2025-06-07T15:27:22.318Z",
    "source_name": "google",
    "source_query": "Irrigation Equipment",
    "source_country": "GR",
    "country": "Greece",
    "state": "West Macedonia Region",
    "city": "Ptolemaḯda"
  },
  {
    "source_id": "ChIJO33YHtB8VxMR1stnaI98aoQ",
    "name": "ΚΑΛΟΝ ΚΟΡΙΤΣ' Κελάρι Παραδοσιακών Προϊόντων",
    "category": "ΚΑΛΟΝ ΚΟΡΙΤΣ' Κελάρι Παραδοσιακών Προϊόντων",
    "formatted_address": "4,9(30)",
    "phone_number": "+302463501401",
    "source_url": "https://www.google.com/maps/place/%CE%9A%CE%91%CE%9B%CE%9F%CE%9D+%CE%9A%CE%9F%CE%A1%CE%99%CE%A4%CE%A3%27+%CE%9A%CE%B5%CE%BB%CE%AC%CF%81%CE%B9+%CE%A0%CE%B1%CF%81%CE%B1%CE%B4%CE%BF%CF%83%CE%B9%CE%B1%CE%BA%CF%8E%CE%BD+%CE%A0%CF%81%CE%BF%CF%8A%CF%8C%CE%BD%CF%84%CF%89%CE%BD/data=!4m7!3m6!1s0x13577cd01ed87d3b:0x846a7c8f6867cbd6!8m2!3d40.5143146!4d21.6764636!16s%2Fg%2F12lk_1msh!19sChIJO33YHtB8VxMR1stnaI98aoQ?authuser=0&hl=tr&rclk=1",
    "website_url": "",
    "rating_text": "4,9",
    "stars": null,
    "number_of_reviews": null,
    "price_level": "",
    "open_hours": "",
    "extraction_timestamp": "2025-06-07T15:27:22.319Z",
    "source_name": "google",
    "source_query": "Irrigation Equipment",
    "source_country": "GR",
    "country": "Greece",
    "state": "West Macedonia Region",
    "city": "Ptolemaḯda"
  },
  {
    "source_id": "ChIJ0VkvJsB8VxMRzWOyfbi6zzY",
    "name": "ΤΑΛΑΚΟΣ ΠΑΝΑΓΙΩΤΗΣ",
    "category": "ΤΑΛΑΚΟΣ ΠΑΝΑΓΙΩΤΗΣ",
    "formatted_address": "4,9(43)",
    "phone_number": "+302463028191",
    "source_url": "https://www.google.com/maps/place/%CE%A4%CE%91%CE%9B%CE%91%CE%9A%CE%9F%CE%A3+%CE%A0%CE%91%CE%9D%CE%91%CE%93%CE%99%CE%A9%CE%A4%CE%97%CE%A3/data=!4m7!3m6!1s0x13577cc0262f59d1:0x36cfbab87db263cd!8m2!3d40.5197868!4d21.6903494!16s%2Fg%2F11bzx28gy2!19sChIJ0VkvJsB8VxMRzWOyfbi6zzY?authuser=0&hl=tr&rclk=1",
    "website_url": "",
    "rating_text": "4,9",
    "stars": null,
    "number_of_reviews": null,
    "price_level": "",
    "open_hours": "",
    "extraction_timestamp": "2025-06-07T15:27:22.321Z",
    "source_name": "google",
    "source_query": "Irrigation Equipment",
    "source_country": "GR",
    "country": "Greece",
    "state": "West Macedonia Region",
    "city": "Ptolemaḯda"
  },
  {
    "source_id": "ChIJjzhrotp8VxMR6ISDi41YG4c",
    "name": "Ioannidis Anastasios Kai SIA E.E.",
    "category": "Ioannidis Anastasios Kai SIA E.E.",
    "formatted_address": "4,7(115) · €1–5",
    "phone_number": "+302463029266",
    "source_url": "https://www.google.com/maps/place/Ioannidis+Anastasios+Kai+SIA+E.E./data=!4m7!3m6!1s0x13577cdaa26b388f:0x871b588d8b8384e8!8m2!3d40.512434!4d21.6769857!16s%2Fg%2F11xbbwqrn!19sChIJjzhrotp8VxMR6ISDi41YG4c?authuser=0&hl=tr&rclk=1",
    "website_url": "",
    "rating_text": "4,7",
    "stars": null,
    "number_of_reviews": null,
    "price_level": "",
    "open_hours": "",
    "extraction_timestamp": "2025-06-07T15:27:22.334Z",
    "source_name": "google",
    "source_query": "Irrigation Equipment",
    "source_country": "GR",
    "country": "Greece",
    "state": "West Macedonia Region",
    "city": "Ptolemaḯda"
  },
  {
    "source_id": "ChIJ4_hR-Sp9VxMR5M3huK1X8iU",
    "name": "up όλα market \"Χρήστος\"",
    "category": "up όλα market \"Χρήστος\"",
    "formatted_address": "4,8(5)",
    "phone_number": "",
    "source_url": "https://www.google.com/maps/place/up+%CF%8C%CE%BB%CE%B1+market+%22%CE%A7%CF%81%CE%AE%CF%83%CF%84%CE%BF%CF%82%22/data=!4m7!3m6!1s0x13577d2af951f8e3:0x25f257adb8e1cde4!8m2!3d40.5116024!4d21.6838162!16s%2Fg%2F11kqs32s_q!19sChIJ4_hR-Sp9VxMR5M3huK1X8iU?authuser=0&hl=tr&rclk=1",
    "website_url": "",
    "rating_text": "4,8",
    "stars": null,
    "number_of_reviews": null,
    "price_level": "",
    "open_hours": "",
    "extraction_timestamp": "2025-06-07T15:27:22.335Z",
    "source_name": "google",
    "source_query": "Irrigation Equipment",
    "source_country": "GR",
    "country": "Greece",
    "state": "West Macedonia Region",
    "city": "Ptolemaḯda"
  }
]
