[
  {
    "source_id": "ChIJXWa0E-LDWRMRDpeDhhJklFQ",
    "name": "ΠΕΡΙΠΤΕΡΟ:ΘΕΟΔΩΡΟΥ- ΑΝΤΙΓΟΝΗ-ΚΛΕΙΣΙΑΡΗ-ΜΠΑΛΑΡΑ",
    "category": "ΠΕΡΙΠΤΕΡΟ:ΘΕΟΔΩΡΟΥ- ΑΝΤΙΓΟΝΗ-ΚΛΕΙΣΙΑΡΗ-ΜΠΑΛΑΡΑ",
    "formatted_address": "5,0(2)",
    "phone_number": "",
    "source_url": "https://www.google.com/maps/place/%CE%A0%CE%95%CE%A1%CE%99%CE%A0%CE%A4%CE%95%CE%A1%CE%9F:%CE%98%CE%95%CE%9F%CE%94%CE%A9%CE%A1%CE%9F%CE%A5-+%CE%91%CE%9D%CE%A4%CE%99%CE%93%CE%9F%CE%9D%CE%97-%CE%9A%CE%9B%CE%95%CE%99%CE%A3%CE%99%CE%91%CE%A1%CE%97-%CE%9C%CE%A0%CE%91%CE%9B%CE%91%CE%A1%CE%91/data=!4m7!3m6!1s0x1359c3e213b4665d:0x549464128683970e!8m2!3d40.2569243!4d21.5540402!16s%2Fg%2F11g9jn50qs!19sChIJXWa0E-LDWRMRDpeDhhJklFQ?authuser=0&hl=tr&rclk=1",
    "website_url": "",
    "rating_text": "5,0",
    "stars": null,
    "number_of_reviews": null,
    "price_level": "",
    "open_hours": "",
    "extraction_timestamp": "2025-06-07T15:28:38.272Z",
    "source_name": "google",
    "source_query": "Irrigation Equipment",
    "source_country": "GR",
    "country": "Greece",
    "state": "West Macedonia Region",
    "city": "Siátista"
  },
  {
    "source_id": "ChIJP6mV10R_WBMRmKs2kVzQQL0",
    "name": "ADRITEC EUROPE S.A.",
    "category": "ADRITEC EUROPE S.A.",
    "formatted_address": "4,6(20)",
    "phone_number": "+302410975170",
    "source_url": "https://www.google.com/maps/place/ADRITEC+EUROPE+S.A./data=!4m7!3m6!1s0x13587f44d795a93f:0xbd40d05c9136ab98!8m2!3d39.6762619!4d22.5489292!16s%2Fg%2F11_qtp7mx!19sChIJP6mV10R_WBMRmKs2kVzQQL0?authuser=0&hl=tr&rclk=1",
    "website_url": "https://www.adriteceurope.gr/",
    "rating_text": "4,6",
    "stars": null,
    "number_of_reviews": null,
    "price_level": "",
    "open_hours": "",
    "extraction_timestamp": "2025-06-07T15:28:38.275Z",
    "source_name": "google",
    "source_query": "Irrigation Equipment",
    "source_country": "GR",
    "country": "Greece",
    "state": "West Macedonia Region",
    "city": "Siátista"
  },
  {
    "source_id": "ChIJkRt8Pd7DWRMR8WOhj62v6JU",
    "name": "ΓΚΑΓΚΑΣΟΥΛΗΣ MARKET",
    "category": "ΓΚΑΓΚΑΣΟΥΛΗΣ MARKET",
    "formatted_address": "4,5(14)",
    "phone_number": "+302465021730",
    "source_url": "https://www.google.com/maps/place/%CE%93%CE%9A%CE%91%CE%93%CE%9A%CE%91%CE%A3%CE%9F%CE%A5%CE%9B%CE%97%CE%A3+MARKET/data=!4m7!3m6!1s0x1359c3de3d7c1b91:0x95e8afad8fa163f1!8m2!3d40.26133!4d21.5459734!16s%2Fg%2F11bt_j51pw!19sChIJkRt8Pd7DWRMR8WOhj62v6JU?authuser=0&hl=tr&rclk=1",
    "website_url": "",
    "rating_text": "4,5",
    "stars": null,
    "number_of_reviews": null,
    "price_level": "",
    "open_hours": "",
    "extraction_timestamp": "2025-06-07T15:28:38.277Z",
    "source_name": "google",
    "source_query": "Irrigation Equipment",
    "source_country": "GR",
    "country": "Greece",
    "state": "West Macedonia Region",
    "city": "Siátista"
  },
  {
    "source_id": "ChIJtTEskQzBWRMRDTyvJ2Dd1XA",
    "name": "ελληνικά market",
    "category": "ελληνικά market",
    "formatted_address": "5,0(22)",
    "phone_number": "+302465023346",
    "source_url": "https://www.google.com/maps/place/%CE%B5%CE%BB%CE%BB%CE%B7%CE%BD%CE%B9%CE%BA%CE%AC+market/data=!4m7!3m6!1s0x1359c10c912c31b5:0x70d5dd6027af3c0d!8m2!3d40.2523362!4d21.5550615!16s%2Fg%2F11h4y4xnmx!19sChIJtTEskQzBWRMRDTyvJ2Dd1XA?authuser=0&hl=tr&rclk=1",
    "website_url": "",
    "rating_text": "5,0",
    "stars": null,
    "number_of_reviews": null,
    "price_level": "",
    "open_hours": "",
    "extraction_timestamp": "2025-06-07T15:28:38.278Z",
    "source_name": "google",
    "source_query": "Irrigation Equipment",
    "source_country": "GR",
    "country": "Greece",
    "state": "West Macedonia Region",
    "city": "Siátista"
  },
  {
    "source_id": "ChIJDW05mHeZoRQRXHhD_XYglt0",
    "name": "ΑΓΡΟΔΟΜΗ - Μ. ΚΑΚΑΒΑ Ε.Ε.",
    "category": "ΑΓΡΟΔΟΜΗ - Μ. ΚΑΚΑΒΑ Ε.Ε.",
    "formatted_address": "4,7(19)",
    "phone_number": "+302106614141",
    "source_url": "https://www.google.com/maps/place/%CE%91%CE%93%CE%A1%CE%9F%CE%94%CE%9F%CE%9C%CE%97+-+%CE%9C.+%CE%9A%CE%91%CE%9A%CE%91%CE%92%CE%91+%CE%95.%CE%95./data=!4m7!3m6!1s0x14a1997798396d0d:0xdd962076fd43785c!8m2!3d38.0105257!4d23.8451325!16s%2Fg%2F1ttxf2r_!19sChIJDW05mHeZoRQRXHhD_XYglt0?authuser=0&hl=tr&rclk=1",
    "website_url": "http://www.agrodomi.gr/",
    "rating_text": "4,7",
    "stars": null,
    "number_of_reviews": null,
    "price_level": "",
    "open_hours": "",
    "extraction_timestamp": "2025-06-07T15:28:38.280Z",
    "source_name": "google",
    "source_query": "Irrigation Equipment",
    "source_country": "GR",
    "country": "Greece",
    "state": "West Macedonia Region",
    "city": "Siátista"
  },
  {
    "source_id": "ChIJdYGHPD8lqBQRqZQqWivtcXs",
    "name": "AGRODRIP S.A.",
    "category": "AGRODRIP S.A.",
    "formatted_address": "4,8(25)",
    "phone_number": "+302310796731",
    "source_url": "https://www.google.com/maps/place/AGRODRIP+S.A./data=!4m7!3m6!1s0x14a8253f3c878175:0x7b71ed2b5a2a94a9!8m2!3d40.6845245!4d22.7916908!16s%2Fg%2F1hf2l336l!19sChIJdYGHPD8lqBQRqZQqWivtcXs?authuser=0&hl=tr&rclk=1",
    "website_url": "http://www.agrodrip.gr/",
    "rating_text": "4,8",
    "stars": null,
    "number_of_reviews": null,
    "price_level": "",
    "open_hours": "",
    "extraction_timestamp": "2025-06-07T15:28:38.281Z",
    "source_name": "google",
    "source_query": "Irrigation Equipment",
    "source_country": "GR",
    "country": "Greece",
    "state": "West Macedonia Region",
    "city": "Siátista"
  },
  {
    "source_id": "ChIJE-MeUUHDWRMRaHxxwGaWDjw",
    "name": "Folk café",
    "category": "Folk café",
    "formatted_address": "4,8(28) · €1–5",
    "phone_number": "+302465301049",
    "source_url": "https://www.google.com/maps/place/Folk+caf%C3%A9/data=!4m7!3m6!1s0x1359c341511ee313:0x3c0e9666c0717c68!8m2!3d40.2597654!4d21.5507426!16s%2Fg%2F11tc8xpx94!19sChIJE-MeUUHDWRMRaHxxwGaWDjw?authuser=0&hl=tr&rclk=1",
    "website_url": "",
    "rating_text": "4,8",
    "stars": null,
    "number_of_reviews": null,
    "price_level": "",
    "open_hours": "",
    "extraction_timestamp": "2025-06-07T15:28:38.282Z",
    "source_name": "google",
    "source_query": "Irrigation Equipment",
    "source_country": "GR",
    "country": "Greece",
    "state": "West Macedonia Region",
    "city": "Siátista"
  },
  {
    "source_id": "ChIJpROts583qBQRjxHVzGML8UI",
    "name": "EVDOS S.A.",
    "category": "EVDOS S.A.",
    "formatted_address": "4,0(13)",
    "phone_number": "+302310681335",
    "source_url": "https://www.google.com/maps/place/EVDOS+S.A./data=!4m7!3m6!1s0x14a8379fb3ad13a5:0x42f10b63ccd5118f!8m2!3d40.6965937!4d22.9572893!16s%2Fg%2F1tnxz7vn!19sChIJpROts583qBQRjxHVzGML8UI?authuser=0&hl=tr&rclk=1",
    "website_url": "http://www.evdos.gr/",
    "rating_text": "4,0",
    "stars": null,
    "number_of_reviews": null,
    "price_level": "",
    "open_hours": "",
    "extraction_timestamp": "2025-06-07T15:28:38.284Z",
    "source_name": "google",
    "source_query": "Irrigation Equipment",
    "source_country": "GR",
    "country": "Greece",
    "state": "West Macedonia Region",
    "city": "Siátista"
  },
  {
    "source_id": "ChIJD8JWNXHDWRMRLOH9xku5Aqc",
    "name": "Σούπερ μάρκετ κατσικας",
    "category": "Σούπερ μάρκετ κατσικας",
    "formatted_address": "5,0(5)",
    "phone_number": "",
    "source_url": "https://www.google.com/maps/place/%CE%A3%CE%BF%CF%8D%CF%80%CE%B5%CF%81+%CE%BC%CE%AC%CF%81%CE%BA%CE%B5%CF%84+%CE%BA%CE%B1%CF%84%CF%83%CE%B9%CE%BA%CE%B1%CF%82/data=!4m7!3m6!1s0x1359c3713556c20f:0xa702b94bc6fde12c!8m2!3d40.2615204!4d21.5481269!16s%2Fg%2F11jh_k803r!19sChIJD8JWNXHDWRMRLOH9xku5Aqc?authuser=0&hl=tr&rclk=1",
    "website_url": "",
    "rating_text": "5,0",
    "stars": null,
    "number_of_reviews": null,
    "price_level": "",
    "open_hours": "",
    "extraction_timestamp": "2025-06-07T15:28:38.285Z",
    "source_name": "google",
    "source_query": "Irrigation Equipment",
    "source_country": "GR",
    "country": "Greece",
    "state": "West Macedonia Region",
    "city": "Siátista"
  },
  {
    "source_id": "ChIJDzmqRtLBWRMRUAqz7Q0GlNs",
    "name": "Animal World",
    "category": "Animal World",
    "formatted_address": "5,0(2)",
    "phone_number": "",
    "source_url": "https://www.google.com/maps/place/Animal+World/data=!4m7!3m6!1s0x1359c1d246aa390f:0xdb94060dedb30a50!8m2!3d40.2541169!4d21.5555862!16s%2Fg%2F11s2m6vbxr!19sChIJDzmqRtLBWRMRUAqz7Q0GlNs?authuser=0&hl=tr&rclk=1",
    "website_url": "",
    "rating_text": "5,0",
    "stars": null,
    "number_of_reviews": null,
    "price_level": "",
    "open_hours": "",
    "extraction_timestamp": "2025-06-07T15:28:38.286Z",
    "source_name": "google",
    "source_query": "Irrigation Equipment",
    "source_country": "GR",
    "country": "Greece",
    "state": "West Macedonia Region",
    "city": "Siátista"
  },
  {
    "source_id": "ChIJ9W0P2JjBWRMRMykrDgbHJoU",
    "name": "Elephant cafe",
    "category": "Elephant cafe",
    "formatted_address": "4,9(8)",
    "phone_number": "+302465021999",
    "source_url": "https://www.google.com/maps/place/Elephant+cafe/data=!4m7!3m6!1s0x1359c198d80f6df5:0x8526c7060e2b2933!8m2!3d40.2526124!4d21.5557396!16s%2Fg%2F11lv26blbw!19sChIJ9W0P2JjBWRMRMykrDgbHJoU?authuser=0&hl=tr&rclk=1",
    "website_url": "",
    "rating_text": "4,9",
    "stars": null,
    "number_of_reviews": null,
    "price_level": "",
    "open_hours": "",
    "extraction_timestamp": "2025-06-07T15:28:38.287Z",
    "source_name": "google",
    "source_query": "Irrigation Equipment",
    "source_country": "GR",
    "country": "Greece",
    "state": "West Macedonia Region",
    "city": "Siátista"
  },
  {
    "source_id": "ChIJq2gbs2vBWRMRzcGbUs03KeI",
    "name": "MAMALOO",
    "category": "MAMALOO",
    "formatted_address": "4,8(17) · €1–5",
    "phone_number": "+302465022540",
    "source_url": "https://www.google.com/maps/place/MAMALOO/data=!4m7!3m6!1s0x1359c16bb31b68ab:0xe22937cd529bc1cd!8m2!3d40.2525958!4d21.5561995!16s%2Fg%2F11vclnn8w6!19sChIJq2gbs2vBWRMRzcGbUs03KeI?authuser=0&hl=tr&rclk=1",
    "website_url": "",
    "rating_text": "4,8",
    "stars": null,
    "number_of_reviews": null,
    "price_level": "",
    "open_hours": "",
    "extraction_timestamp": "2025-06-07T15:28:38.288Z",
    "source_name": "google",
    "source_query": "Irrigation Equipment",
    "source_country": "GR",
    "country": "Greece",
    "state": "West Macedonia Region",
    "city": "Siátista"
  },
  {
    "source_id": "ChIJD8Yf-VDDWRMR-63sCNyw_aQ",
    "name": "ΚΡΗΤΙΚΟΣ Super market",
    "category": "ΚΡΗΤΙΚΟΣ Super market",
    "formatted_address": "4,3(83)",
    "phone_number": "+302465022663",
    "source_url": "https://www.google.com/maps/place/%CE%9A%CE%A1%CE%97%CE%A4%CE%99%CE%9A%CE%9F%CE%A3+Super+market/data=!4m7!3m6!1s0x1359c350f91fc60f:0xa4fdb0dc08ecadfb!8m2!3d40.26484!4d21.54304!16s%2Fg%2F11h1d1kw_z!19sChIJD8Yf-VDDWRMR-63sCNyw_aQ?authuser=0&hl=tr&rclk=1",
    "website_url": "http://www.kritikos-sm.gr/",
    "rating_text": "4,3",
    "stars": null,
    "number_of_reviews": null,
    "price_level": "",
    "open_hours": "",
    "extraction_timestamp": "2025-06-07T15:28:38.289Z",
    "source_name": "google",
    "source_query": "Irrigation Equipment",
    "source_country": "GR",
    "country": "Greece",
    "state": "West Macedonia Region",
    "city": "Siátista"
  },
  {
    "source_id": "ChIJk72JNzDDWRMRBx4qF1jRu3g",
    "name": "BREAKERY",
    "category": "BREAKERY",
    "formatted_address": "5,0(13) · €1–5",
    "phone_number": "+302465300991",
    "source_url": "https://www.google.com/maps/place/BREAKERY/data=!4m7!3m6!1s0x1359c3303789bd93:0x78bbd158172a1e07!8m2!3d40.2599939!4d21.5506333!16s%2Fg%2F11fwbn83r5!19sChIJk72JNzDDWRMRBx4qF1jRu3g?authuser=0&hl=tr&rclk=1",
    "website_url": "",
    "rating_text": "5,0",
    "stars": null,
    "number_of_reviews": null,
    "price_level": "",
    "open_hours": "",
    "extraction_timestamp": "2025-06-07T15:28:38.291Z",
    "source_name": "google",
    "source_query": "Irrigation Equipment",
    "source_country": "GR",
    "country": "Greece",
    "state": "West Macedonia Region",
    "city": "Siátista"
  },
  {
    "source_id": "ChIJ4cTG7Q_DWRMR7ymi-vT6TQw",
    "name": "Ώττας Αρτοποιείο",
    "category": "Ώττας Αρτοποιείο",
    "formatted_address": "5,0(32)",
    "phone_number": "+302465022211",
    "source_url": "https://www.google.com/maps/place/%CE%8F%CF%84%CF%84%CE%B1%CF%82+%CE%91%CF%81%CF%84%CE%BF%CF%80%CE%BF%CE%B9%CE%B5%CE%AF%CE%BF/data=!4m7!3m6!1s0x1359c30fedc6c4e1:0xc4dfaf4faa229ef!8m2!3d40.26399!4d21.5459087!16s%2Fg%2F11tfjlnw_q!19sChIJ4cTG7Q_DWRMR7ymi-vT6TQw?authuser=0&hl=tr&rclk=1",
    "website_url": "",
    "rating_text": "5,0",
    "stars": null,
    "number_of_reviews": null,
    "price_level": "",
    "open_hours": "",
    "extraction_timestamp": "2025-06-07T15:28:38.292Z",
    "source_name": "google",
    "source_query": "Irrigation Equipment",
    "source_country": "GR",
    "country": "Greece",
    "state": "West Macedonia Region",
    "city": "Siátista"
  },
  {
    "source_id": "ChIJg5kQZ1F7WBMRMAG2pKLdIZQ",
    "name": "ΕΛΓΕΚ-ΠΑΣΙΑΣ ΧΡΥΣΟΒΑΛΑΝΤΗΣ ΜΟΝ ΙΚΕ",
    "category": "ΕΛΓΕΚ-ΠΑΣΙΑΣ ΧΡΥΣΟΒΑΛΑΝΤΗΣ ΜΟΝ ΙΚΕ",
    "formatted_address": "5,0(9)",
    "phone_number": "+302410541071",
    "source_url": "https://www.google.com/maps/place/%CE%95%CE%9B%CE%93%CE%95%CE%9A-%CE%A0%CE%91%CE%A3%CE%99%CE%91%CE%A3+%CE%A7%CE%A1%CE%A5%CE%A3%CE%9F%CE%92%CE%91%CE%9B%CE%91%CE%9D%CE%A4%CE%97%CE%A3+%CE%9C%CE%9F%CE%9D+%CE%99%CE%9A%CE%95/data=!4m7!3m6!1s0x13587b5167109983:0x9421dda2a4b60130!8m2!3d39.7663188!4d22.4902543!16s%2Fg%2F11fcr5ty4m!19sChIJg5kQZ1F7WBMRMAG2pKLdIZQ?authuser=0&hl=tr&rclk=1",
    "website_url": "http://elgekirrigation.com/",
    "rating_text": "5,0",
    "stars": null,
    "number_of_reviews": null,
    "price_level": "",
    "open_hours": "",
    "extraction_timestamp": "2025-06-07T15:28:38.293Z",
    "source_name": "google",
    "source_query": "Irrigation Equipment",
    "source_country": "GR",
    "country": "Greece",
    "state": "West Macedonia Region",
    "city": "Siátista"
  },
  {
    "source_id": "ChIJE6gAClnBWRMR2D3JkWz9V_8",
    "name": "CAFE ALEX",
    "category": "CAFE ALEX",
    "formatted_address": "4,2(33) · ₺",
    "phone_number": "+302465300750",
    "source_url": "https://www.google.com/maps/place/CAFE+ALEX/data=!4m7!3m6!1s0x1359c1590a00a813:0xff57fd6c91c93dd8!8m2!3d40.2525717!4d21.5561182!16s%2Fg%2F11bwydf8n7!19sChIJE6gAClnBWRMR2D3JkWz9V_8?authuser=0&hl=tr&rclk=1",
    "website_url": "",
    "rating_text": "4,2",
    "stars": null,
    "number_of_reviews": null,
    "price_level": "",
    "open_hours": "",
    "extraction_timestamp": "2025-06-07T15:28:38.294Z",
    "source_name": "google",
    "source_query": "Irrigation Equipment",
    "source_country": "GR",
    "country": "Greece",
    "state": "West Macedonia Region",
    "city": "Siátista"
  },
  {
    "source_id": "ChIJAQAAAEwlqBQRswZf5OGi7O0",
    "name": "DROP Κiosidis S.A.",
    "category": "DROP Κiosidis S.A.",
    "formatted_address": "5,0(12)",
    "phone_number": "+302310798487",
    "source_url": "https://www.google.com/maps/place/DROP+%CE%9Aiosidis+S.A./data=!4m7!3m6!1s0x14a8254c00000001:0xedeca2e1e45f06b3!8m2!3d40.681201!4d22.808324!16s%2Fg%2F11gzh4s7m!19sChIJAQAAAEwlqBQRswZf5OGi7O0?authuser=0&hl=tr&rclk=1",
    "website_url": "https://www.drop.gr/about-us/",
    "rating_text": "5,0",
    "stars": null,
    "number_of_reviews": null,
    "price_level": "",
    "open_hours": "",
    "extraction_timestamp": "2025-06-07T15:28:38.295Z",
    "source_name": "google",
    "source_query": "Irrigation Equipment",
    "source_country": "GR",
    "country": "Greece",
    "state": "West Macedonia Region",
    "city": "Siátista"
  },
  {
    "source_id": "ChIJveef2LXDWRMRdu-SnJxKWO4",
    "name": "Super Market ΛΑΓΓΑΣ",
    "category": "Super Market ΛΑΓΓΑΣ",
    "formatted_address": "4,8(4)",
    "phone_number": "+302465021219",
    "source_url": "https://www.google.com/maps/place/Super+Market+%CE%9B%CE%91%CE%93%CE%93%CE%91%CE%A3/data=!4m7!3m6!1s0x1359c3b5d89fe7bd:0xee584a9c9c92ef76!8m2!3d40.2621359!4d21.5483227!16s%2Fg%2F11tc07dzgf!19sChIJveef2LXDWRMRdu-SnJxKWO4?authuser=0&hl=tr&rclk=1",
    "website_url": "",
    "rating_text": "4,8",
    "stars": null,
    "number_of_reviews": null,
    "price_level": "",
    "open_hours": "",
    "extraction_timestamp": "2025-06-07T15:28:38.297Z",
    "source_name": "google",
    "source_query": "Irrigation Equipment",
    "source_country": "GR",
    "country": "Greece",
    "state": "West Macedonia Region",
    "city": "Siátista"
  },
  {
    "source_id": "ChIJYefGquHDWRMRi_2rqWVyMEc",
    "name": "Tsiaoussi, K., Bros, & SIA O.E.",
    "category": "Tsiaoussi, K., Bros, & SIA O.E.",
    "formatted_address": "Tsiaoussi, K., Bros, & SIA O.E.",
    "phone_number": "+302465047077",
    "source_url": "https://www.google.com/maps/place/Tsiaoussi,+K.,+Bros,+%26+SIA+O.E./data=!4m7!3m6!1s0x1359c3e1aac6e761:0x47307265a9abfd8b!8m2!3d40.2593571!4d21.5498752!16s%2Fg%2F11h071hj0!19sChIJYefGquHDWRMRi_2rqWVyMEc?authuser=0&hl=tr&rclk=1",
    "website_url": "",
    "rating_text": "",
    "stars": null,
    "number_of_reviews": null,
    "price_level": "",
    "open_hours": "",
    "extraction_timestamp": "2025-06-07T15:28:38.298Z",
    "source_name": "google",
    "source_query": "Irrigation Equipment",
    "source_country": "GR",
    "country": "Greece",
    "state": "West Macedonia Region",
    "city": "Siátista"
  },
  {
    "source_id": "ChIJkSg4_A6XWRMRQAr3M3ccFPM",
    "name": "ΠΛΑΤΣΑΤΟΥΡΑΣ ΘΕΟΔΩΡΟΣ ΒΑΣΙΛΕΙΟΣ",
    "category": "ΠΛΑΤΣΑΤΟΥΡΑΣ ΘΕΟΔΩΡΟΣ ΒΑΣΙΛΕΙΟΣ",
    "formatted_address": "5,0(12)",
    "phone_number": "+302462080332",
    "source_url": "https://www.google.com/maps/place/%CE%A0%CE%9B%CE%91%CE%A4%CE%A3%CE%91%CE%A4%CE%9F%CE%A5%CE%A1%CE%91%CE%A3+%CE%98%CE%95%CE%9F%CE%94%CE%A9%CE%A1%CE%9F%CE%A3+%CE%92%CE%91%CE%A3%CE%99%CE%9B%CE%95%CE%99%CE%9F%CE%A3/data=!4m7!3m6!1s0x1359970efc382891:0xf3141c7733f70a40!8m2!3d40.0776749!4d21.4217529!16s%2Fg%2F11c1t64kth!19sChIJkSg4_A6XWRMRQAr3M3ccFPM?authuser=0&hl=tr&rclk=1",
    "website_url": "https://thermansi.eu/",
    "rating_text": "5,0",
    "stars": null,
    "number_of_reviews": null,
    "price_level": "",
    "open_hours": "",
    "extraction_timestamp": "2025-06-07T15:28:38.299Z",
    "source_name": "google",
    "source_query": "Irrigation Equipment",
    "source_country": "GR",
    "country": "Greece",
    "state": "West Macedonia Region",
    "city": "Siátista"
  },
  {
    "source_id": "ChIJw_Lh3yR9VxMRiliPg3yXEko",
    "name": "ΑΘΑΝΑΣΙΟΣ ΒΛΑΧΟΔΗΜΟΣ ΤΟΥ ΚΩΝΣΤΑΝΤΙΝΟΥ",
    "category": "ΑΘΑΝΑΣΙΟΣ ΒΛΑΧΟΔΗΜΟΣ ΤΟΥ ΚΩΝΣΤΑΝΤΙΝΟΥ",
    "formatted_address": "5,0(4)",
    "phone_number": "+306973001138",
    "source_url": "https://www.google.com/maps/place/%CE%91%CE%98%CE%91%CE%9D%CE%91%CE%A3%CE%99%CE%9F%CE%A3+%CE%92%CE%9B%CE%91%CE%A7%CE%9F%CE%94%CE%97%CE%9C%CE%9F%CE%A3+%CE%A4%CE%9F%CE%A5+%CE%9A%CE%A9%CE%9D%CE%A3%CE%A4%CE%91%CE%9D%CE%A4%CE%99%CE%9D%CE%9F%CE%A5/data=!4m7!3m6!1s0x13577d24dfe1f2c3:0x4a12977c838f588a!8m2!3d40.5131261!4d21.6818395!16s%2Fg%2F11jzj8k9qv!19sChIJw_Lh3yR9VxMRiliPg3yXEko?authuser=0&hl=tr&rclk=1",
    "website_url": "",
    "rating_text": "5,0",
    "stars": null,
    "number_of_reviews": null,
    "price_level": "",
    "open_hours": "",
    "extraction_timestamp": "2025-06-07T15:28:38.300Z",
    "source_name": "google",
    "source_query": "Irrigation Equipment",
    "source_country": "GR",
    "country": "Greece",
    "state": "West Macedonia Region",
    "city": "Siátista"
  },
  {
    "source_id": "ChIJdzgLIRY1WhMRDmhB2S3H2_Q",
    "name": "ΒΑΓΕΝΑΣ ΓΡΗΓΟΡΗΣ",
    "category": "ΒΑΓΕΝΑΣ ΓΡΗΓΟΡΗΣ",
    "formatted_address": "5,0(6)",
    "phone_number": "+306983147869",
    "source_url": "https://www.google.com/maps/place/%CE%92%CE%91%CE%93%CE%95%CE%9D%CE%91%CE%A3+%CE%93%CE%A1%CE%97%CE%93%CE%9F%CE%A1%CE%97%CE%A3/data=!4m7!3m6!1s0x135a3516210b3877:0xf4dbc72dd941680e!8m2!3d40.0399261!4d20.7432583!16s%2Fg%2F11g6_4yyk0!19sChIJdzgLIRY1WhMRDmhB2S3H2_Q?authuser=0&hl=tr&rclk=1",
    "website_url": "",
    "rating_text": "5,0",
    "stars": null,
    "number_of_reviews": null,
    "price_level": "",
    "open_hours": "",
    "extraction_timestamp": "2025-06-07T15:28:38.302Z",
    "source_name": "google",
    "source_query": "Irrigation Equipment",
    "source_country": "GR",
    "country": "Greece",
    "state": "West Macedonia Region",
    "city": "Siátista"
  },
  {
    "source_id": "ChIJ3aDk-898VxMRnDM-x4dPsGU",
    "name": "KOTSIDIS PANAGIOTIS",
    "category": "KOTSIDIS PANAGIOTIS",
    "formatted_address": "4,6(50)",
    "phone_number": "+302463029890",
    "source_url": "https://www.google.com/maps/place/KOTSIDIS+PANAGIOTIS/data=!4m7!3m6!1s0x13577ccffbe4a0dd:0x65b04f87c73e339c!8m2!3d40.514594!4d21.6775865!16s%2Fg%2F1trzm74z!19sChIJ3aDk-898VxMRnDM-x4dPsGU?authuser=0&hl=tr&rclk=1",
    "website_url": "",
    "rating_text": "4,6",
    "stars": null,
    "number_of_reviews": null,
    "price_level": "",
    "open_hours": "",
    "extraction_timestamp": "2025-06-07T15:28:38.303Z",
    "source_name": "google",
    "source_query": "Irrigation Equipment",
    "source_country": "GR",
    "country": "Greece",
    "state": "West Macedonia Region",
    "city": "Siátista"
  },
  {
    "source_id": "ChIJt9X1HgDFWRMRT5WfloI_46s",
    "name": "CANTEEN KTIMA PAL",
    "category": "CANTEEN KTIMA PAL",
    "formatted_address": "5,0(2)",
    "phone_number": "",
    "source_url": "https://www.google.com/maps/place/CANTEEN+KTIMA+PAL/data=!4m7!3m6!1s0x1359c5001ef5d5b7:0xabe33f82969f954f!8m2!3d40.2471229!4d21.6010761!16s%2Fg%2F11x8t67mgw!19sChIJt9X1HgDFWRMRT5WfloI_46s?authuser=0&hl=tr&rclk=1",
    "website_url": "",
    "rating_text": "5,0",
    "stars": null,
    "number_of_reviews": null,
    "price_level": "",
    "open_hours": "",
    "extraction_timestamp": "2025-06-07T15:28:38.304Z",
    "source_name": "google",
    "source_query": "Irrigation Equipment",
    "source_country": "GR",
    "country": "Greece",
    "state": "West Macedonia Region",
    "city": "Siátista"
  },
  {
    "source_id": "ChIJkSzG5yNtpxQRcaPxE4gIX3o",
    "name": "ΚΑΠΕΤΑΝΙΑΣ Υδραυλικά-Θέρμανση-Φυσικό Αέριο-Ηλιακά",
    "category": "ΚΑΠΕΤΑΝΙΑΣ Υδραυλικά-Θέρμανση-Φυσικό Αέριο-Ηλιακά",
    "formatted_address": "5,0(12)",
    "phone_number": "+306982354948",
    "source_url": "https://www.google.com/maps/place/%CE%9A%CE%91%CE%A0%CE%95%CE%A4%CE%91%CE%9D%CE%99%CE%91%CE%A3+%CE%A5%CE%B4%CF%81%CE%B1%CF%85%CE%BB%CE%B9%CE%BA%CE%AC-%CE%98%CE%AD%CF%81%CE%BC%CE%B1%CE%BD%CF%83%CE%B7-%CE%A6%CF%85%CF%83%CE%B9%CE%BA%CF%8C+%CE%91%CE%AD%CF%81%CE%B9%CE%BF-%CE%97%CE%BB%CE%B9%CE%B1%CE%BA%CE%AC/data=!4m7!3m6!1s0x14a76d23e7c62c91:0x7a5f088813f1a371!8m2!3d39.3693894!4d22.9276151!16s%2Fg%2F11wn8_kq0g!19sChIJkSzG5yNtpxQRcaPxE4gIX3o?authuser=0&hl=tr&rclk=1",
    "website_url": "https://www.instagram.com/ydraulika_kapetanias/",
    "rating_text": "5,0",
    "stars": null,
    "number_of_reviews": null,
    "price_level": "",
    "open_hours": "",
    "extraction_timestamp": "2025-06-07T15:28:38.306Z",
    "source_name": "google",
    "source_query": "Irrigation Equipment",
    "source_country": "GR",
    "country": "Greece",
    "state": "West Macedonia Region",
    "city": "Siátista"
  },
  {
    "source_id": "ChIJXR9AjNEeWRMRSmOAF7Fz_2g",
    "name": "Κατσάνας - Αγροτικά μηχανήματα",
    "category": "Κατσάνας - Αγροτικά μηχανήματα",
    "formatted_address": "4,4(39)",
    "phone_number": "+302431024924",
    "source_url": "https://www.google.com/maps/place/%CE%9A%CE%B1%CF%84%CF%83%CE%AC%CE%BD%CE%B1%CF%82+-+%CE%91%CE%B3%CF%81%CE%BF%CF%84%CE%B9%CE%BA%CE%AC+%CE%BC%CE%B7%CF%87%CE%B1%CE%BD%CE%AE%CE%BC%CE%B1%CF%84%CE%B1/data=!4m7!3m6!1s0x13591ed18c401f5d:0x68ff73b11780634a!8m2!3d39.5548166!4d21.7858218!16s%2Fg%2F11h06lz7l!19sChIJXR9AjNEeWRMRSmOAF7Fz_2g?authuser=0&hl=tr&rclk=1",
    "website_url": "http://www.kkatsanas.gr/",
    "rating_text": "4,4",
    "stars": null,
    "number_of_reviews": null,
    "price_level": "",
    "open_hours": "",
    "extraction_timestamp": "2025-06-07T15:28:38.307Z",
    "source_name": "google",
    "source_query": "Irrigation Equipment",
    "source_country": "GR",
    "country": "Greece",
    "state": "West Macedonia Region",
    "city": "Siátista"
  },
  {
    "source_id": "ChIJbTSdupDbWBMR1pfLqM8eIPE",
    "name": "A & G Papalopoulos GPar",
    "category": "A & G Papalopoulos GPar",
    "formatted_address": "4,8(16)",
    "phone_number": "+302441061612",
    "source_url": "https://www.google.com/maps/place/A+%26+G+Papalopoulos+GPar/data=!4m7!3m6!1s0x1358db90ba9d346d:0xf1201ecfa8cb97d6!8m2!3d39.3713568!4d21.9857632!16s%2Fg%2F1tfn_rnc!19sChIJbTSdupDbWBMR1pfLqM8eIPE?authuser=0&hl=tr&rclk=1",
    "website_url": "",
    "rating_text": "4,8",
    "stars": null,
    "number_of_reviews": null,
    "price_level": "",
    "open_hours": "",
    "extraction_timestamp": "2025-06-07T15:28:38.309Z",
    "source_name": "google",
    "source_query": "Irrigation Equipment",
    "source_country": "GR",
    "country": "Greece",
    "state": "West Macedonia Region",
    "city": "Siátista"
  },
  {
    "source_id": "ChIJxQKJ7oyJWBMRuMYUefY0r30",
    "name": "Happy Stay Larissa",
    "category": "Happy Stay Larissa",
    "formatted_address": "5,0(41)",
    "phone_number": "+306979335601",
    "source_url": "https://www.google.com/maps/place/Happy+Stay+Larissa/data=!4m7!3m6!1s0x1358898cee8902c5:0x7daf34f67914c6b8!8m2!3d39.6364253!4d22.4183924!16s%2Fg%2F11x96rzsdr!19sChIJxQKJ7oyJWBMRuMYUefY0r30?authuser=0&hl=tr&rclk=1",
    "website_url": "",
    "rating_text": "5,0",
    "stars": null,
    "number_of_reviews": null,
    "price_level": "",
    "open_hours": "",
    "extraction_timestamp": "2025-06-07T15:28:38.310Z",
    "source_name": "google",
    "source_query": "Irrigation Equipment",
    "source_country": "GR",
    "country": "Greece",
    "state": "West Macedonia Region",
    "city": "Siátista"
  },
  {
    "source_id": "ChIJKW3waUcDWBMRKUM0AvwFmCg",
    "name": "Superzoo PetShop",
    "category": "Superzoo PetShop",
    "formatted_address": "5,0(20)",
    "phone_number": "+302351027444",
    "source_url": "https://www.google.com/maps/place/Superzoo+PetShop/data=!4m7!3m6!1s0x1358034769f06d29:0x289805fc02344329!8m2!3d40.2731044!4d22.5164862!16s%2Fg%2F11y51lth94!19sChIJKW3waUcDWBMRKUM0AvwFmCg?authuser=0&hl=tr&rclk=1",
    "website_url": "",
    "rating_text": "5,0",
    "stars": null,
    "number_of_reviews": null,
    "price_level": "",
    "open_hours": "",
    "extraction_timestamp": "2025-06-07T15:28:38.311Z",
    "source_name": "google",
    "source_query": "Irrigation Equipment",
    "source_country": "GR",
    "country": "Greece",
    "state": "West Macedonia Region",
    "city": "Siátista"
  },
  {
    "source_id": "ChIJNeGDTyv9WRMRtiugZ20ODZg",
    "name": "ΚΑΡΑΓΕΩΡΓΙΑΔΗΣ ΒΑΣΙΛΗΣ - Η ΛΥΣΗ ΣΤΟ ΠΡΟΒΛΗΜΑ ΣΑΣ",
    "category": "ΚΑΡΑΓΕΩΡΓΙΑΔΗΣ ΒΑΣΙΛΗΣ - Η ΛΥΣΗ ΣΤΟ ΠΡΟΒΛΗΜΑ ΣΑΣ",
    "formatted_address": "3,8(11)",
    "phone_number": "+306947304227",
    "source_url": "https://www.google.com/maps/place/%CE%9A%CE%91%CE%A1%CE%91%CE%93%CE%95%CE%A9%CE%A1%CE%93%CE%99%CE%91%CE%94%CE%97%CE%A3+%CE%92%CE%91%CE%A3%CE%99%CE%9B%CE%97%CE%A3+-+%CE%97+%CE%9B%CE%A5%CE%A3%CE%97+%CE%A3%CE%A4%CE%9F+%CE%A0%CE%A1%CE%9F%CE%92%CE%9B%CE%97%CE%9C%CE%91+%CE%A3%CE%91%CE%A3/data=!4m7!3m6!1s0x1359fd2b4f83e135:0x980d0e6d67a02bb6!8m2!3d40.2308423!4d21.47931!16s%2Fg%2F11h4nbl66s!19sChIJNeGDTyv9WRMRtiugZ20ODZg?authuser=0&hl=tr&rclk=1",
    "website_url": "",
    "rating_text": "3,8",
    "stars": null,
    "number_of_reviews": null,
    "price_level": "",
    "open_hours": "",
    "extraction_timestamp": "2025-06-07T15:28:38.312Z",
    "source_name": "google",
    "source_query": "Irrigation Equipment",
    "source_country": "GR",
    "country": "Greece",
    "state": "West Macedonia Region",
    "city": "Siátista"
  },
  {
    "source_id": "ChIJ9-JHZl9wWBMRo_a9T0Zs3Zo",
    "name": "Stamos Antonios",
    "category": "Stamos Antonios",
    "formatted_address": "5,0(6)",
    "phone_number": "+302495031925",
    "source_url": "https://www.google.com/maps/place/Stamos+Antonios/data=!4m7!3m6!1s0x1358705f6647e2f7:0x9add6c464fbdf6a3!8m2!3d39.860539!4d22.4738072!16s%2Fg%2F11gz88tx1!19sChIJ9-JHZl9wWBMRo_a9T0Zs3Zo?authuser=0&hl=tr&rclk=1",
    "website_url": "",
    "rating_text": "5,0",
    "stars": null,
    "number_of_reviews": null,
    "price_level": "",
    "open_hours": "",
    "extraction_timestamp": "2025-06-07T15:28:38.313Z",
    "source_name": "google",
    "source_query": "Irrigation Equipment",
    "source_country": "GR",
    "country": "Greece",
    "state": "West Macedonia Region",
    "city": "Siátista"
  },
  {
    "source_id": "ChIJW2i912zSWRMR1T4n-_HJ-xo",
    "name": "TECHNOBETON AE",
    "category": "TECHNOBETON AE",
    "formatted_address": "4,9(153)",
    "phone_number": "+302461045555",
    "source_url": "https://www.google.com/maps/place/TECHNOBETON+AE/data=!4m7!3m6!1s0x1359d26cd7bd685b:0x1afbc9f1fb273ed5!8m2!3d40.3495101!4d21.8012275!16s%2Fg%2F1v_hw6gw!19sChIJW2i912zSWRMR1T4n-_HJ-xo?authuser=0&hl=tr&rclk=1",
    "website_url": "http://www.tehnobeton.gr/",
    "rating_text": "4,9",
    "stars": null,
    "number_of_reviews": null,
    "price_level": "",
    "open_hours": "",
    "extraction_timestamp": "2025-06-07T15:28:38.315Z",
    "source_name": "google",
    "source_query": "Irrigation Equipment",
    "source_country": "GR",
    "country": "Greece",
    "state": "West Macedonia Region",
    "city": "Siátista"
  },
  {
    "source_id": "ChIJZx2EbBFspxQRIjV3iHMyhb0",
    "name": "Αντλίες Νερού Ms Pumps Μαυροπόδης",
    "category": "Αντλίες Νερού Ms Pumps Μαυροπόδης",
    "formatted_address": "4,8(12)",
    "phone_number": "+302421308324",
    "source_url": "https://www.google.com/maps/place/%CE%91%CE%BD%CF%84%CE%BB%CE%AF%CE%B5%CF%82+%CE%9D%CE%B5%CF%81%CE%BF%CF%8D+Ms+Pumps+%CE%9C%CE%B1%CF%85%CF%81%CE%BF%CF%80%CF%8C%CE%B4%CE%B7%CF%82/data=!4m7!3m6!1s0x14a76c116c841d67:0xbd85327388773522!8m2!3d39.3669552!4d22.9224363!16s%2Fg%2F11c532g_gs!19sChIJZx2EbBFspxQRIjV3iHMyhb0?authuser=0&hl=tr&rclk=1",
    "website_url": "https://www.mspumps.gr/",
    "rating_text": "4,8",
    "stars": null,
    "number_of_reviews": null,
    "price_level": "",
    "open_hours": "",
    "extraction_timestamp": "2025-06-07T15:28:38.316Z",
    "source_name": "google",
    "source_query": "Irrigation Equipment",
    "source_country": "GR",
    "country": "Greece",
    "state": "West Macedonia Region",
    "city": "Siátista"
  },
  {
    "source_id": "ChIJNzboqmCXVxMRn1oUhVt7kjI",
    "name": "Μήτκας Σάββας",
    "category": "Μήτκας Σάββας",
    "formatted_address": "4,4(5)",
    "phone_number": "+306986635743",
    "source_url": "https://www.google.com/maps/place/%CE%9C%CE%AE%CF%84%CE%BA%CE%B1%CF%82+%CE%A3%CE%AC%CE%B2%CE%B2%CE%B1%CF%82/data=!4m7!3m6!1s0x13579760aae83637:0x32927b5b85145a9f!8m2!3d40.5284052!4d22.2018123!16s%2Fg%2F11hk4hn9xf!19sChIJNzboqmCXVxMRn1oUhVt7kjI?authuser=0&hl=tr&rclk=1",
    "website_url": "",
    "rating_text": "4,4",
    "stars": null,
    "number_of_reviews": null,
    "price_level": "",
    "open_hours": "",
    "extraction_timestamp": "2025-06-07T15:28:38.318Z",
    "source_name": "google",
    "source_query": "Irrigation Equipment",
    "source_country": "GR",
    "country": "Greece",
    "state": "West Macedonia Region",
    "city": "Siátista"
  }
]
