[
  {
    "source_id": "ChIJTYaybO7tWRMRuGeBgx8KyaI",
    "name": "Υδραυλικά \" Καπέσιος\"",
    "category": "Υδραυλικά \" Καπέσιος\"",
    "formatted_address": "5,0(1)",
    "phone_number": "+302468031254",
    "source_url": "https://www.google.com/maps/place/%CE%A5%CE%B4%CF%81%CE%B1%CF%85%CE%BB%CE%B9%CE%BA%CE%AC+%22+%CE%9A%CE%B1%CF%80%CE%AD%CF%83%CE%B9%CE%BF%CF%82%22/data=!4m7!3m6!1s0x1359edee6cb2864d:0xa2c90a1f838167b8!8m2!3d40.2622531!4d21.3235915!16s%2Fg%2F11fkwcwnkt!19sChIJTYaybO7tWRMRuGeBgx8KyaI?authuser=0&hl=tr&rclk=1",
    "website_url": "",
    "rating_text": "5,0",
    "stars": null,
    "number_of_reviews": null,
    "price_level": "",
    "open_hours": "",
    "extraction_timestamp": "2025-06-07T15:30:57.511Z",
    "source_name": "google",
    "source_query": "Irrigation Equipment",
    "source_country": "GR",
    "country": "Greece",
    "state": "West Macedonia Region",
    "city": "Tsotíli"
  },
  {
    "source_id": "ChIJHWtbmwftWRMR63L24klXDio",
    "name": "Ευαγγελόπουλος Κ. κ Υιος Υδραυλικά Θέρμανση Ηλιακά Ενεργιακοί τροποι θέρμανσης",
    "category": "Ευαγγελόπουλος Κ. κ Υιος Υδραυλικά Θέρμανση Ηλιακά Ενεργιακοί τροποι θέρμανσης",
    "formatted_address": "4,4(5)",
    "phone_number": "+306976178557",
    "source_url": "https://www.google.com/maps/place/%CE%95%CF%85%CE%B1%CE%B3%CE%B3%CE%B5%CE%BB%CF%8C%CF%80%CE%BF%CF%85%CE%BB%CE%BF%CF%82+%CE%9A.+%CE%BA+%CE%A5%CE%B9%CE%BF%CF%82+%CE%A5%CE%B4%CF%81%CE%B1%CF%85%CE%BB%CE%B9%CE%BA%CE%AC+%CE%98%CE%AD%CF%81%CE%BC%CE%B1%CE%BD%CF%83%CE%B7+%CE%97%CE%BB%CE%B9%CE%B1%CE%BA%CE%AC+%CE%95%CE%BD%CE%B5%CF%81%CE%B3%CE%B9%CE%B1%CE%BA%CE%BF%CE%AF+%CF%84%CF%81%CE%BF%CF%80%CE%BF%CE%B9+%CE%B8%CE%AD%CF%81%CE%BC%CE%B1%CE%BD%CF%83%CE%B7%CF%82/data=!4m7!3m6!1s0x1359ed079b5b6b1d:0x2a0e5749e2f672eb!8m2!3d40.261254!4d21.322842!16s%2Fg%2F1hm20w4z0!19sChIJHWtbmwftWRMR63L24klXDio?authuser=0&hl=tr&rclk=1",
    "website_url": "",
    "rating_text": "4,4",
    "stars": null,
    "number_of_reviews": null,
    "price_level": "",
    "open_hours": "",
    "extraction_timestamp": "2025-06-07T15:30:57.513Z",
    "source_name": "google",
    "source_query": "Irrigation Equipment",
    "source_country": "GR",
    "country": "Greece",
    "state": "West Macedonia Region",
    "city": "Tsotíli"
  },
  {
    "source_id": "ChIJQ7yN6KztWRMRNivTXAkFvBU",
    "name": "Arista Market - Λιερίδης",
    "category": "Arista Market - Λιερίδης",
    "formatted_address": "4,6(105)",
    "phone_number": "+302468049028",
    "source_url": "https://www.google.com/maps/place/Arista+Market+-+%CE%9B%CE%B9%CE%B5%CF%81%CE%AF%CE%B4%CE%B7%CF%82/data=!4m7!3m6!1s0x1359edace88dbc43:0x15bc05095cd32b36!8m2!3d40.262808!4d21.3252538!16s%2Fg%2F11h6tr6mhz!19sChIJQ7yN6KztWRMRNivTXAkFvBU?authuser=0&hl=tr&rclk=1",
    "website_url": "",
    "rating_text": "4,6",
    "stars": null,
    "number_of_reviews": null,
    "price_level": "",
    "open_hours": "",
    "extraction_timestamp": "2025-06-07T15:30:57.515Z",
    "source_name": "google",
    "source_query": "Irrigation Equipment",
    "source_country": "GR",
    "country": "Greece",
    "state": "West Macedonia Region",
    "city": "Tsotíli"
  },
  {
    "source_id": "ChIJg97NsRbtWRMRmtuxuKfcdGU",
    "name": "ΥPER Grigoradis",
    "category": "ΥPER Grigoradis",
    "formatted_address": "4,2(25)",
    "phone_number": "+302468032231",
    "source_url": "https://www.google.com/maps/place/%CE%A5PER+Grigoradis/data=!4m7!3m6!1s0x1359ed16b1cdde83:0x6574dca7b8b1db9a!8m2!3d40.2645801!4d21.3244946!16s%2Fg%2F11jv6zhcq1!19sChIJg97NsRbtWRMRmtuxuKfcdGU?authuser=0&hl=tr&rclk=1",
    "website_url": "",
    "rating_text": "4,2",
    "stars": null,
    "number_of_reviews": null,
    "price_level": "",
    "open_hours": "",
    "extraction_timestamp": "2025-06-07T15:30:57.517Z",
    "source_name": "google",
    "source_query": "Irrigation Equipment",
    "source_country": "GR",
    "country": "Greece",
    "state": "West Macedonia Region",
    "city": "Tsotíli"
  },
  {
    "source_id": "ChIJP6mV10R_WBMRmKs2kVzQQL0",
    "name": "ADRITEC EUROPE S.A.",
    "category": "ADRITEC EUROPE S.A.",
    "formatted_address": "4,6(20)",
    "phone_number": "+302410975170",
    "source_url": "https://www.google.com/maps/place/ADRITEC+EUROPE+S.A./data=!4m7!3m6!1s0x13587f44d795a93f:0xbd40d05c9136ab98!8m2!3d39.6762619!4d22.5489292!16s%2Fg%2F11_qtp7mx!19sChIJP6mV10R_WBMRmKs2kVzQQL0?authuser=0&hl=tr&rclk=1",
    "website_url": "",
    "rating_text": "4,6",
    "stars": null,
    "number_of_reviews": null,
    "price_level": "",
    "open_hours": "",
    "extraction_timestamp": "2025-06-07T15:30:57.519Z",
    "source_name": "google",
    "source_query": "Irrigation Equipment",
    "source_country": "GR",
    "country": "Greece",
    "state": "West Macedonia Region",
    "city": "Tsotíli"
  }
]
