[
  {
    "source_id": "ChIJc6bDLWslWBMROM0dQGx9lnY",
    "name": "Τσιανακα Βαια",
    "category": "Τσιανακα Βαια",
    "formatted_address": "5,0(3)",
    "phone_number": "",
    "source_url": "https://www.google.com/maps/place/%CE%A4%CF%83%CE%B9%CE%B1%CE%BD%CE%B1%CE%BA%CE%B1+%CE%92%CE%B1%CE%B9%CE%B1/data=!4m7!3m6!1s0x1358256b2dc3a673:0x76967d6c401dcd38!8m2!3d40.2545486!4d22.0711704!16s%2Fg%2F11f10f3bsc!19sChIJc6bDLWslWBMROM0dQGx9lnY?authuser=0&hl=tr&rclk=1",
    "website_url": "",
    "rating_text": "5,0",
    "stars": null,
    "number_of_reviews": null,
    "price_level": "",
    "open_hours": "",
    "extraction_timestamp": "2025-06-07T15:31:06.123Z",
    "source_name": "google",
    "source_query": "Irrigation Equipment",
    "source_country": "GR",
    "country": "Greece",
    "state": "West Macedonia Region",
    "city": "Velventós"
  },
  {
    "source_id": "ChIJ8VeX9RElWBMRJVRdbbIYh54",
    "name": "ALSOS VELVENTOU",
    "category": "ALSOS VELVENTOU",
    "formatted_address": "4,6(127) · €5–10",
    "phone_number": "+306972816057",
    "source_url": "https://www.google.com/maps/place/ALSOS+VELVENTOU/data=!4m7!3m6!1s0x13582511f59757f1:0x9e8718b26d5d5425!8m2!3d40.2590338!4d22.0775177!16s%2Fg%2F11c0t981jn!19sChIJ8VeX9RElWBMRJVRdbbIYh54?authuser=0&hl=tr&rclk=1",
    "website_url": "",
    "rating_text": "4,6",
    "stars": null,
    "number_of_reviews": null,
    "price_level": "",
    "open_hours": "",
    "extraction_timestamp": "2025-06-07T15:31:06.124Z",
    "source_name": "google",
    "source_query": "Irrigation Equipment",
    "source_country": "GR",
    "country": "Greece",
    "state": "West Macedonia Region",
    "city": "Velventós"
  },
  {
    "source_id": "ChIJPVv5MGslWBMRp-BO-6YrIx8",
    "name": "ΤΣΙΡΤΣΙΟΥΡΗΣ MARKET",
    "category": "ΤΣΙΡΤΣΙΟΥΡΗΣ MARKET",
    "formatted_address": "4,4(15)",
    "phone_number": "+302464032350",
    "source_url": "https://www.google.com/maps/place/%CE%A4%CE%A3%CE%99%CE%A1%CE%A4%CE%A3%CE%99%CE%9F%CE%A5%CE%A1%CE%97%CE%A3+MARKET/data=!4m7!3m6!1s0x1358256b30f95b3d:0x1f232ba6fb4ee0a7!8m2!3d40.2547086!4d22.070713!16s%2Fg%2F11b_2ygj37!19sChIJPVv5MGslWBMRp-BO-6YrIx8?authuser=0&hl=tr&rclk=1",
    "website_url": "",
    "rating_text": "4,4",
    "stars": null,
    "number_of_reviews": null,
    "price_level": "",
    "open_hours": "",
    "extraction_timestamp": "2025-06-07T15:31:06.124Z",
    "source_name": "google",
    "source_query": "Irrigation Equipment",
    "source_country": "GR",
    "country": "Greece",
    "state": "West Macedonia Region",
    "city": "Velventós"
  },
  {
    "source_id": "ChIJmXRsSGslWBMR5MjOVY7mqVM",
    "name": "Καφέ-μπαρ «Αίνιγμα»",
    "category": "Καφέ-μπαρ «Αίνιγμα»",
    "formatted_address": "4,8(159) · €1–5",
    "phone_number": "+302464031500",
    "source_url": "https://www.google.com/maps/place/%CE%9A%CE%B1%CF%86%CE%AD-%CE%BC%CF%80%CE%B1%CF%81+%C2%AB%CE%91%CE%AF%CE%BD%CE%B9%CE%B3%CE%BC%CE%B1%C2%BB/data=!4m7!3m6!1s0x1358256b486c7499:0x53a9e68e55cec8e4!8m2!3d40.255408!4d22.0708068!16s%2Fg%2F11c1s2jkh3!19sChIJmXRsSGslWBMR5MjOVY7mqVM?authuser=0&hl=tr&rclk=1",
    "website_url": "https://www.facebook.com/profile.php?id=100002967026785",
    "rating_text": "4,8",
    "stars": null,
    "number_of_reviews": null,
    "price_level": "",
    "open_hours": "",
    "extraction_timestamp": "2025-06-07T15:31:06.125Z",
    "source_name": "google",
    "source_query": "Irrigation Equipment",
    "source_country": "GR",
    "country": "Greece",
    "state": "West Macedonia Region",
    "city": "Velventós"
  },
  {
    "source_id": "ChIJY_ep6GslWBMRTgq0Ef-gxmA",
    "name": "KRITIKOS Super Market",
    "category": "KRITIKOS Super Market",
    "formatted_address": "4,5(57)",
    "phone_number": "+302464031334",
    "source_url": "https://www.google.com/maps/place/KRITIKOS+Super+Market/data=!4m7!3m6!1s0x1358256be8a9f763:0x60c6a0ff11b40a4e!8m2!3d40.25646!4d22.06627!16s%2Fg%2F11f_j299nr!19sChIJY_ep6GslWBMRTgq0Ef-gxmA?authuser=0&hl=tr&rclk=1",
    "website_url": "http://www.kritikos-sm.gr/",
    "rating_text": "4,5",
    "stars": null,
    "number_of_reviews": null,
    "price_level": "",
    "open_hours": "",
    "extraction_timestamp": "2025-06-07T15:31:06.125Z",
    "source_name": "google",
    "source_query": "Irrigation Equipment",
    "source_country": "GR",
    "country": "Greece",
    "state": "West Macedonia Region",
    "city": "Velventós"
  },
  {
    "source_id": "ChIJP6mV10R_WBMRmKs2kVzQQL0",
    "name": "ADRITEC EUROPE S.A.",
    "category": "ADRITEC EUROPE S.A.",
    "formatted_address": "4,6(20)",
    "phone_number": "+302410975170",
    "source_url": "https://www.google.com/maps/place/ADRITEC+EUROPE+S.A./data=!4m7!3m6!1s0x13587f44d795a93f:0xbd40d05c9136ab98!8m2!3d39.6762619!4d22.5489292!16s%2Fg%2F11_qtp7mx!19sChIJP6mV10R_WBMRmKs2kVzQQL0?authuser=0&hl=tr&rclk=1",
    "website_url": "https://www.adriteceurope.gr/",
    "rating_text": "4,6",
    "stars": null,
    "number_of_reviews": null,
    "price_level": "",
    "open_hours": "",
    "extraction_timestamp": "2025-06-07T15:31:06.136Z",
    "source_name": "google",
    "source_query": "Irrigation Equipment",
    "source_country": "GR",
    "country": "Greece",
    "state": "West Macedonia Region",
    "city": "Velventós"
  }
]
