[
  {
    "source_id": "ChIJQciuB6TurkARmK_LAb9KylI",
    "name": "МАГАЗИН ПЛАМ",
    "category": "МАГАЗИН ПЛАМ",
    "formatted_address": "4,7(39)",
    "phone_number": "+359889444831",
    "source_url": "https://www.google.com/maps/place/%D0%9C%D0%90%D0%93%D0%90%D0%97%D0%98%D0%9D+%D0%9F%D0%9B%D0%90%D0%9C/data=!4m7!3m6!1s0x40aeeea407aec841:0x52ca4abf01cbaf98!8m2!3d43.5847688!4d25.866599!16s%2Fg%2F11g6nhcfk3!19sChIJQciuB6TurkARmK_LAb9KylI?authuser=0&hl=tr&rclk=1",
    "website_url": "http://plameood.com/",
    "rating_text": "4,7",
    "stars": null,
    "number_of_reviews": null,
    "price_level": "",
    "open_hours": "",
    "extraction_timestamp": "2025-06-07T13:50:30.446Z",
    "source_name": "google",
    "source_query": "Irrigation Equipment",
    "source_country": "BG",
    "country": "Bulgaria",
    "state": "Ruse Province",
    "city": "Dve Mogili"
  },
  {
    "source_id": "ChIJly0pKrdgrkARoJZC1lgKWoY",
    "name": "ПОЛИВНИ СИСТЕМИ ЕООД",
    "category": "ПОЛИВНИ СИСТЕМИ ЕООД",
    "formatted_address": "4,7(11)",
    "phone_number": "+359887424020",
    "source_url": "https://www.google.com/maps/place/%D0%9F%D0%9E%D0%9B%D0%98%D0%92%D0%9D%D0%98+%D0%A1%D0%98%D0%A1%D0%A2%D0%95%D0%9C%D0%98+%D0%95%D0%9E%D0%9E%D0%94/data=!4m7!3m6!1s0x40ae60b72a292d97:0x865a0a58d64296a0!8m2!3d43.8355713!4d25.9656554!16s%2Fg%2F1hc2rnssk!19sChIJly0pKrdgrkARoJZC1lgKWoY?authuser=0&hl=tr&rclk=1",
    "website_url": "",
    "rating_text": "4,7",
    "stars": null,
    "number_of_reviews": null,
    "price_level": "",
    "open_hours": "",
    "extraction_timestamp": "2025-06-07T13:50:30.448Z",
    "source_name": "google",
    "source_query": "Irrigation Equipment",
    "source_country": "BG",
    "country": "Bulgaria",
    "state": "Ruse Province",
    "city": "Dve Mogili"
  },
  {
    "source_id": "ChIJ5V4SUgDvrkARKnXKdrS5Bk4",
    "name": "ПЕТРОВ 23",
    "category": "ПЕТРОВ 23",
    "formatted_address": "5,0(1)",
    "phone_number": "+359893600708",
    "source_url": "https://www.google.com/maps/place/%D0%9F%D0%95%D0%A2%D0%A0%D0%9E%D0%92+23/data=!4m7!3m6!1s0x40aeef0052125ee5:0x4e06b9b476ca752a!8m2!3d43.5903472!4d25.8739557!16s%2Fg%2F11wv9rqyzw!19sChIJ5V4SUgDvrkARKnXKdrS5Bk4?authuser=0&hl=tr&rclk=1",
    "website_url": "",
    "rating_text": "5,0",
    "stars": null,
    "number_of_reviews": null,
    "price_level": "",
    "open_hours": "",
    "extraction_timestamp": "2025-06-07T13:50:30.449Z",
    "source_name": "google",
    "source_query": "Irrigation Equipment",
    "source_country": "BG",
    "country": "Bulgaria",
    "state": "Ruse Province",
    "city": "Dve Mogili"
  },
  {
    "source_id": "ChIJHZPl3J7urkARs0TT1ZXw4KM",
    "name": "Kimt-D",
    "category": "Kimt-D",
    "formatted_address": "4,6(125)",
    "phone_number": "+359877421499",
    "source_url": "https://www.google.com/maps/place/Kimt-D/data=!4m7!3m6!1s0x40aeee9edce5931d:0xa3e0f095d5d344b3!8m2!3d43.5895019!4d25.8730233!16s%2Fg%2F1tn048zp!19sChIJHZPl3J7urkARs0TT1ZXw4KM?authuser=0&hl=tr&rclk=1",
    "website_url": "",
    "rating_text": "4,6",
    "stars": null,
    "number_of_reviews": null,
    "price_level": "",
    "open_hours": "",
    "extraction_timestamp": "2025-06-07T13:50:30.451Z",
    "source_name": "google",
    "source_query": "Irrigation Equipment",
    "source_country": "BG",
    "country": "Bulgaria",
    "state": "Ruse Province",
    "city": "Dve Mogili"
  },
  {
    "source_id": "ChIJE1MN-1xhrkARKqEyHI07MCo",
    "name": "OGRADKI BG",
    "category": "OGRADKI BG",
    "formatted_address": "4,3(6)",
    "phone_number": "+359895675832",
    "source_url": "https://www.google.com/maps/place/OGRADKI+BG/data=!4m7!3m6!1s0x40ae615cfb0d5313:0x2a303b8d1c32a12a!8m2!3d43.8539914!4d25.9913739!16s%2Fg%2F11jgf0rqh4!19sChIJE1MN-1xhrkARKqEyHI07MCo?authuser=0&hl=tr&rclk=1",
    "website_url": "http://www.ogradki.bg/",
    "rating_text": "4,3",
    "stars": null,
    "number_of_reviews": null,
    "price_level": "",
    "open_hours": "",
    "extraction_timestamp": "2025-06-07T13:50:30.452Z",
    "source_name": "google",
    "source_query": "Irrigation Equipment",
    "source_country": "BG",
    "country": "Bulgaria",
    "state": "Ruse Province",
    "city": "Dve Mogili"
  },
  {
    "source_id": "ChIJ3eSLbFLvrkARoVjUN8bMskQ",
    "name": "Q - SERVICE TRUCK&CAR - Автосервиз Иванов-Георгиев ООД",
    "category": "Q - SERVICE TRUCK&CAR - Автосервиз Иванов-Георгиев ООД",
    "formatted_address": "4,8(16)",
    "phone_number": "+359897846387",
    "source_url": "https://www.google.com/maps/place/Q+-+SERVICE+TRUCK%26CAR+-+%D0%90%D0%B2%D1%82%D0%BE%D1%81%D0%B5%D1%80%D0%B2%D0%B8%D0%B7+%D0%98%D0%B2%D0%B0%D0%BD%D0%BE%D0%B2-%D0%93%D0%B5%D0%BE%D1%80%D0%B3%D0%B8%D0%B5%D0%B2+%D0%9E%D0%9E%D0%94/data=!4m7!3m6!1s0x40aeef526c8be4dd:0x44b2ccc637d458a1!8m2!3d43.5857106!4d25.8637503!16s%2Fg%2F11s4668_vc!19sChIJ3eSLbFLvrkARoVjUN8bMskQ?authuser=0&hl=tr&rclk=1",
    "website_url": "http://www.mig-trans.com/",
    "rating_text": "4,8",
    "stars": null,
    "number_of_reviews": null,
    "price_level": "",
    "open_hours": "",
    "extraction_timestamp": "2025-06-07T13:50:30.454Z",
    "source_name": "google",
    "source_query": "Irrigation Equipment",
    "source_country": "BG",
    "country": "Bulgaria",
    "state": "Ruse Province",
    "city": "Dve Mogili"
  },
  {
    "source_id": "ChIJ2X5Ik5jurkARoyjz4HV0gSI",
    "name": "Patsoni",
    "category": "Patsoni",
    "formatted_address": "2,3(4)",
    "phone_number": "",
    "source_url": "https://www.google.com/maps/place/Patsoni/data=!4m7!3m6!1s0x40aeee9893487ed9:0x22817475e0f328a3!8m2!3d43.5893994!4d25.872901!16s%2Fg%2F11c7sr1q_q!19sChIJ2X5Ik5jurkARoyjz4HV0gSI?authuser=0&hl=tr&rclk=1",
    "website_url": "",
    "rating_text": "2,3",
    "stars": null,
    "number_of_reviews": null,
    "price_level": "",
    "open_hours": "",
    "extraction_timestamp": "2025-06-07T13:50:30.491Z",
    "source_name": "google",
    "source_query": "Irrigation Equipment",
    "source_country": "BG",
    "country": "Bulgaria",
    "state": "Ruse Province",
    "city": "Dve Mogili"
  },
  {
    "source_id": "ChIJtcLQl51grkAR9a5Y_RyZsMI",
    "name": "Bul Drip",
    "category": "Bul Drip",
    "formatted_address": "",
    "phone_number": "+359887424020",
    "source_url": "https://www.google.com/maps/place/Bul+Drip/data=!4m7!3m6!1s0x40ae609d97d0c2b5:0xc2b0991cfd58aef5!8m2!3d43.8287244!4d25.9716352!16s%2Fg%2F1vljdv97!19sChIJtcLQl51grkAR9a5Y_RyZsMI?authuser=0&hl=tr&rclk=1",
    "website_url": "",
    "rating_text": "",
    "stars": null,
    "number_of_reviews": null,
    "price_level": "",
    "open_hours": "",
    "extraction_timestamp": "2025-06-07T13:50:30.493Z",
    "source_name": "google",
    "source_query": "Irrigation Equipment",
    "source_country": "BG",
    "country": "Bulgaria",
    "state": "Ruse Province",
    "city": "Dve Mogili"
  }
]
