[
  {
    "source_id": "ChIJkV1ssPdDrkARO720aO6k47U",
    "name": "KM GROUP - IRRIGATION SYSTEMS",
    "category": "KM GROUP - IRRIGATION SYSTEMS",
    "formatted_address": "4,8(8)",
    "phone_number": "+35981789701",
    "source_url": "https://www.google.com/maps/place/KM+GROUP+-+IRRIGATION+SYSTEMS/data=!4m7!3m6!1s0x40ae43f7b06c5d91:0xb5e3a4ee68b4bd3b!8m2!3d43.943756!4d26.2045157!16s%2Fg%2F1v2jbd_j!19sChIJkV1ssPdDrkARO720aO6k47U?authuser=0&hl=tr&rclk=1",
    "website_url": "",
    "rating_text": "4,8",
    "stars": null,
    "number_of_reviews": null,
    "price_level": "",
    "open_hours": "",
    "extraction_timestamp": "2025-06-07T13:50:19.338Z",
    "source_name": "google",
    "source_query": "Irrigation Equipment",
    "source_country": "BG",
    "country": "Bulgaria",
    "state": "Ruse Province",
    "city": "Obshtina Slivo Pole"
  },
  {
    "source_id": "ChIJly0pKrdgrkARoJZC1lgKWoY",
    "name": "ПОЛИВНИ СИСТЕМИ ЕООД",
    "category": "ПОЛИВНИ СИСТЕМИ ЕООД",
    "formatted_address": "4,7(11)",
    "phone_number": "+359887424020",
    "source_url": "https://www.google.com/maps/place/%D0%9F%D0%9E%D0%9B%D0%98%D0%92%D0%9D%D0%98+%D0%A1%D0%98%D0%A1%D0%A2%D0%95%D0%9C%D0%98+%D0%95%D0%9E%D0%9E%D0%94/data=!4m7!3m6!1s0x40ae60b72a292d97:0x865a0a58d64296a0!8m2!3d43.8355713!4d25.9656554!16s%2Fg%2F1hc2rnssk!19sChIJly0pKrdgrkARoJZC1lgKWoY?authuser=0&hl=tr&rclk=1",
    "website_url": "",
    "rating_text": "4,7",
    "stars": null,
    "number_of_reviews": null,
    "price_level": "",
    "open_hours": "",
    "extraction_timestamp": "2025-06-07T13:50:19.338Z",
    "source_name": "google",
    "source_query": "Irrigation Equipment",
    "source_country": "BG",
    "country": "Bulgaria",
    "state": "Ruse Province",
    "city": "Obshtina Slivo Pole"
  },
  {
    "source_id": "ChIJD1ndUABDrkAR_fgDd0hDELY",
    "name": "AQUA&CLEAN",
    "category": "AQUA&CLEAN",
    "formatted_address": "5,0(8)",
    "phone_number": "+359898924901",
    "source_url": "https://www.google.com/maps/place/AQUA%26CLEAN/data=!4m7!3m6!1s0x40ae430050dd590f:0xb61043487703f8fd!8m2!3d43.9423849!4d26.2058362!16s%2Fg%2F11wvbdhyv_!19sChIJD1ndUABDrkAR_fgDd0hDELY?authuser=0&hl=tr&rclk=1",
    "website_url": "",
    "rating_text": "5,0",
    "stars": null,
    "number_of_reviews": null,
    "price_level": "",
    "open_hours": "",
    "extraction_timestamp": "2025-06-07T13:50:19.339Z",
    "source_name": "google",
    "source_query": "Irrigation Equipment",
    "source_country": "BG",
    "country": "Bulgaria",
    "state": "Ruse Province",
    "city": "Obshtina Slivo Pole"
  },
  {
    "source_id": "ChIJJbg5rIVDrkAR6kJK7k9TwGI",
    "name": "Профимакс ООД",
    "category": "Профимакс ООД",
    "formatted_address": "5,0(20)",
    "phone_number": "+359894368695",
    "source_url": "https://www.google.com/maps/place/%D0%9F%D1%80%D0%BE%D1%84%D0%B8%D0%BC%D0%B0%D0%BA%D1%81+%D0%9E%D0%9E%D0%94/data=!4m7!3m6!1s0x40ae4385ac39b825:0x62c0534fee4a42ea!8m2!3d43.9443496!4d26.2059307!16s%2Fg%2F11t9dnxd5k!19sChIJJbg5rIVDrkAR6kJK7k9TwGI?authuser=0&hl=tr&rclk=1",
    "website_url": "",
    "rating_text": "5,0",
    "stars": null,
    "number_of_reviews": null,
    "price_level": "",
    "open_hours": "",
    "extraction_timestamp": "2025-06-07T13:50:19.339Z",
    "source_name": "google",
    "source_query": "Irrigation Equipment",
    "source_country": "BG",
    "country": "Bulgaria",
    "state": "Ruse Province",
    "city": "Obshtina Slivo Pole"
  },
  {
    "source_id": "ChIJfe2p_7ZDrkARf3KbVgVSnDQ",
    "name": "Строителна Борса ДАНЧЕВ КОМЕРС ООД",
    "category": "Строителна Борса ДАНЧЕВ КОМЕРС ООД",
    "formatted_address": "4,6(116)",
    "phone_number": "+359889824556",
    "source_url": "https://www.google.com/maps/place/%D0%A1%D1%82%D1%80%D0%BE%D0%B8%D1%82%D0%B5%D0%BB%D0%BD%D0%B0+%D0%91%D0%BE%D1%80%D1%81%D0%B0+%D0%94%D0%90%D0%9D%D0%A7%D0%95%D0%92+%D0%9A%D0%9E%D0%9C%D0%95%D0%A0%D0%A1+%D0%9E%D0%9E%D0%94/data=!4m7!3m6!1s0x40ae43b6ffa9ed7d:0x349c5205569b727f!8m2!3d43.9394841!4d26.1954151!16s%2Fg%2F11gjhp1n1h!19sChIJfe2p_7ZDrkARf3KbVgVSnDQ?authuser=0&hl=tr&rclk=1",
    "website_url": "",
    "rating_text": "4,6",
    "stars": null,
    "number_of_reviews": null,
    "price_level": "",
    "open_hours": "",
    "extraction_timestamp": "2025-06-07T13:50:19.340Z",
    "source_name": "google",
    "source_query": "Irrigation Equipment",
    "source_country": "BG",
    "country": "Bulgaria",
    "state": "Ruse Province",
    "city": "Obshtina Slivo Pole"
  },
  {
    "source_id": "ChIJi0XAba9HrkARC0jOHJuDjlM",
    "name": "Магазин За Месо",
    "category": "Магазин За Месо",
    "formatted_address": "4,3(93)",
    "phone_number": "+359889592795",
    "source_url": "https://www.google.com/maps/place/%D0%9C%D0%B0%D0%B3%D0%B0%D0%B7%D0%B8%D0%BD+%D0%97%D0%B0+%D0%9C%D0%B5%D1%81%D0%BE/data=!4m7!3m6!1s0x40ae47af6dc0458b:0x538e839b1cce480b!8m2!3d43.974678!4d26.3121636!16s%2Fg%2F11c0rkwcq1!19sChIJi0XAba9HrkARC0jOHJuDjlM?authuser=0&hl=tr&rclk=1",
    "website_url": "",
    "rating_text": "4,3",
    "stars": null,
    "number_of_reviews": null,
    "price_level": "",
    "open_hours": "",
    "extraction_timestamp": "2025-06-07T13:50:19.341Z",
    "source_name": "google",
    "source_query": "Irrigation Equipment",
    "source_country": "BG",
    "country": "Bulgaria",
    "state": "Ruse Province",
    "city": "Obshtina Slivo Pole"
  },
  {
    "source_id": "ChIJHyMrSvFCrkARNqEebb69CrU",
    "name": "МАГАЗИНЪТ НА ИРКА",
    "category": "МАГАЗИНЪТ НА ИРКА",
    "formatted_address": "4,6(47)",
    "phone_number": "+359895431507",
    "source_url": "https://www.google.com/maps/place/%D0%9C%D0%90%D0%93%D0%90%D0%97%D0%98%D0%9D%D0%AA%D0%A2+%D0%9D%D0%90+%D0%98%D0%A0%D0%9A%D0%90/data=!4m7!3m6!1s0x40ae42f14a2b231f:0xb50abdbe6d1ea136!8m2!3d43.9314573!4d26.1141271!16s%2Fg%2F11cnb7q__y!19sChIJHyMrSvFCrkARNqEebb69CrU?authuser=0&hl=tr&rclk=1",
    "website_url": "",
    "rating_text": "4,6",
    "stars": null,
    "number_of_reviews": null,
    "price_level": "",
    "open_hours": "",
    "extraction_timestamp": "2025-06-07T13:50:19.341Z",
    "source_name": "google",
    "source_query": "Irrigation Equipment",
    "source_country": "BG",
    "country": "Bulgaria",
    "state": "Ruse Province",
    "city": "Obshtina Slivo Pole"
  },
  {
    "source_id": "ChIJE1MN-1xhrkARKqEyHI07MCo",
    "name": "OGRADKI BG",
    "category": "OGRADKI BG",
    "formatted_address": "4,3(6)",
    "phone_number": "+359895675832",
    "source_url": "https://www.google.com/maps/place/OGRADKI+BG/data=!4m7!3m6!1s0x40ae615cfb0d5313:0x2a303b8d1c32a12a!8m2!3d43.8539914!4d25.9913739!16s%2Fg%2F11jgf0rqh4!19sChIJE1MN-1xhrkARKqEyHI07MCo?authuser=0&hl=tr&rclk=1",
    "website_url": "",
    "rating_text": "4,3",
    "stars": null,
    "number_of_reviews": null,
    "price_level": "",
    "open_hours": "",
    "extraction_timestamp": "2025-06-07T13:50:19.341Z",
    "source_name": "google",
    "source_query": "Irrigation Equipment",
    "source_country": "BG",
    "country": "Bulgaria",
    "state": "Ruse Province",
    "city": "Obshtina Slivo Pole"
  },
  {
    "source_id": "ChIJGanA7J5drkARzFnpS53YuTA",
    "name": "Clio Commerce Ruse",
    "category": "Clio Commerce Ruse",
    "formatted_address": "4,2(44)",
    "phone_number": "+359893606881",
    "source_url": "https://www.google.com/maps/place/Clio+Commerce+Ruse/data=!4m7!3m6!1s0x40ae5d9eecc0a919:0x30b9d89d4be959cc!8m2!3d43.8732948!4d26.0414295!16s%2Fg%2F11csrz1t_7!19sChIJGanA7J5drkARzFnpS53YuTA?authuser=0&hl=tr&rclk=1",
    "website_url": "",
    "rating_text": "4,2",
    "stars": null,
    "number_of_reviews": null,
    "price_level": "",
    "open_hours": "",
    "extraction_timestamp": "2025-06-07T13:50:19.342Z",
    "source_name": "google",
    "source_query": "Irrigation Equipment",
    "source_country": "BG",
    "country": "Bulgaria",
    "state": "Ruse Province",
    "city": "Obshtina Slivo Pole"
  },
  {
    "source_id": "ChIJkV1ssPdDrkARpHJeFUNKtII",
    "name": "Kiril Danchev",
    "category": "Kiril Danchev",
    "formatted_address": "4,6(7)",
    "phone_number": "+35981312143",
    "source_url": "https://www.google.com/maps/place/Kiril+Danchev/data=!4m7!3m6!1s0x40ae43f7b06c5d91:0x82b44a43155e72a4!8m2!3d43.94178!4d26.2046099!16s%2Fg%2F1thlll0v!19sChIJkV1ssPdDrkARpHJeFUNKtII?authuser=0&hl=tr&rclk=1",
    "website_url": "",
    "rating_text": "4,6",
    "stars": null,
    "number_of_reviews": null,
    "price_level": "",
    "open_hours": "",
    "extraction_timestamp": "2025-06-07T13:50:19.342Z",
    "source_name": "google",
    "source_query": "Irrigation Equipment",
    "source_country": "BG",
    "country": "Bulgaria",
    "state": "Ruse Province",
    "city": "Obshtina Slivo Pole"
  },
  {
    "source_id": "ChIJaUNtpJtdrkAR5R3z6wjctVw",
    "name": "Radans",
    "category": "Radans",
    "formatted_address": "4,4(133)",
    "phone_number": "+359899987337",
    "source_url": "https://www.google.com/maps/place/Radans/data=!4m7!3m6!1s0x40ae5d9ba46d4369:0x5cb5dc08ebf31de5!8m2!3d43.8722554!4d26.0361619!16s%2Fg%2F11cjj9vp2s!19sChIJaUNtpJtdrkAR5R3z6wjctVw?authuser=0&hl=tr&rclk=1",
    "website_url": "",
    "rating_text": "4,4",
    "stars": null,
    "number_of_reviews": null,
    "price_level": "",
    "open_hours": "",
    "extraction_timestamp": "2025-06-07T13:50:19.343Z",
    "source_name": "google",
    "source_query": "Irrigation Equipment",
    "source_country": "BG",
    "country": "Bulgaria",
    "state": "Ruse Province",
    "city": "Obshtina Slivo Pole"
  },
  {
    "source_id": "ChIJtcLQl51grkAR9a5Y_RyZsMI",
    "name": "Bul Drip",
    "category": "Bul Drip",
    "formatted_address": "",
    "phone_number": "+359887424020",
    "source_url": "https://www.google.com/maps/place/Bul+Drip/data=!4m7!3m6!1s0x40ae609d97d0c2b5:0xc2b0991cfd58aef5!8m2!3d43.8287244!4d25.9716352!16s%2Fg%2F1vljdv97!19sChIJtcLQl51grkAR9a5Y_RyZsMI?authuser=0&hl=tr&rclk=1",
    "website_url": "",
    "rating_text": "",
    "stars": null,
    "number_of_reviews": null,
    "price_level": "",
    "open_hours": "",
    "extraction_timestamp": "2025-06-07T13:50:19.343Z",
    "source_name": "google",
    "source_query": "Irrigation Equipment",
    "source_country": "BG",
    "country": "Bulgaria",
    "state": "Ruse Province",
    "city": "Obshtina Slivo Pole"
  }
]
