[
  {
    "source_id": "ChIJly0pKrdgrkARoJZC1lgKWoY",
    "name": "ПОЛИВНИ СИСТЕМИ ЕООД",
    "category": "ПОЛИВНИ СИСТЕМИ ЕООД",
    "formatted_address": "4,7(11)",
    "phone_number": "+359887424020",
    "source_url": "https://www.google.com/maps/place/%D0%9F%D0%9E%D0%9B%D0%98%D0%92%D0%9D%D0%98+%D0%A1%D0%98%D0%A1%D0%A2%D0%95%D0%9C%D0%98+%D0%95%D0%9E%D0%9E%D0%94/data=!4m7!3m6!1s0x40ae60b72a292d97:0x865a0a58d64296a0!8m2!3d43.8355713!4d25.9656554!16s%2Fg%2F1hc2rnssk!19sChIJly0pKrdgrkARoJZC1lgKWoY?authuser=0&hl=tr&rclk=1",
    "website_url": "",
    "rating_text": "4,7",
    "stars": null,
    "number_of_reviews": null,
    "price_level": "",
    "open_hours": "",
    "extraction_timestamp": "2025-06-07T13:50:32.969Z",
    "source_name": "google",
    "source_query": "Irrigation Equipment",
    "source_country": "BG",
    "country": "Bulgaria",
    "state": "Ruse Province",
    "city": "Obshtina Byala"
  },
  {
    "source_id": "ChIJlVUWisBgrkAR_9GDqyMSnjE",
    "name": "Irrigation Systems",
    "category": "Irrigation Systems",
    "formatted_address": "1,0(2)",
    "phone_number": "+35982825748",
    "source_url": "https://www.google.com/maps/place/Irrigation+Systems/data=!4m7!3m6!1s0x40ae60c08a165595:0x319e1223ab83d1ff!8m2!3d43.8419922!4d25.9542701!16s%2Fg%2F11h1lh6ml!19sChIJlVUWisBgrkAR_9GDqyMSnjE?authuser=0&hl=tr&rclk=1",
    "website_url": "",
    "rating_text": "1,0",
    "stars": null,
    "number_of_reviews": null,
    "price_level": "",
    "open_hours": "",
    "extraction_timestamp": "2025-06-07T13:50:32.970Z",
    "source_name": "google",
    "source_query": "Irrigation Equipment",
    "source_country": "BG",
    "country": "Bulgaria",
    "state": "Ruse Province",
    "city": "Obshtina Byala"
  },
  {
    "source_id": "ChIJmU7e525hrkAR4RDHt16KqpU",
    "name": "My Water BG",
    "category": "My Water BG",
    "formatted_address": "4,9(7)",
    "phone_number": "+359877799499",
    "source_url": "https://www.google.com/maps/place/My+Water+BG/data=!4m7!3m6!1s0x40ae616ee7de4e99:0x95aa8a5eb7c710e1!8m2!3d43.8418027!4d25.9589377!16s%2Fg%2F11jbnm25dz!19sChIJmU7e525hrkAR4RDHt16KqpU?authuser=0&hl=tr&rclk=1",
    "website_url": "http://mywater.bg/",
    "rating_text": "4,9",
    "stars": null,
    "number_of_reviews": null,
    "price_level": "",
    "open_hours": "",
    "extraction_timestamp": "2025-06-07T13:50:32.971Z",
    "source_name": "google",
    "source_query": "Irrigation Equipment",
    "source_country": "BG",
    "country": "Bulgaria",
    "state": "Ruse Province",
    "city": "Obshtina Byala"
  },
  {
    "source_id": "ChIJKcKJa05nrkARIkDmtycNem4",
    "name": "Филипчев и Ко ООД",
    "category": "Филипчев и Ко ООД",
    "formatted_address": "4,6(100)",
    "phone_number": "+359897843924",
    "source_url": "https://www.google.com/maps/place/%D0%A4%D0%B8%D0%BB%D0%B8%D0%BF%D1%87%D0%B5%D0%B2+%D0%B8+%D0%9A%D0%BE+%D0%9E%D0%9E%D0%94/data=!4m7!3m6!1s0x40ae674e6b89c229:0x6e7a0d27b7e64022!8m2!3d43.8551825!4d25.9854165!16s%2Fg%2F11b76kr81g!19sChIJKcKJa05nrkARIkDmtycNem4?authuser=0&hl=tr&rclk=1",
    "website_url": "",
    "rating_text": "4,6",
    "stars": null,
    "number_of_reviews": null,
    "price_level": "",
    "open_hours": "",
    "extraction_timestamp": "2025-06-07T13:50:32.971Z",
    "source_name": "google",
    "source_query": "Irrigation Equipment",
    "source_country": "BG",
    "country": "Bulgaria",
    "state": "Ruse Province",
    "city": "Obshtina Byala"
  },
  {
    "source_id": "ChIJBYl0l8BgrkARoib0bs3raXE",
    "name": "Stanimir Petrikov",
    "category": "Stanimir Petrikov",
    "formatted_address": "4,1(124)",
    "phone_number": "+35982834605",
    "source_url": "https://www.google.com/maps/place/Stanimir+Petrikov/data=!4m7!3m6!1s0x40ae60c097748905:0x7169ebcd6ef426a2!8m2!3d43.8424721!4d25.9615535!16s%2Fg%2F1tcz6tx1!19sChIJBYl0l8BgrkARoib0bs3raXE?authuser=0&hl=tr&rclk=1",
    "website_url": "http://www.petrikov-bg.com/",
    "rating_text": "4,1",
    "stars": null,
    "number_of_reviews": null,
    "price_level": "",
    "open_hours": "",
    "extraction_timestamp": "2025-06-07T13:50:32.972Z",
    "source_name": "google",
    "source_query": "Irrigation Equipment",
    "source_country": "BG",
    "country": "Bulgaria",
    "state": "Ruse Province",
    "city": "Obshtina Byala"
  },
  {
    "source_id": "ChIJA2QFEs9grkARvmcbkpo6J34",
    "name": "Bulgar Ai Ti En",
    "category": "Bulgar Ai Ti En",
    "formatted_address": "5,0(1)",
    "phone_number": "+35982822093",
    "source_url": "https://www.google.com/maps/place/Bulgar+Ai+Ti+En/data=!4m7!3m6!1s0x40ae60cf12056403:0x7e273a9a921b67be!8m2!3d43.8508151!4d25.9538524!16s%2Fg%2F1vd3t8w_!19sChIJA2QFEs9grkARvmcbkpo6J34?authuser=0&hl=tr&rclk=1",
    "website_url": "",
    "rating_text": "5,0",
    "stars": null,
    "number_of_reviews": null,
    "price_level": "",
    "open_hours": "",
    "extraction_timestamp": "2025-06-07T13:50:32.973Z",
    "source_name": "google",
    "source_query": "Irrigation Equipment",
    "source_country": "BG",
    "country": "Bulgaria",
    "state": "Ruse Province",
    "city": "Obshtina Byala"
  },
  {
    "source_id": "ChIJE1MN-1xhrkARKqEyHI07MCo",
    "name": "OGRADKI BG",
    "category": "OGRADKI BG",
    "formatted_address": "4,3(6)",
    "phone_number": "+359895675832",
    "source_url": "https://www.google.com/maps/place/OGRADKI+BG/data=!4m7!3m6!1s0x40ae615cfb0d5313:0x2a303b8d1c32a12a!8m2!3d43.8539914!4d25.9913739!16s%2Fg%2F11jgf0rqh4!19sChIJE1MN-1xhrkARKqEyHI07MCo?authuser=0&hl=tr&rclk=1",
    "website_url": "http://www.ogradki.bg/",
    "rating_text": "4,3",
    "stars": null,
    "number_of_reviews": null,
    "price_level": "",
    "open_hours": "",
    "extraction_timestamp": "2025-06-07T13:50:32.973Z",
    "source_name": "google",
    "source_query": "Irrigation Equipment",
    "source_country": "BG",
    "country": "Bulgaria",
    "state": "Ruse Province",
    "city": "Obshtina Byala"
  },
  {
    "source_id": "ChIJtcLQl51grkAR9a5Y_RyZsMI",
    "name": "Bul Drip",
    "category": "Bul Drip",
    "formatted_address": "",
    "phone_number": "+359887424020",
    "source_url": "https://www.google.com/maps/place/Bul+Drip/data=!4m7!3m6!1s0x40ae609d97d0c2b5:0xc2b0991cfd58aef5!8m2!3d43.8287244!4d25.9716352!16s%2Fg%2F1vljdv97!19sChIJtcLQl51grkAR9a5Y_RyZsMI?authuser=0&hl=tr&rclk=1",
    "website_url": "",
    "rating_text": "",
    "stars": null,
    "number_of_reviews": null,
    "price_level": "",
    "open_hours": "",
    "extraction_timestamp": "2025-06-07T13:50:32.974Z",
    "source_name": "google",
    "source_query": "Irrigation Equipment",
    "source_country": "BG",
    "country": "Bulgaria",
    "state": "Ruse Province",
    "city": "Obshtina Byala"
  },
  {
    "source_id": "ChIJaR5wldhhrkAR2UEopH9G7YY",
    "name": "\"Водопроводни Решения Русе\"- професионални вик услуги,vik uslugi",
    "category": "\"Водопроводни Решения Русе\"- професионални вик услуги,vik uslugi",
    "formatted_address": "\"Водопроводни Решения Русе\"- професионални вик услуги,vik uslugi",
    "phone_number": "+359893967820",
    "source_url": "https://www.google.com/maps/place/%22%D0%92%D0%BE%D0%B4%D0%BE%D0%BF%D1%80%D0%BE%D0%B2%D0%BE%D0%B4%D0%BD%D0%B8+%D0%A0%D0%B5%D1%88%D0%B5%D0%BD%D0%B8%D1%8F+%D0%A0%D1%83%D1%81%D0%B5%22-+%D0%BF%D1%80%D0%BE%D1%84%D0%B5%D1%81%D0%B8%D0%BE%D0%BD%D0%B0%D0%BB%D0%BD%D0%B8+%D0%B2%D0%B8%D0%BA+%D1%83%D1%81%D0%BB%D1%83%D0%B3%D0%B8,vik+uslugi/data=!4m7!3m6!1s0x40ae61d895701e69:0x86ed467fa42841d9!8m2!3d43.8456948!4d25.9561749!16s%2Fg%2F11t1rl1b_s!19sChIJaR5wldhhrkAR2UEopH9G7YY?authuser=0&hl=tr&rclk=1",
    "website_url": "",
    "rating_text": "5,0",
    "stars": null,
    "number_of_reviews": null,
    "price_level": "",
    "open_hours": "",
    "extraction_timestamp": "2025-06-07T13:50:32.975Z",
    "source_name": "google",
    "source_query": "Irrigation Equipment",
    "source_country": "BG",
    "country": "Bulgaria",
    "state": "Ruse Province",
    "city": "Obshtina Byala"
  },
  {
    "source_id": "ChIJH9d6HZxgrkARhAG6t3LjBGE",
    "name": "PRAKTIS",
    "category": "PRAKTIS",
    "formatted_address": "4,1(695)",
    "phone_number": "+35982599196",
    "source_url": "https://www.google.com/maps/place/PRAKTIS/data=!4m7!3m6!1s0x40ae609c1d7ad71f:0x6104e372b7ba0184!8m2!3d43.8304774!4d25.9691806!16s%2Fg%2F11b7g0y85k!19sChIJH9d6HZxgrkARhAG6t3LjBGE?authuser=0&hl=tr&rclk=1",
    "website_url": "https://praktis.bg/",
    "rating_text": "4,1",
    "stars": null,
    "number_of_reviews": null,
    "price_level": "",
    "open_hours": "",
    "extraction_timestamp": "2025-06-07T13:50:32.975Z",
    "source_name": "google",
    "source_query": "Irrigation Equipment",
    "source_country": "BG",
    "country": "Bulgaria",
    "state": "Ruse Province",
    "city": "Obshtina Byala"
  },
  {
    "source_id": "ChIJs62PjM1grkAREZPB-_AnGyU",
    "name": "VAMEKS - Complete Plumbing in Ruse",
    "category": "VAMEKS - Complete Plumbing in Ruse",
    "formatted_address": "4,6(225)",
    "phone_number": "+359878780935",
    "source_url": "https://www.google.com/maps/place/VAMEKS+-+Complete+Plumbing+in+Ruse/data=!4m7!3m6!1s0x40ae60cd8c8fadb3:0x251b27f0fbc19311!8m2!3d43.844799!4d25.9456668!16s%2Fg%2F1tfbwz9p!19sChIJs62PjM1grkAREZPB-_AnGyU?authuser=0&hl=tr&rclk=1",
    "website_url": "http://vamex.bg/",
    "rating_text": "4,6",
    "stars": null,
    "number_of_reviews": null,
    "price_level": "",
    "open_hours": "",
    "extraction_timestamp": "2025-06-07T13:50:32.976Z",
    "source_name": "google",
    "source_query": "Irrigation Equipment",
    "source_country": "BG",
    "country": "Bulgaria",
    "state": "Ruse Province",
    "city": "Obshtina Byala"
  },
  {
    "source_id": "ChIJaXd9U0xhrkARHcx07NhYKkM",
    "name": "Мегазид",
    "category": "Мегазид",
    "formatted_address": "4,7(25)",
    "phone_number": "+359878297398",
    "source_url": "https://www.google.com/maps/place/%D0%9C%D0%B5%D0%B3%D0%B0%D0%B7%D0%B8%D0%B4/data=!4m7!3m6!1s0x40ae614c537d7769:0x432a58d8ec74cc1d!8m2!3d43.8281084!4d25.9489558!16s%2Fg%2F11rff6n2_k!19sChIJaXd9U0xhrkARHcx07NhYKkM?authuser=0&hl=tr&rclk=1",
    "website_url": "",
    "rating_text": "4,7",
    "stars": null,
    "number_of_reviews": null,
    "price_level": "",
    "open_hours": "",
    "extraction_timestamp": "2025-06-07T13:50:32.976Z",
    "source_name": "google",
    "source_query": "Irrigation Equipment",
    "source_country": "BG",
    "country": "Bulgaria",
    "state": "Ruse Province",
    "city": "Obshtina Byala"
  },
  {
    "source_id": "ChIJD92VEqFhrkAR_4BbPhSq43U",
    "name": "Левски ЕООД",
    "category": "Левски ЕООД",
    "formatted_address": "4,6(35)",
    "phone_number": "+359878654392",
    "source_url": "https://www.google.com/maps/place/%D0%9B%D0%B5%D0%B2%D1%81%D0%BA%D0%B8+%D0%95%D0%9E%D0%9E%D0%94/data=!4m7!3m6!1s0x40ae61a11295dd0f:0x75e3aa143e5b80ff!8m2!3d43.8300704!4d25.9747011!16s%2Fg%2F11lkdwg8qj!19sChIJD92VEqFhrkAR_4BbPhSq43U?authuser=0&hl=tr&rclk=1",
    "website_url": "https://levski-eood.com/",
    "rating_text": "4,6",
    "stars": null,
    "number_of_reviews": null,
    "price_level": "",
    "open_hours": "",
    "extraction_timestamp": "2025-06-07T13:50:32.977Z",
    "source_name": "google",
    "source_query": "Irrigation Equipment",
    "source_country": "BG",
    "country": "Bulgaria",
    "state": "Ruse Province",
    "city": "Obshtina Byala"
  },
  {
    "source_id": "ChIJN8oHJ7FgrkARARGuEsDS1KI",
    "name": "Praktiker Ruse",
    "category": "Praktiker Ruse",
    "formatted_address": "4,4(1.382)",
    "phone_number": "+35982887120",
    "source_url": "https://www.google.com/maps/place/Praktiker+Ruse/data=!4m7!3m6!1s0x40ae60b12707ca37:0xa2d4d2c012ae1101!8m2!3d43.8468434!4d25.967147!16s%2Fg%2F1z44rc7q3!19sChIJN8oHJ7FgrkARARGuEsDS1KI?authuser=0&hl=tr&rclk=1",
    "website_url": "http://www.praktiker.bg/",
    "rating_text": "4,4",
    "stars": null,
    "number_of_reviews": null,
    "price_level": "",
    "open_hours": "",
    "extraction_timestamp": "2025-06-07T13:50:32.979Z",
    "source_name": "google",
    "source_query": "Irrigation Equipment",
    "source_country": "BG",
    "country": "Bulgaria",
    "state": "Ruse Province",
    "city": "Obshtina Byala"
  },
  {
    "source_id": "ChIJMd-r3-LDrkARxIGtXpDM6ik",
    "name": "The Market",
    "category": "The Market",
    "formatted_address": "4,0(410)",
    "phone_number": "",
    "source_url": "https://www.google.com/maps/place/The+Market/data=!4m7!3m6!1s0x40aec3e2dfabdf31:0x29eacc905ead81c4!8m2!3d43.4579889!4d25.7390106!16s%2Fg%2F12qf4wb_7!19sChIJMd-r3-LDrkARxIGtXpDM6ik?authuser=0&hl=tr&rclk=1",
    "website_url": "",
    "rating_text": "4,0",
    "stars": null,
    "number_of_reviews": null,
    "price_level": "",
    "open_hours": "",
    "extraction_timestamp": "2025-06-07T13:50:32.980Z",
    "source_name": "google",
    "source_query": "Irrigation Equipment",
    "source_country": "BG",
    "country": "Bulgaria",
    "state": "Ruse Province",
    "city": "Obshtina Byala"
  },
  {
    "source_id": "ChIJl9iX1blgrkAR1f5qhknIeFY",
    "name": "Mr.Bricolage Ruse",
    "category": "Mr.Bricolage Ruse",
    "formatted_address": "4,3(2.585)",
    "phone_number": "+359882292869",
    "source_url": "https://www.google.com/maps/place/Mr.Bricolage+Ruse/data=!4m7!3m6!1s0x40ae60b9d597d897:0x5678c849866afed5!8m2!3d43.8458032!4d25.9623594!16s%2Fg%2F1tsr1pr5!19sChIJl9iX1blgrkAR1f5qhknIeFY?authuser=0&hl=tr&rclk=1",
    "website_url": "https://mr-bricolage.bg/",
    "rating_text": "4,3",
    "stars": null,
    "number_of_reviews": null,
    "price_level": "",
    "open_hours": "",
    "extraction_timestamp": "2025-06-07T13:50:32.982Z",
    "source_name": "google",
    "source_query": "Irrigation Equipment",
    "source_country": "BG",
    "country": "Bulgaria",
    "state": "Ruse Province",
    "city": "Obshtina Byala"
  },
  {
    "source_id": "ChIJZ-SNrrxgrkARB4chKi2R6Ls",
    "name": "ARTISTIKA",
    "category": "ARTISTIKA",
    "formatted_address": "4,5(205)",
    "phone_number": "+359887957894",
    "source_url": "https://www.google.com/maps/place/ARTISTIKA/data=!4m7!3m6!1s0x40ae60bcae8de467:0xbbe8912d2a218707!8m2!3d43.8383016!4d25.9787083!16s%2Fg%2F11c6y_9wb5!19sChIJZ-SNrrxgrkARB4chKi2R6Ls?authuser=0&hl=tr&rclk=1",
    "website_url": "https://artistika.bg/",
    "rating_text": "4,5",
    "stars": null,
    "number_of_reviews": null,
    "price_level": "",
    "open_hours": "",
    "extraction_timestamp": "2025-06-07T13:50:32.983Z",
    "source_name": "google",
    "source_query": "Irrigation Equipment",
    "source_country": "BG",
    "country": "Bulgaria",
    "state": "Ruse Province",
    "city": "Obshtina Byala"
  },
  {
    "source_id": "ChIJgQNa8ZhgrkARhQgSz4HK6Xs",
    "name": "Магазин \"Жираф\"",
    "category": "Магазин \"Жираф\"",
    "formatted_address": "4,2(629)",
    "phone_number": "+35982860943",
    "source_url": "https://www.google.com/maps/place/%D0%9C%D0%B0%D0%B3%D0%B0%D0%B7%D0%B8%D0%BD+%22%D0%96%D0%B8%D1%80%D0%B0%D1%84%22/data=!4m7!3m6!1s0x40ae6098f15a0381:0x7be9ca81cf120885!8m2!3d43.8349058!4d25.9678761!16s%2Fg%2F1v82_ltz!19sChIJgQNa8ZhgrkARhQgSz4HK6Xs?authuser=0&hl=tr&rclk=1",
    "website_url": "https://9151-bg.all.biz/",
    "rating_text": "4,2",
    "stars": null,
    "number_of_reviews": null,
    "price_level": "",
    "open_hours": "",
    "extraction_timestamp": "2025-06-07T13:50:32.984Z",
    "source_name": "google",
    "source_query": "Irrigation Equipment",
    "source_country": "BG",
    "country": "Bulgaria",
    "state": "Ruse Province",
    "city": "Obshtina Byala"
  },
  {
    "source_id": "ChIJKbEXaQDDrkARZ-obnuSRk30",
    "name": "РИМЕС ВЕТ",
    "category": "РИМЕС ВЕТ",
    "formatted_address": "",
    "phone_number": "+359888002390",
    "source_url": "https://www.google.com/maps/place/%D0%A0%D0%98%D0%9C%D0%95%D0%A1+%D0%92%D0%95%D0%A2/data=!4m7!3m6!1s0x40aec3006917b129:0x7d9391e49e1bea67!8m2!3d43.4533421!4d25.7391241!16s%2Fg%2F11x7fb9qy8!19sChIJKbEXaQDDrkARZ-obnuSRk30?authuser=0&hl=tr&rclk=1",
    "website_url": "",
    "rating_text": "",
    "stars": null,
    "number_of_reviews": null,
    "price_level": "",
    "open_hours": "",
    "extraction_timestamp": "2025-06-07T13:50:32.984Z",
    "source_name": "google",
    "source_query": "Irrigation Equipment",
    "source_country": "BG",
    "country": "Bulgaria",
    "state": "Ruse Province",
    "city": "Obshtina Byala"
  },
  {
    "source_id": "ChIJNcPZv5tgrkAR-4bsRhDlZIg",
    "name": "Шоне - ООД",
    "category": "Шоне - ООД",
    "formatted_address": "4,2(126)",
    "phone_number": "+35982860893",
    "source_url": "https://www.google.com/maps/place/%D0%A8%D0%BE%D0%BD%D0%B5+-+%D0%9E%D0%9E%D0%94/data=!4m7!3m6!1s0x40ae609bbfd9c335:0x8864e51046ec86fb!8m2!3d43.8305879!4d25.9657133!16s%2Fg%2F11cn60zb3r!19sChIJNcPZv5tgrkAR-4bsRhDlZIg?authuser=0&hl=tr&rclk=1",
    "website_url": "",
    "rating_text": "4,2",
    "stars": null,
    "number_of_reviews": null,
    "price_level": "",
    "open_hours": "",
    "extraction_timestamp": "2025-06-07T13:50:32.985Z",
    "source_name": "google",
    "source_query": "Irrigation Equipment",
    "source_country": "BG",
    "country": "Bulgaria",
    "state": "Ruse Province",
    "city": "Obshtina Byala"
  }
]
