[
  {
    "source_id": "ChIJly0pKrdgrkARoJZC1lgKWoY",
    "name": "ПОЛИВНИ СИСТЕМИ ЕООД",
    "category": "ПОЛИВНИ СИСТЕМИ ЕООД",
    "formatted_address": "4,7(11)",
    "phone_number": "+359887424020",
    "source_url": "https://www.google.com/maps/place/%D0%9F%D0%9E%D0%9B%D0%98%D0%92%D0%9D%D0%98+%D0%A1%D0%98%D0%A1%D0%A2%D0%95%D0%9C%D0%98+%D0%95%D0%9E%D0%9E%D0%94/data=!4m7!3m6!1s0x40ae60b72a292d97:0x865a0a58d64296a0!8m2!3d43.8355713!4d25.9656554!16s%2Fg%2F1hc2rnssk!19sChIJly0pKrdgrkARoJZC1lgKWoY?authuser=0&hl=tr&rclk=1",
    "website_url": "",
    "rating_text": "4,7",
    "stars": null,
    "number_of_reviews": null,
    "price_level": "",
    "open_hours": "",
    "extraction_timestamp": "2025-06-07T13:50:40.099Z",
    "source_name": "google",
    "source_query": "Irrigation Equipment",
    "source_country": "BG",
    "country": "Bulgaria",
    "state": "Ruse Province",
    "city": "Obshtina Tsenovo"
  },
  {
    "source_id": "ChIJE4rpMsTArkARsRRndlsCHWQ",
    "name": "TOPLIVO - Warehouse White",
    "category": "TOPLIVO - Warehouse White",
    "formatted_address": "4,6(7)",
    "phone_number": "+35981771775",
    "source_url": "https://www.google.com/maps/place/TOPLIVO+-+Warehouse+White/data=!4m7!3m6!1s0x40aec0c432e98a13:0x641d025b766714b1!8m2!3d43.4757119!4d25.6706313!16s%2Fg%2F11g8y9mvn4!19sChIJE4rpMsTArkARsRRndlsCHWQ?authuser=0&hl=tr&rclk=1",
    "website_url": "http://toplivo.bg/",
    "rating_text": "4,6",
    "stars": null,
    "number_of_reviews": null,
    "price_level": "",
    "open_hours": "",
    "extraction_timestamp": "2025-06-07T13:50:40.121Z",
    "source_name": "google",
    "source_query": "Irrigation Equipment",
    "source_country": "BG",
    "country": "Bulgaria",
    "state": "Ruse Province",
    "city": "Obshtina Tsenovo"
  },
  {
    "source_id": "ChIJQciuB6TurkARmK_LAb9KylI",
    "name": "МАГАЗИН ПЛАМ",
    "category": "МАГАЗИН ПЛАМ",
    "formatted_address": "4,7(39)",
    "phone_number": "+359889444831",
    "source_url": "https://www.google.com/maps/place/%D0%9C%D0%90%D0%93%D0%90%D0%97%D0%98%D0%9D+%D0%9F%D0%9B%D0%90%D0%9C/data=!4m7!3m6!1s0x40aeeea407aec841:0x52ca4abf01cbaf98!8m2!3d43.5847688!4d25.866599!16s%2Fg%2F11g6nhcfk3!19sChIJQciuB6TurkARmK_LAb9KylI?authuser=0&hl=tr&rclk=1",
    "website_url": "http://plameood.com/",
    "rating_text": "4,7",
    "stars": null,
    "number_of_reviews": null,
    "price_level": "",
    "open_hours": "",
    "extraction_timestamp": "2025-06-07T13:50:40.122Z",
    "source_name": "google",
    "source_query": "Irrigation Equipment",
    "source_country": "BG",
    "country": "Bulgaria",
    "state": "Ruse Province",
    "city": "Obshtina Tsenovo"
  },
  {
    "source_id": "ChIJE1MN-1xhrkARKqEyHI07MCo",
    "name": "OGRADKI BG",
    "category": "OGRADKI BG",
    "formatted_address": "4,3(6)",
    "phone_number": "+359895675832",
    "source_url": "https://www.google.com/maps/place/OGRADKI+BG/data=!4m7!3m6!1s0x40ae615cfb0d5313:0x2a303b8d1c32a12a!8m2!3d43.8539914!4d25.9913739!16s%2Fg%2F11jgf0rqh4!19sChIJE1MN-1xhrkARKqEyHI07MCo?authuser=0&hl=tr&rclk=1",
    "website_url": "http://www.ogradki.bg/",
    "rating_text": "4,3",
    "stars": null,
    "number_of_reviews": null,
    "price_level": "",
    "open_hours": "",
    "extraction_timestamp": "2025-06-07T13:50:40.123Z",
    "source_name": "google",
    "source_query": "Irrigation Equipment",
    "source_country": "BG",
    "country": "Bulgaria",
    "state": "Ruse Province",
    "city": "Obshtina Tsenovo"
  },
  {
    "source_id": "ChIJsYU6OH0Or0ARC3eRUz7FIsc",
    "name": "Напоителни Системи",
    "category": "Напоителни Системи",
    "formatted_address": "",
    "phone_number": "+359895843284",
    "source_url": "https://www.google.com/maps/place/%D0%9D%D0%B0%D0%BF%D0%BE%D0%B8%D1%82%D0%B5%D0%BB%D0%BD%D0%B8+%D0%A1%D0%B8%D1%81%D1%82%D0%B5%D0%BC%D0%B8/data=!4m7!3m6!1s0x40af0e7d383a85b1:0xc722c53e5391770b!8m2!3d43.5248284!4d26.5185956!16s%2Fg%2F11hyt13jl9!19sChIJsYU6OH0Or0ARC3eRUz7FIsc?authuser=0&hl=tr&rclk=1",
    "website_url": "http://www.napoitelnisystemi.eu/kontakti",
    "rating_text": "",
    "stars": null,
    "number_of_reviews": null,
    "price_level": "",
    "open_hours": "",
    "extraction_timestamp": "2025-06-07T13:50:40.124Z",
    "source_name": "google",
    "source_query": "Irrigation Equipment",
    "source_country": "BG",
    "country": "Bulgaria",
    "state": "Ruse Province",
    "city": "Obshtina Tsenovo"
  },
  {
    "source_id": "ChIJOTNgGgbArkARAWf2kzoUeJs",
    "name": "Yanita Shop",
    "category": "Yanita Shop",
    "formatted_address": "4,3(39)",
    "phone_number": "",
    "source_url": "https://www.google.com/maps/place/Yanita+Shop/data=!4m7!3m6!1s0x40aec0061a603339:0x9b78143a93f66701!8m2!3d43.5278101!4d25.6876608!16s%2Fg%2F11c5s7twbm!19sChIJOTNgGgbArkARAWf2kzoUeJs?authuser=0&hl=tr&rclk=1",
    "website_url": "",
    "rating_text": "4,3",
    "stars": null,
    "number_of_reviews": null,
    "price_level": "",
    "open_hours": "",
    "extraction_timestamp": "2025-06-07T13:50:40.124Z",
    "source_name": "google",
    "source_query": "Irrigation Equipment",
    "source_country": "BG",
    "country": "Bulgaria",
    "state": "Ruse Province",
    "city": "Obshtina Tsenovo"
  },
  {
    "source_id": "ChIJtcLQl51grkAR9a5Y_RyZsMI",
    "name": "Bul Drip",
    "category": "Bul Drip",
    "formatted_address": "",
    "phone_number": "+359887424020",
    "source_url": "https://www.google.com/maps/place/Bul+Drip/data=!4m7!3m6!1s0x40ae609d97d0c2b5:0xc2b0991cfd58aef5!8m2!3d43.8287244!4d25.9716352!16s%2Fg%2F1vljdv97!19sChIJtcLQl51grkAR9a5Y_RyZsMI?authuser=0&hl=tr&rclk=1",
    "website_url": "",
    "rating_text": "",
    "stars": null,
    "number_of_reviews": null,
    "price_level": "",
    "open_hours": "",
    "extraction_timestamp": "2025-06-07T13:50:40.125Z",
    "source_name": "google",
    "source_query": "Irrigation Equipment",
    "source_country": "BG",
    "country": "Bulgaria",
    "state": "Ruse Province",
    "city": "Obshtina Tsenovo"
  }
]
