[
  {
    "source_id": "ChIJly0pKrdgrkARoJZC1lgKWoY",
    "name": "ПОЛИВНИ СИСТЕМИ ЕООД",
    "category": "ПОЛИВНИ СИСТЕМИ ЕООД",
    "formatted_address": "4,7(11)",
    "phone_number": "+359887424020",
    "source_url": "https://www.google.com/maps/place/%D0%9F%D0%9E%D0%9B%D0%98%D0%92%D0%9D%D0%98+%D0%A1%D0%98%D0%A1%D0%A2%D0%95%D0%9C%D0%98+%D0%95%D0%9E%D0%9E%D0%94/data=!4m7!3m6!1s0x40ae60b72a292d97:0x865a0a58d64296a0!8m2!3d43.8355713!4d25.9656554!16s%2Fg%2F1hc2rnssk!19sChIJly0pKrdgrkARoJZC1lgKWoY?authuser=0&hl=tr&rclk=1",
    "website_url": "",
    "rating_text": "4,7",
    "stars": null,
    "number_of_reviews": null,
    "price_level": "",
    "open_hours": "",
    "extraction_timestamp": "2025-06-07T13:50:40.780Z",
    "source_name": "google",
    "source_query": "Irrigation Equipment",
    "source_country": "BG",
    "country": "Bulgaria",
    "state": "Ruse Province",
    "city": "Obshtina Vetovo"
  },
  {
    "source_id": "ChIJGax_BlBdrkAR7fx-k2gj4lQ",
    "name": "Construction Tools EOOD, Husqvarna",
    "category": "Construction Tools EOOD, Husqvarna",
    "formatted_address": "Construction Tools EOOD, Husqvarna",
    "phone_number": "+35982810555",
    "source_url": "https://www.google.com/maps/place/Construction+Tools+EOOD,+Husqvarna/data=!4m7!3m6!1s0x40ae5d50067fac19:0x54e22368937efced!8m2!3d43.9015648!4d26.05922!16s%2Fg%2F11cs2c0p0j!19sChIJGax_BlBdrkAR7fx-k2gj4lQ?authuser=0&hl=tr&rclk=1",
    "website_url": "http://www.husqvarnacp.com/int/",
    "rating_text": "4,5",
    "stars": null,
    "number_of_reviews": null,
    "price_level": "",
    "open_hours": "",
    "extraction_timestamp": "2025-06-07T13:50:40.781Z",
    "source_name": "google",
    "source_query": "Irrigation Equipment",
    "source_country": "BG",
    "country": "Bulgaria",
    "state": "Ruse Province",
    "city": "Obshtina Vetovo"
  },
  {
    "source_id": "ChIJUxxJm_sAr0AR4bdwiSDaRyo",
    "name": "ЕТ''Козирог94 Руска Цанева",
    "category": "ЕТ''Козирог94 Руска Цанева",
    "formatted_address": "5,0(4)",
    "phone_number": "+359887047153",
    "source_url": "https://www.google.com/maps/place/%D0%95%D0%A2%27%27%D0%9A%D0%BE%D0%B7%D0%B8%D1%80%D0%BE%D0%B394+%D0%A0%D1%83%D1%81%D0%BA%D0%B0+%D0%A6%D0%B0%D0%BD%D0%B5%D0%B2%D0%B0/data=!4m7!3m6!1s0x40af00fb9b491c53:0x2a47da208970b7e1!8m2!3d43.6483244!4d26.3598165!16s%2Fg%2F11dxnysmhv!19sChIJUxxJm_sAr0AR4bdwiSDaRyo?authuser=0&hl=tr&rclk=1",
    "website_url": "",
    "rating_text": "5,0",
    "stars": null,
    "number_of_reviews": null,
    "price_level": "",
    "open_hours": "",
    "extraction_timestamp": "2025-06-07T13:50:40.782Z",
    "source_name": "google",
    "source_query": "Irrigation Equipment",
    "source_country": "BG",
    "country": "Bulgaria",
    "state": "Ruse Province",
    "city": "Obshtina Vetovo"
  },
  {
    "source_id": "ChIJFRplc3JbrkARDQYwbc6rvsQ",
    "name": "НЕДЕЛЧЕВ ЕООД",
    "category": "НЕДЕЛЧЕВ ЕООД",
    "formatted_address": "4,9(20)",
    "phone_number": "+359897881407",
    "source_url": "https://www.google.com/maps/place/%D0%9D%D0%95%D0%94%D0%95%D0%9B%D0%A7%D0%95%D0%92+%D0%95%D0%9E%D0%9E%D0%94/data=!4m7!3m6!1s0x40ae5b7273651a15:0xc4beabce6d30060d!8m2!3d43.8029167!4d26.1875278!16s%2Fg%2F11rwwtvtny!19sChIJFRplc3JbrkARDQYwbc6rvsQ?authuser=0&hl=tr&rclk=1",
    "website_url": "",
    "rating_text": "4,9",
    "stars": null,
    "number_of_reviews": null,
    "price_level": "",
    "open_hours": "",
    "extraction_timestamp": "2025-06-07T13:50:40.784Z",
    "source_name": "google",
    "source_query": "Irrigation Equipment",
    "source_country": "BG",
    "country": "Bulgaria",
    "state": "Ruse Province",
    "city": "Obshtina Vetovo"
  },
  {
    "source_id": "ChIJNRpA9JNVrkARpOTrOqc3xIg",
    "name": "Самико 87 ЕООД",
    "category": "Самико 87 ЕООД",
    "formatted_address": "5,0(5)",
    "phone_number": "",
    "source_url": "https://www.google.com/maps/place/%D0%A1%D0%B0%D0%BC%D0%B8%D0%BA%D0%BE+87+%D0%95%D0%9E%D0%9E%D0%94/data=!4m7!3m6!1s0x40ae5593f4401a35:0x88c437a73aebe4a4!8m2!3d43.706496!4d26.2663566!16s%2Fg%2F11rrqdgt_s!19sChIJNRpA9JNVrkARpOTrOqc3xIg?authuser=0&hl=tr&rclk=1",
    "website_url": "",
    "rating_text": "5,0",
    "stars": null,
    "number_of_reviews": null,
    "price_level": "",
    "open_hours": "",
    "extraction_timestamp": "2025-06-07T13:50:40.784Z",
    "source_name": "google",
    "source_query": "Irrigation Equipment",
    "source_country": "BG",
    "country": "Bulgaria",
    "state": "Ruse Province",
    "city": "Obshtina Vetovo"
  },
  {
    "source_id": "ChIJDyHD7zD3rkARWgAEOw8VtoA",
    "name": "Leko",
    "category": "Leko",
    "formatted_address": "4,4(5)",
    "phone_number": "",
    "source_url": "https://www.google.com/maps/place/Leko/data=!4m7!3m6!1s0x40aef730efc3210f:0x80b6150f3b04005a!8m2!3d43.7135039!4d26.0401507!16s%2Fg%2F11rmq2kg2x!19sChIJDyHD7zD3rkARWgAEOw8VtoA?authuser=0&hl=tr&rclk=1",
    "website_url": "",
    "rating_text": "4,4",
    "stars": null,
    "number_of_reviews": null,
    "price_level": "",
    "open_hours": "",
    "extraction_timestamp": "2025-06-07T13:50:40.785Z",
    "source_name": "google",
    "source_query": "Irrigation Equipment",
    "source_country": "BG",
    "country": "Bulgaria",
    "state": "Ruse Province",
    "city": "Obshtina Vetovo"
  },
  {
    "source_id": "ChIJsYU6OH0Or0ARC3eRUz7FIsc",
    "name": "Напоителни Системи",
    "category": "Напоителни Системи",
    "formatted_address": "",
    "phone_number": "+359895843284",
    "source_url": "https://www.google.com/maps/place/%D0%9D%D0%B0%D0%BF%D0%BE%D0%B8%D1%82%D0%B5%D0%BB%D0%BD%D0%B8+%D0%A1%D0%B8%D1%81%D1%82%D0%B5%D0%BC%D0%B8/data=!4m7!3m6!1s0x40af0e7d383a85b1:0xc722c53e5391770b!8m2!3d43.5248284!4d26.5185956!16s%2Fg%2F11hyt13jl9!19sChIJsYU6OH0Or0ARC3eRUz7FIsc?authuser=0&hl=tr&rclk=1",
    "website_url": "http://www.napoitelnisystemi.eu/kontakti",
    "rating_text": "",
    "stars": null,
    "number_of_reviews": null,
    "price_level": "",
    "open_hours": "",
    "extraction_timestamp": "2025-06-07T13:50:40.786Z",
    "source_name": "google",
    "source_query": "Irrigation Equipment",
    "source_country": "BG",
    "country": "Bulgaria",
    "state": "Ruse Province",
    "city": "Obshtina Vetovo"
  },
  {
    "source_id": "ChIJJw33g4n9rkAREleIInjv4j4",
    "name": "Construction shop",
    "category": "Construction shop",
    "formatted_address": "4,1(49)",
    "phone_number": "",
    "source_url": "https://www.google.com/maps/place/Construction+shop/data=!4m7!3m6!1s0x40aefd8983f70d27:0x3ee2ef7822885712!8m2!3d43.6083468!4d26.2441061!16s%2Fg%2F11d_1mnyh6!19sChIJJw33g4n9rkAREleIInjv4j4?authuser=0&hl=tr&rclk=1",
    "website_url": "",
    "rating_text": "4,1",
    "stars": null,
    "number_of_reviews": null,
    "price_level": "",
    "open_hours": "",
    "extraction_timestamp": "2025-06-07T13:50:40.787Z",
    "source_name": "google",
    "source_query": "Irrigation Equipment",
    "source_country": "BG",
    "country": "Bulgaria",
    "state": "Ruse Province",
    "city": "Obshtina Vetovo"
  },
  {
    "source_id": "ChIJPWIYKAABr0ARo45qNOiUxuE",
    "name": "Джани-91 ЕООД",
    "category": "Джани-91 ЕООД",
    "formatted_address": "5,0(2)",
    "phone_number": "+359876254069",
    "source_url": "https://www.google.com/maps/place/%D0%94%D0%B6%D0%B0%D0%BD%D0%B8-91+%D0%95%D0%9E%D0%9E%D0%94/data=!4m7!3m6!1s0x40af01002818623d:0xe1c694e8346a8ea3!8m2!3d43.6506388!4d26.3652235!16s%2Fg%2F11wbc_h47s!19sChIJPWIYKAABr0ARo45qNOiUxuE?authuser=0&hl=tr&rclk=1",
    "website_url": "",
    "rating_text": "5,0",
    "stars": null,
    "number_of_reviews": null,
    "price_level": "",
    "open_hours": "",
    "extraction_timestamp": "2025-06-07T13:50:40.788Z",
    "source_name": "google",
    "source_query": "Irrigation Equipment",
    "source_country": "BG",
    "country": "Bulgaria",
    "state": "Ruse Province",
    "city": "Obshtina Vetovo"
  },
  {
    "source_id": "ChIJGR3_t0gBr0ARbzloTvql8Ug",
    "name": "Азат маркет",
    "category": "Азат маркет",
    "formatted_address": "4,0(1)",
    "phone_number": "+359895625405",
    "source_url": "https://www.google.com/maps/place/%D0%90%D0%B7%D0%B0%D1%82+%D0%BC%D0%B0%D1%80%D0%BA%D0%B5%D1%82/data=!4m7!3m6!1s0x40af0148b7ff1d19:0x48f1a5fa4e68396f!8m2!3d43.6468429!4d26.3698418!16s%2Fg%2F11v65cx564!19sChIJGR3_t0gBr0ARbzloTvql8Ug?authuser=0&hl=tr&rclk=1",
    "website_url": "",
    "rating_text": "4,0",
    "stars": null,
    "number_of_reviews": null,
    "price_level": "",
    "open_hours": "",
    "extraction_timestamp": "2025-06-07T13:50:40.789Z",
    "source_name": "google",
    "source_query": "Irrigation Equipment",
    "source_country": "BG",
    "country": "Bulgaria",
    "state": "Ruse Province",
    "city": "Obshtina Vetovo"
  },
  {
    "source_id": "ChIJU_pq0C1hrkAR_ogLTUB4k5U",
    "name": "Строителна борса \"Братоев\"",
    "category": "Строителна борса \"Братоев\"",
    "formatted_address": "4,8(34)",
    "phone_number": "+359888761754",
    "source_url": "https://www.google.com/maps/place/%D0%A1%D1%82%D1%80%D0%BE%D0%B8%D1%82%D0%B5%D0%BB%D0%BD%D0%B0+%D0%B1%D0%BE%D1%80%D1%81%D0%B0+%22%D0%91%D1%80%D0%B0%D1%82%D0%BE%D0%B5%D0%B2%22/data=!4m7!3m6!1s0x40ae612dd06afa53:0x959378404d0b88fe!8m2!3d43.8200563!4d25.9723997!16s%2Fg%2F11fn6y9qbc!19sChIJU_pq0C1hrkAR_ogLTUB4k5U?authuser=0&hl=tr&rclk=1",
    "website_url": "",
    "rating_text": "4,8",
    "stars": null,
    "number_of_reviews": null,
    "price_level": "",
    "open_hours": "",
    "extraction_timestamp": "2025-06-07T13:50:40.790Z",
    "source_name": "google",
    "source_query": "Irrigation Equipment",
    "source_country": "BG",
    "country": "Bulgaria",
    "state": "Ruse Province",
    "city": "Obshtina Vetovo"
  },
  {
    "source_id": "ChIJtcLQl51grkAR9a5Y_RyZsMI",
    "name": "Bul Drip",
    "category": "Bul Drip",
    "formatted_address": "",
    "phone_number": "+359887424020",
    "source_url": "https://www.google.com/maps/place/Bul+Drip/data=!4m7!3m6!1s0x40ae609d97d0c2b5:0xc2b0991cfd58aef5!8m2!3d43.8287244!4d25.9716352!16s%2Fg%2F1vljdv97!19sChIJtcLQl51grkAR9a5Y_RyZsMI?authuser=0&hl=tr&rclk=1",
    "website_url": "",
    "rating_text": "",
    "stars": null,
    "number_of_reviews": null,
    "price_level": "",
    "open_hours": "",
    "extraction_timestamp": "2025-06-07T13:50:40.791Z",
    "source_name": "google",
    "source_query": "Irrigation Equipment",
    "source_country": "BG",
    "country": "Bulgaria",
    "state": "Ruse Province",
    "city": "Obshtina Vetovo"
  }
]
