[
  {
    "source_id": "ChIJly0pKrdgrkARoJZC1lgKWoY",
    "name": "ПОЛИВНИ СИСТЕМИ ЕООД",
    "category": "ПОЛИВНИ СИСТЕМИ ЕООД",
    "formatted_address": "4,7(11)",
    "phone_number": "+359887424020",
    "source_url": "https://www.google.com/maps/place/%D0%9F%D0%9E%D0%9B%D0%98%D0%92%D0%9D%D0%98+%D0%A1%D0%98%D0%A1%D0%A2%D0%95%D0%9C%D0%98+%D0%95%D0%9E%D0%9E%D0%94/data=!4m7!3m6!1s0x40ae60b72a292d97:0x865a0a58d64296a0!8m2!3d43.8355713!4d25.9656554!16s%2Fg%2F1hc2rnssk!19sChIJly0pKrdgrkARoJZC1lgKWoY?authuser=0&hl=tr&rclk=1",
    "website_url": "",
    "rating_text": "4,7",
    "stars": null,
    "number_of_reviews": null,
    "price_level": "",
    "open_hours": "",
    "extraction_timestamp": "2025-06-07T13:50:31.129Z",
    "source_name": "google",
    "source_query": "Irrigation Equipment",
    "source_country": "BG",
    "country": "Bulgaria",
    "state": "Ruse Province",
    "city": "Obshtina Dve Mogili"
  },
  {
    "source_id": "ChIJQciuB6TurkARmK_LAb9KylI",
    "name": "МАГАЗИН ПЛАМ",
    "category": "МАГАЗИН ПЛАМ",
    "formatted_address": "4,7(39)",
    "phone_number": "+359889444831",
    "source_url": "https://www.google.com/maps/place/%D0%9C%D0%90%D0%93%D0%90%D0%97%D0%98%D0%9D+%D0%9F%D0%9B%D0%90%D0%9C/data=!4m7!3m6!1s0x40aeeea407aec841:0x52ca4abf01cbaf98!8m2!3d43.5847688!4d25.866599!16s%2Fg%2F11g6nhcfk3!19sChIJQciuB6TurkARmK_LAb9KylI?authuser=0&hl=tr&rclk=1",
    "website_url": "http://plameood.com/",
    "rating_text": "4,7",
    "stars": null,
    "number_of_reviews": null,
    "price_level": "",
    "open_hours": "",
    "extraction_timestamp": "2025-06-07T13:50:31.131Z",
    "source_name": "google",
    "source_query": "Irrigation Equipment",
    "source_country": "BG",
    "country": "Bulgaria",
    "state": "Ruse Province",
    "city": "Obshtina Dve Mogili"
  },
  {
    "source_id": "ChIJGax_BlBdrkAR7fx-k2gj4lQ",
    "name": "Construction Tools EOOD, Husqvarna",
    "category": "Construction Tools EOOD, Husqvarna",
    "formatted_address": "Construction Tools EOOD, Husqvarna",
    "phone_number": "+35982810555",
    "source_url": "https://www.google.com/maps/place/Construction+Tools+EOOD,+Husqvarna/data=!4m7!3m6!1s0x40ae5d50067fac19:0x54e22368937efced!8m2!3d43.9015648!4d26.05922!16s%2Fg%2F11cs2c0p0j!19sChIJGax_BlBdrkAR7fx-k2gj4lQ?authuser=0&hl=tr&rclk=1",
    "website_url": "http://www.husqvarnacp.com/int/",
    "rating_text": "4,5",
    "stars": null,
    "number_of_reviews": null,
    "price_level": "",
    "open_hours": "",
    "extraction_timestamp": "2025-06-07T13:50:31.134Z",
    "source_name": "google",
    "source_query": "Irrigation Equipment",
    "source_country": "BG",
    "country": "Bulgaria",
    "state": "Ruse Province",
    "city": "Obshtina Dve Mogili"
  },
  {
    "source_id": "ChIJHZPl3J7urkARs0TT1ZXw4KM",
    "name": "Kimt-D",
    "category": "Kimt-D",
    "formatted_address": "4,6(125)",
    "phone_number": "+359877421499",
    "source_url": "https://www.google.com/maps/place/Kimt-D/data=!4m7!3m6!1s0x40aeee9edce5931d:0xa3e0f095d5d344b3!8m2!3d43.5895019!4d25.8730233!16s%2Fg%2F1tn048zp!19sChIJHZPl3J7urkARs0TT1ZXw4KM?authuser=0&hl=tr&rclk=1",
    "website_url": "",
    "rating_text": "4,6",
    "stars": null,
    "number_of_reviews": null,
    "price_level": "",
    "open_hours": "",
    "extraction_timestamp": "2025-06-07T13:50:31.136Z",
    "source_name": "google",
    "source_query": "Irrigation Equipment",
    "source_country": "BG",
    "country": "Bulgaria",
    "state": "Ruse Province",
    "city": "Obshtina Dve Mogili"
  },
  {
    "source_id": "ChIJIcAMFnVzXCcReEm9ICsbXno",
    "name": "Агродиал ЕООД",
    "category": "Агродиал ЕООД",
    "formatted_address": "5,0(3)",
    "phone_number": "+359876889804",
    "source_url": "https://www.google.com/maps/place/%D0%90%D0%B3%D1%80%D0%BE%D0%B4%D0%B8%D0%B0%D0%BB+%D0%95%D0%9E%D0%9E%D0%94/data=!4m7!3m6!1s0x275c7375160cc021:0x7a5e1b2b20bd4978!8m2!3d42.725411!4d25.5431784!16s%2Fg%2F11l1f72d84!19sChIJIcAMFnVzXCcReEm9ICsbXno?authuser=0&hl=tr&rclk=1",
    "website_url": "https://www.agroall.bg/",
    "rating_text": "5,0",
    "stars": null,
    "number_of_reviews": null,
    "price_level": "",
    "open_hours": "",
    "extraction_timestamp": "2025-06-07T13:50:31.137Z",
    "source_name": "google",
    "source_query": "Irrigation Equipment",
    "source_country": "BG",
    "country": "Bulgaria",
    "state": "Ruse Province",
    "city": "Obshtina Dve Mogili"
  },
  {
    "source_id": "ChIJkdQRcI7prkARl7jPzzLYetY",
    "name": "Nerma",
    "category": "Nerma",
    "formatted_address": "4,9(19)",
    "phone_number": "",
    "source_url": "https://www.google.com/maps/place/Nerma/data=!4m7!3m6!1s0x40aee98e7011d491:0xd67ad832cfcfb897!8m2!3d43.5385847!4d25.8708299!16s%2Fg%2F11snpw7yc8!19sChIJkdQRcI7prkARl7jPzzLYetY?authuser=0&hl=tr&rclk=1",
    "website_url": "",
    "rating_text": "4,9",
    "stars": null,
    "number_of_reviews": null,
    "price_level": "",
    "open_hours": "",
    "extraction_timestamp": "2025-06-07T13:50:31.138Z",
    "source_name": "google",
    "source_query": "Irrigation Equipment",
    "source_country": "BG",
    "country": "Bulgaria",
    "state": "Ruse Province",
    "city": "Obshtina Dve Mogili"
  },
  {
    "source_id": "ChIJ5V4SUgDvrkARKnXKdrS5Bk4",
    "name": "ПЕТРОВ 23",
    "category": "ПЕТРОВ 23",
    "formatted_address": "5,0(1)",
    "phone_number": "+359893600708",
    "source_url": "https://www.google.com/maps/place/%D0%9F%D0%95%D0%A2%D0%A0%D0%9E%D0%92+23/data=!4m7!3m6!1s0x40aeef0052125ee5:0x4e06b9b476ca752a!8m2!3d43.5903472!4d25.8739557!16s%2Fg%2F11wv9rqyzw!19sChIJ5V4SUgDvrkARKnXKdrS5Bk4?authuser=0&hl=tr&rclk=1",
    "website_url": "",
    "rating_text": "5,0",
    "stars": null,
    "number_of_reviews": null,
    "price_level": "",
    "open_hours": "",
    "extraction_timestamp": "2025-06-07T13:50:31.140Z",
    "source_name": "google",
    "source_query": "Irrigation Equipment",
    "source_country": "BG",
    "country": "Bulgaria",
    "state": "Ruse Province",
    "city": "Obshtina Dve Mogili"
  },
  {
    "source_id": "ChIJE1MN-1xhrkARKqEyHI07MCo",
    "name": "OGRADKI BG",
    "category": "OGRADKI BG",
    "formatted_address": "4,3(6)",
    "phone_number": "+359895675832",
    "source_url": "https://www.google.com/maps/place/OGRADKI+BG/data=!4m7!3m6!1s0x40ae615cfb0d5313:0x2a303b8d1c32a12a!8m2!3d43.8539914!4d25.9913739!16s%2Fg%2F11jgf0rqh4!19sChIJE1MN-1xhrkARKqEyHI07MCo?authuser=0&hl=tr&rclk=1",
    "website_url": "http://www.ogradki.bg/",
    "rating_text": "4,3",
    "stars": null,
    "number_of_reviews": null,
    "price_level": "",
    "open_hours": "",
    "extraction_timestamp": "2025-06-07T13:50:31.142Z",
    "source_name": "google",
    "source_query": "Irrigation Equipment",
    "source_country": "BG",
    "country": "Bulgaria",
    "state": "Ruse Province",
    "city": "Obshtina Dve Mogili"
  },
  {
    "source_id": "ChIJlT5Dh6pgrkARKcrkYAe7aBo",
    "name": "AGR SYSTEMS LTD.",
    "category": "AGR SYSTEMS LTD.",
    "formatted_address": "Русе, кв. Здравец-изток 1, Ул. Прага 1, Бл. Камен Гараж 1-11Açık ⋅ Kapanış saati: 20:00 · +359 88 879 4380",
    "phone_number": "+359888794380",
    "source_url": "https://www.google.com/maps/place/AGR+SYSTEMS+LTD./data=!4m7!3m6!1s0x40ae60aa87433e95:0x1a68bb0760e4ca29!8m2!3d43.84752!4d25.99127!16s%2Fg%2F11dxhzh3vm!19sChIJlT5Dh6pgrkARKcrkYAe7aBo?authuser=0&hl=tr&rclk=1",
    "website_url": "",
    "rating_text": "",
    "stars": null,
    "number_of_reviews": null,
    "price_level": "",
    "open_hours": "",
    "extraction_timestamp": "2025-06-07T13:50:31.144Z",
    "source_name": "google",
    "source_query": "Irrigation Equipment",
    "source_country": "BG",
    "country": "Bulgaria",
    "state": "Ruse Province",
    "city": "Obshtina Dve Mogili"
  },
  {
    "source_id": "ChIJsYU6OH0Or0ARC3eRUz7FIsc",
    "name": "Напоителни Системи",
    "category": "Напоителни Системи",
    "formatted_address": "",
    "phone_number": "+359895843284",
    "source_url": "https://www.google.com/maps/place/%D0%9D%D0%B0%D0%BF%D0%BE%D0%B8%D1%82%D0%B5%D0%BB%D0%BD%D0%B8+%D0%A1%D0%B8%D1%81%D1%82%D0%B5%D0%BC%D0%B8/data=!4m7!3m6!1s0x40af0e7d383a85b1:0xc722c53e5391770b!8m2!3d43.5248284!4d26.5185956!16s%2Fg%2F11hyt13jl9!19sChIJsYU6OH0Or0ARC3eRUz7FIsc?authuser=0&hl=tr&rclk=1",
    "website_url": "http://www.napoitelnisystemi.eu/kontakti",
    "rating_text": "",
    "stars": null,
    "number_of_reviews": null,
    "price_level": "",
    "open_hours": "",
    "extraction_timestamp": "2025-06-07T13:50:31.145Z",
    "source_name": "google",
    "source_query": "Irrigation Equipment",
    "source_country": "BG",
    "country": "Bulgaria",
    "state": "Ruse Province",
    "city": "Obshtina Dve Mogili"
  },
  {
    "source_id": "ChIJtcLQl51grkAR9a5Y_RyZsMI",
    "name": "Bul Drip",
    "category": "Bul Drip",
    "formatted_address": "",
    "phone_number": "+359887424020",
    "source_url": "https://www.google.com/maps/place/Bul+Drip/data=!4m7!3m6!1s0x40ae609d97d0c2b5:0xc2b0991cfd58aef5!8m2!3d43.8287244!4d25.9716352!16s%2Fg%2F1vljdv97!19sChIJtcLQl51grkAR9a5Y_RyZsMI?authuser=0&hl=tr&rclk=1",
    "website_url": "",
    "rating_text": "",
    "stars": null,
    "number_of_reviews": null,
    "price_level": "",
    "open_hours": "",
    "extraction_timestamp": "2025-06-07T13:50:31.147Z",
    "source_name": "google",
    "source_query": "Irrigation Equipment",
    "source_country": "BG",
    "country": "Bulgaria",
    "state": "Ruse Province",
    "city": "Obshtina Dve Mogili"
  }
]
