[
  {
    "source_id": "ChIJly0pKrdgrkARoJZC1lgKWoY",
    "name": "ПОЛИВНИ СИСТЕМИ ЕООД",
    "category": "ПОЛИВНИ СИСТЕМИ ЕООД",
    "formatted_address": "4,7(11)",
    "phone_number": "+359887424020",
    "source_url": "https://www.google.com/maps/place/%D0%9F%D0%9E%D0%9B%D0%98%D0%92%D0%9D%D0%98+%D0%A1%D0%98%D0%A1%D0%A2%D0%95%D0%9C%D0%98+%D0%95%D0%9E%D0%9E%D0%94/data=!4m7!3m6!1s0x40ae60b72a292d97:0x865a0a58d64296a0!8m2!3d43.8355713!4d25.9656554!16s%2Fg%2F1hc2rnssk!19sChIJly0pKrdgrkARoJZC1lgKWoY?authuser=0&hl=tr&rclk=1",
    "website_url": "",
    "rating_text": "4,7",
    "stars": null,
    "number_of_reviews": null,
    "price_level": "",
    "open_hours": "",
    "extraction_timestamp": "2025-06-07T13:50:53.140Z",
    "source_name": "google",
    "source_query": "Irrigation Equipment",
    "source_country": "BG",
    "country": "Bulgaria",
    "state": "Ruse Province",
    "city": "Obshtina Ivanovo"
  },
  {
    "source_id": "ChIJlVUWisBgrkAR_9GDqyMSnjE",
    "name": "Irrigation Systems",
    "category": "Irrigation Systems",
    "formatted_address": "1,0(2)",
    "phone_number": "+35982825748",
    "source_url": "https://www.google.com/maps/place/Irrigation+Systems/data=!4m7!3m6!1s0x40ae60c08a165595:0x319e1223ab83d1ff!8m2!3d43.8419922!4d25.9542701!16s%2Fg%2F11h1lh6ml!19sChIJlVUWisBgrkAR_9GDqyMSnjE?authuser=0&hl=tr&rclk=1",
    "website_url": "",
    "rating_text": "1,0",
    "stars": null,
    "number_of_reviews": null,
    "price_level": "",
    "open_hours": "",
    "extraction_timestamp": "2025-06-07T13:50:53.140Z",
    "source_name": "google",
    "source_query": "Irrigation Equipment",
    "source_country": "BG",
    "country": "Bulgaria",
    "state": "Ruse Province",
    "city": "Obshtina Ivanovo"
  },
  {
    "source_id": "ChIJBYl0l8BgrkARoib0bs3raXE",
    "name": "Stanimir Petrikov",
    "category": "Stanimir Petrikov",
    "formatted_address": "4,1(124)",
    "phone_number": "+35982834605",
    "source_url": "https://www.google.com/maps/place/Stanimir+Petrikov/data=!4m7!3m6!1s0x40ae60c097748905:0x7169ebcd6ef426a2!8m2!3d43.8424721!4d25.9615535!16s%2Fg%2F1tcz6tx1!19sChIJBYl0l8BgrkARoib0bs3raXE?authuser=0&hl=tr&rclk=1",
    "website_url": "http://www.petrikov-bg.com/",
    "rating_text": "4,1",
    "stars": null,
    "number_of_reviews": null,
    "price_level": "",
    "open_hours": "",
    "extraction_timestamp": "2025-06-07T13:50:53.141Z",
    "source_name": "google",
    "source_query": "Irrigation Equipment",
    "source_country": "BG",
    "country": "Bulgaria",
    "state": "Ruse Province",
    "city": "Obshtina Ivanovo"
  },
  {
    "source_id": "ChIJf1TSnYOLrkARiWLSWnnsNWQ",
    "name": "РКС \"КООП трейд\" ЕООД - Русе",
    "category": "РКС \"КООП трейд\" ЕООД - Русе",
    "formatted_address": "4,5(51)",
    "phone_number": "",
    "source_url": "https://www.google.com/maps/place/%D0%A0%D0%9A%D0%A1+%22%D0%9A%D0%9E%D0%9E%D0%9F+%D1%82%D1%80%D0%B5%D0%B9%D0%B4%22+%D0%95%D0%9E%D0%9E%D0%94+-+%D0%A0%D1%83%D1%81%D0%B5/data=!4m7!3m6!1s0x40ae8b839dd2547f:0x6435ec795ad26289!8m2!3d43.7342848!4d25.8577504!16s%2Fg%2F11rptc0r3s!19sChIJf1TSnYOLrkARiWLSWnnsNWQ?authuser=0&hl=tr&rclk=1",
    "website_url": "",
    "rating_text": "4,5",
    "stars": null,
    "number_of_reviews": null,
    "price_level": "",
    "open_hours": "",
    "extraction_timestamp": "2025-06-07T13:50:53.141Z",
    "source_name": "google",
    "source_query": "Irrigation Equipment",
    "source_country": "BG",
    "country": "Bulgaria",
    "state": "Ruse Province",
    "city": "Obshtina Ivanovo"
  },
  {
    "source_id": "ChIJH9d6HZxgrkARhAG6t3LjBGE",
    "name": "PRAKTIS",
    "category": "PRAKTIS",
    "formatted_address": "4,1(695)",
    "phone_number": "+35982599196",
    "source_url": "https://www.google.com/maps/place/PRAKTIS/data=!4m7!3m6!1s0x40ae609c1d7ad71f:0x6104e372b7ba0184!8m2!3d43.8304774!4d25.9691806!16s%2Fg%2F11b7g0y85k!19sChIJH9d6HZxgrkARhAG6t3LjBGE?authuser=0&hl=tr&rclk=1",
    "website_url": "https://praktis.bg/",
    "rating_text": "4,1",
    "stars": null,
    "number_of_reviews": null,
    "price_level": "",
    "open_hours": "",
    "extraction_timestamp": "2025-06-07T13:50:53.141Z",
    "source_name": "google",
    "source_query": "Irrigation Equipment",
    "source_country": "BG",
    "country": "Bulgaria",
    "state": "Ruse Province",
    "city": "Obshtina Ivanovo"
  },
  {
    "source_id": "ChIJZXzUEedhrkARNfl5ABUrdjI",
    "name": "Строймаркет ВМ ЕООД",
    "category": "Строймаркет ВМ ЕООД",
    "formatted_address": "5,0(7)",
    "phone_number": "+359877212216",
    "source_url": "https://www.google.com/maps/place/%D0%A1%D1%82%D1%80%D0%BE%D0%B9%D0%BC%D0%B0%D1%80%D0%BA%D0%B5%D1%82+%D0%92%D0%9C+%D0%95%D0%9E%D0%9E%D0%94/data=!4m7!3m6!1s0x40ae61e711d47c65:0x32762b150079f935!8m2!3d43.8050083!4d25.9455084!16s%2Fg%2F11x6ntdz40!19sChIJZXzUEedhrkARNfl5ABUrdjI?authuser=0&hl=tr&rclk=1",
    "website_url": "",
    "rating_text": "5,0",
    "stars": null,
    "number_of_reviews": null,
    "price_level": "",
    "open_hours": "",
    "extraction_timestamp": "2025-06-07T13:50:53.141Z",
    "source_name": "google",
    "source_query": "Irrigation Equipment",
    "source_country": "BG",
    "country": "Bulgaria",
    "state": "Ruse Province",
    "city": "Obshtina Ivanovo"
  },
  {
    "source_id": "ChIJA2QFEs9grkARvmcbkpo6J34",
    "name": "Bulgar Ai Ti En",
    "category": "Bulgar Ai Ti En",
    "formatted_address": "5,0(1)",
    "phone_number": "+35982822093",
    "source_url": "https://www.google.com/maps/place/Bulgar+Ai+Ti+En/data=!4m7!3m6!1s0x40ae60cf12056403:0x7e273a9a921b67be!8m2!3d43.8508151!4d25.9538524!16s%2Fg%2F1vd3t8w_!19sChIJA2QFEs9grkARvmcbkpo6J34?authuser=0&hl=tr&rclk=1",
    "website_url": "",
    "rating_text": "5,0",
    "stars": null,
    "number_of_reviews": null,
    "price_level": "",
    "open_hours": "",
    "extraction_timestamp": "2025-06-07T13:50:53.142Z",
    "source_name": "google",
    "source_query": "Irrigation Equipment",
    "source_country": "BG",
    "country": "Bulgaria",
    "state": "Ruse Province",
    "city": "Obshtina Ivanovo"
  },
  {
    "source_id": "ChIJtcLQl51grkAR9a5Y_RyZsMI",
    "name": "Bul Drip",
    "category": "Bul Drip",
    "formatted_address": "",
    "phone_number": "+359887424020",
    "source_url": "https://www.google.com/maps/place/Bul+Drip/data=!4m7!3m6!1s0x40ae609d97d0c2b5:0xc2b0991cfd58aef5!8m2!3d43.8287244!4d25.9716352!16s%2Fg%2F1vljdv97!19sChIJtcLQl51grkAR9a5Y_RyZsMI?authuser=0&hl=tr&rclk=1",
    "website_url": "",
    "rating_text": "",
    "stars": null,
    "number_of_reviews": null,
    "price_level": "",
    "open_hours": "",
    "extraction_timestamp": "2025-06-07T13:50:53.142Z",
    "source_name": "google",
    "source_query": "Irrigation Equipment",
    "source_country": "BG",
    "country": "Bulgaria",
    "state": "Ruse Province",
    "city": "Obshtina Ivanovo"
  },
  {
    "source_id": "ChIJaR5wldhhrkAR2UEopH9G7YY",
    "name": "\"Водопроводни Решения Русе\"- професионални вик услуги,vik uslugi",
    "category": "\"Водопроводни Решения Русе\"- професионални вик услуги,vik uslugi",
    "formatted_address": "\"Водопроводни Решения Русе\"- професионални вик услуги,vik uslugi",
    "phone_number": "+359893967820",
    "source_url": "https://www.google.com/maps/place/%22%D0%92%D0%BE%D0%B4%D0%BE%D0%BF%D1%80%D0%BE%D0%B2%D0%BE%D0%B4%D0%BD%D0%B8+%D0%A0%D0%B5%D1%88%D0%B5%D0%BD%D0%B8%D1%8F+%D0%A0%D1%83%D1%81%D0%B5%22-+%D0%BF%D1%80%D0%BE%D1%84%D0%B5%D1%81%D0%B8%D0%BE%D0%BD%D0%B0%D0%BB%D0%BD%D0%B8+%D0%B2%D0%B8%D0%BA+%D1%83%D1%81%D0%BB%D1%83%D0%B3%D0%B8,vik+uslugi/data=!4m7!3m6!1s0x40ae61d895701e69:0x86ed467fa42841d9!8m2!3d43.8456948!4d25.9561749!16s%2Fg%2F11t1rl1b_s!19sChIJaR5wldhhrkAR2UEopH9G7YY?authuser=0&hl=tr&rclk=1",
    "website_url": "",
    "rating_text": "5,0",
    "stars": null,
    "number_of_reviews": null,
    "price_level": "",
    "open_hours": "",
    "extraction_timestamp": "2025-06-07T13:50:53.142Z",
    "source_name": "google",
    "source_query": "Irrigation Equipment",
    "source_country": "BG",
    "country": "Bulgaria",
    "state": "Ruse Province",
    "city": "Obshtina Ivanovo"
  },
  {
    "source_id": "ChIJDyHD7zD3rkARWgAEOw8VtoA",
    "name": "Leko",
    "category": "Leko",
    "formatted_address": "4,4(5)",
    "phone_number": "",
    "source_url": "https://www.google.com/maps/place/Leko/data=!4m7!3m6!1s0x40aef730efc3210f:0x80b6150f3b04005a!8m2!3d43.7135039!4d26.0401507!16s%2Fg%2F11rmq2kg2x!19sChIJDyHD7zD3rkARWgAEOw8VtoA?authuser=0&hl=tr&rclk=1",
    "website_url": "",
    "rating_text": "4,4",
    "stars": null,
    "number_of_reviews": null,
    "price_level": "",
    "open_hours": "",
    "extraction_timestamp": "2025-06-07T13:50:53.142Z",
    "source_name": "google",
    "source_query": "Irrigation Equipment",
    "source_country": "BG",
    "country": "Bulgaria",
    "state": "Ruse Province",
    "city": "Obshtina Ivanovo"
  },
  {
    "source_id": "ChIJ0Yw9iQ5grkARB4rV0Tzu9Fg",
    "name": "ПЛАМ СТРОЙ 2002 ЕООД",
    "category": "ПЛАМ СТРОЙ 2002 ЕООД",
    "formatted_address": "4,6(59)",
    "phone_number": "+359879348410",
    "source_url": "https://www.google.com/maps/place/%D0%9F%D0%9B%D0%90%D0%9C+%D0%A1%D0%A2%D0%A0%D0%9E%D0%99+2002+%D0%95%D0%9E%D0%9E%D0%94/data=!4m7!3m6!1s0x40ae600e893d8cd1:0x58f4ee3cd1d58a07!8m2!3d43.7997587!4d25.9339819!16s%2Fg%2F11c55tnpc1!19sChIJ0Yw9iQ5grkARB4rV0Tzu9Fg?authuser=0&hl=tr&rclk=1",
    "website_url": "",
    "rating_text": "4,6",
    "stars": null,
    "number_of_reviews": null,
    "price_level": "",
    "open_hours": "",
    "extraction_timestamp": "2025-06-07T13:50:53.142Z",
    "source_name": "google",
    "source_query": "Irrigation Equipment",
    "source_country": "BG",
    "country": "Bulgaria",
    "state": "Ruse Province",
    "city": "Obshtina Ivanovo"
  },
  {
    "source_id": "ChIJZ-SNrrxgrkARB4chKi2R6Ls",
    "name": "ARTISTIKA",
    "category": "ARTISTIKA",
    "formatted_address": "4,5(205)",
    "phone_number": "+359887957894",
    "source_url": "https://www.google.com/maps/place/ARTISTIKA/data=!4m7!3m6!1s0x40ae60bcae8de467:0xbbe8912d2a218707!8m2!3d43.8383016!4d25.9787083!16s%2Fg%2F11c6y_9wb5!19sChIJZ-SNrrxgrkARB4chKi2R6Ls?authuser=0&hl=tr&rclk=1",
    "website_url": "https://artistika.bg/",
    "rating_text": "4,5",
    "stars": null,
    "number_of_reviews": null,
    "price_level": "",
    "open_hours": "",
    "extraction_timestamp": "2025-06-07T13:50:53.143Z",
    "source_name": "google",
    "source_query": "Irrigation Equipment",
    "source_country": "BG",
    "country": "Bulgaria",
    "state": "Ruse Province",
    "city": "Obshtina Ivanovo"
  },
  {
    "source_id": "ChIJRZOm4whfrkARWXgG-vrEKsg",
    "name": "Супермаркет Карагьозов - СКЛАД НА ЕДРО",
    "category": "Супермаркет Карагьозов - СКЛАД НА ЕДРО",
    "formatted_address": "4,6(163)",
    "phone_number": "+359887074626",
    "source_url": "https://www.google.com/maps/place/%D0%A1%D1%83%D0%BF%D0%B5%D1%80%D0%BC%D0%B0%D1%80%D0%BA%D0%B5%D1%82+%D0%9A%D0%B0%D1%80%D0%B0%D0%B3%D1%8C%D0%BE%D0%B7%D0%BE%D0%B2+-+%D0%A1%D0%9A%D0%9B%D0%90%D0%94+%D0%9D%D0%90+%D0%95%D0%94%D0%A0%D0%9E/data=!4m7!3m6!1s0x40ae5f08e3a69345:0xc82ac4fafa067859!8m2!3d43.812296!4d25.9845745!16s%2Fg%2F11r_nyxfs8!19sChIJRZOm4whfrkARWXgG-vrEKsg?authuser=0&hl=tr&rclk=1",
    "website_url": "https://rusebag.com/",
    "rating_text": "4,6",
    "stars": null,
    "number_of_reviews": null,
    "price_level": "",
    "open_hours": "",
    "extraction_timestamp": "2025-06-07T13:50:53.143Z",
    "source_name": "google",
    "source_query": "Irrigation Equipment",
    "source_country": "BG",
    "country": "Bulgaria",
    "state": "Ruse Province",
    "city": "Obshtina Ivanovo"
  },
  {
    "source_id": "ChIJ9dUkY131rkARXLk8AETbEtw",
    "name": "COOP Basarbovo",
    "category": "COOP Basarbovo",
    "formatted_address": "4,3(442)",
    "phone_number": "",
    "source_url": "https://www.google.com/maps/place/COOP+Basarbovo/data=!4m7!3m6!1s0x40aef55d6324d5f5:0xdc12db44003cb95c!8m2!3d43.77419!4d25.9507585!16s%2Fg%2F1pp2tlk1l!19sChIJ9dUkY131rkARXLk8AETbEtw?authuser=0&hl=tr&rclk=1",
    "website_url": "",
    "rating_text": "4,3",
    "stars": null,
    "number_of_reviews": null,
    "price_level": "",
    "open_hours": "",
    "extraction_timestamp": "2025-06-07T13:50:53.143Z",
    "source_name": "google",
    "source_query": "Irrigation Equipment",
    "source_country": "BG",
    "country": "Bulgaria",
    "state": "Ruse Province",
    "city": "Obshtina Ivanovo"
  },
  {
    "source_id": "ChIJN8oHJ7FgrkARARGuEsDS1KI",
    "name": "Praktiker Ruse",
    "category": "Praktiker Ruse",
    "formatted_address": "4,4(1.382)",
    "phone_number": "+35982887120",
    "source_url": "https://www.google.com/maps/place/Praktiker+Ruse/data=!4m7!3m6!1s0x40ae60b12707ca37:0xa2d4d2c012ae1101!8m2!3d43.8468434!4d25.967147!16s%2Fg%2F1z44rc7q3!19sChIJN8oHJ7FgrkARARGuEsDS1KI?authuser=0&hl=tr&rclk=1",
    "website_url": "http://www.praktiker.bg/",
    "rating_text": "4,4",
    "stars": null,
    "number_of_reviews": null,
    "price_level": "",
    "open_hours": "",
    "extraction_timestamp": "2025-06-07T13:50:53.144Z",
    "source_name": "google",
    "source_query": "Irrigation Equipment",
    "source_country": "BG",
    "country": "Bulgaria",
    "state": "Ruse Province",
    "city": "Obshtina Ivanovo"
  },
  {
    "source_id": "ChIJD92VEqFhrkAR_4BbPhSq43U",
    "name": "Левски ЕООД",
    "category": "Левски ЕООД",
    "formatted_address": "4,6(35)",
    "phone_number": "+359878654392",
    "source_url": "https://www.google.com/maps/place/%D0%9B%D0%B5%D0%B2%D1%81%D0%BA%D0%B8+%D0%95%D0%9E%D0%9E%D0%94/data=!4m7!3m6!1s0x40ae61a11295dd0f:0x75e3aa143e5b80ff!8m2!3d43.8300704!4d25.9747011!16s%2Fg%2F11lkdwg8qj!19sChIJD92VEqFhrkAR_4BbPhSq43U?authuser=0&hl=tr&rclk=1",
    "website_url": "https://levski-eood.com/",
    "rating_text": "4,6",
    "stars": null,
    "number_of_reviews": null,
    "price_level": "",
    "open_hours": "",
    "extraction_timestamp": "2025-06-07T13:50:53.144Z",
    "source_name": "google",
    "source_query": "Irrigation Equipment",
    "source_country": "BG",
    "country": "Bulgaria",
    "state": "Ruse Province",
    "city": "Obshtina Ivanovo"
  },
  {
    "source_id": "ChIJU_pq0C1hrkAR_ogLTUB4k5U",
    "name": "Строителна борса \"Братоев\"",
    "category": "Строителна борса \"Братоев\"",
    "formatted_address": "4,8(34)",
    "phone_number": "+359888761754",
    "source_url": "https://www.google.com/maps/place/%D0%A1%D1%82%D1%80%D0%BE%D0%B8%D1%82%D0%B5%D0%BB%D0%BD%D0%B0+%D0%B1%D0%BE%D1%80%D1%81%D0%B0+%22%D0%91%D1%80%D0%B0%D1%82%D0%BE%D0%B5%D0%B2%22/data=!4m7!3m6!1s0x40ae612dd06afa53:0x959378404d0b88fe!8m2!3d43.8200563!4d25.9723997!16s%2Fg%2F11fn6y9qbc!19sChIJU_pq0C1hrkAR_ogLTUB4k5U?authuser=0&hl=tr&rclk=1",
    "website_url": "",
    "rating_text": "4,8",
    "stars": null,
    "number_of_reviews": null,
    "price_level": "",
    "open_hours": "",
    "extraction_timestamp": "2025-06-07T13:50:53.145Z",
    "source_name": "google",
    "source_query": "Irrigation Equipment",
    "source_country": "BG",
    "country": "Bulgaria",
    "state": "Ruse Province",
    "city": "Obshtina Ivanovo"
  },
  {
    "source_id": "ChIJNcPZv5tgrkAR-4bsRhDlZIg",
    "name": "Шоне - ООД",
    "category": "Шоне - ООД",
    "formatted_address": "4,2(126)",
    "phone_number": "+35982860893",
    "source_url": "https://www.google.com/maps/place/%D0%A8%D0%BE%D0%BD%D0%B5+-+%D0%9E%D0%9E%D0%94/data=!4m7!3m6!1s0x40ae609bbfd9c335:0x8864e51046ec86fb!8m2!3d43.8305879!4d25.9657133!16s%2Fg%2F11cn60zb3r!19sChIJNcPZv5tgrkAR-4bsRhDlZIg?authuser=0&hl=tr&rclk=1",
    "website_url": "",
    "rating_text": "4,2",
    "stars": null,
    "number_of_reviews": null,
    "price_level": "",
    "open_hours": "",
    "extraction_timestamp": "2025-06-07T13:50:53.145Z",
    "source_name": "google",
    "source_query": "Irrigation Equipment",
    "source_country": "BG",
    "country": "Bulgaria",
    "state": "Ruse Province",
    "city": "Obshtina Ivanovo"
  },
  {
    "source_id": "ChIJwQjQE0JhrkARuLMkff3b0hg",
    "name": "Ovis Store",
    "category": "Ovis Store",
    "formatted_address": "4,4(109)",
    "phone_number": "+359895416518",
    "source_url": "https://www.google.com/maps/place/Ovis+Store/data=!4m7!3m6!1s0x40ae614213d008c1:0x18d2dbfd7d24b3b8!8m2!3d43.7971138!4d25.931555!16s%2Fg%2F1ts1qr09!19sChIJwQjQE0JhrkARuLMkff3b0hg?authuser=0&hl=tr&rclk=1",
    "website_url": "",
    "rating_text": "4,4",
    "stars": null,
    "number_of_reviews": null,
    "price_level": "",
    "open_hours": "",
    "extraction_timestamp": "2025-06-07T13:50:53.145Z",
    "source_name": "google",
    "source_query": "Irrigation Equipment",
    "source_country": "BG",
    "country": "Bulgaria",
    "state": "Ruse Province",
    "city": "Obshtina Ivanovo"
  },
  {
    "source_id": "ChIJQciuB6TurkARmK_LAb9KylI",
    "name": "МАГАЗИН ПЛАМ",
    "category": "МАГАЗИН ПЛАМ",
    "formatted_address": "4,7(39)",
    "phone_number": "+359889444831",
    "source_url": "https://www.google.com/maps/place/%D0%9C%D0%90%D0%93%D0%90%D0%97%D0%98%D0%9D+%D0%9F%D0%9B%D0%90%D0%9C/data=!4m7!3m6!1s0x40aeeea407aec841:0x52ca4abf01cbaf98!8m2!3d43.5847688!4d25.866599!16s%2Fg%2F11g6nhcfk3!19sChIJQciuB6TurkARmK_LAb9KylI?authuser=0&hl=tr&rclk=1",
    "website_url": "http://plameood.com/",
    "rating_text": "4,7",
    "stars": null,
    "number_of_reviews": null,
    "price_level": "",
    "open_hours": "",
    "extraction_timestamp": "2025-06-07T13:50:53.145Z",
    "source_name": "google",
    "source_query": "Irrigation Equipment",
    "source_country": "BG",
    "country": "Bulgaria",
    "state": "Ruse Province",
    "city": "Obshtina Ivanovo"
  },
  {
    "source_id": "ChIJx4sMZ1NnrkAROkhk3exM330",
    "name": "Technomarket Ruse",
    "category": "Technomarket Ruse",
    "formatted_address": "4,2(1.062)",
    "phone_number": "+35982280046",
    "source_url": "https://www.google.com/maps/place/Technomarket+Ruse/data=!4m7!3m6!1s0x40ae6753670c8bc7:0x7ddf4cecdd64483a!8m2!3d43.8531336!4d25.9902535!16s%2Fg%2F11c3tzdxj0!19sChIJx4sMZ1NnrkAROkhk3exM330?authuser=0&hl=tr&rclk=1",
    "website_url": "http://www.technomarket.bg/",
    "rating_text": "4,2",
    "stars": null,
    "number_of_reviews": null,
    "price_level": "",
    "open_hours": "",
    "extraction_timestamp": "2025-06-07T13:50:53.146Z",
    "source_name": "google",
    "source_query": "Irrigation Equipment",
    "source_country": "BG",
    "country": "Bulgaria",
    "state": "Ruse Province",
    "city": "Obshtina Ivanovo"
  },
  {
    "source_id": "ChIJzxCk5c5grkARgTE1rMkUEYg",
    "name": "Group 77",
    "category": "Group 77",
    "formatted_address": "3,6(5)",
    "phone_number": "+359897333487",
    "source_url": "https://www.google.com/maps/place/Group+77/data=!4m7!3m6!1s0x40ae60cee5a410cf:0x881114c9ac353181!8m2!3d43.8503991!4d25.9646708!16s%2Fg%2F12jm0847n!19sChIJzxCk5c5grkARgTE1rMkUEYg?authuser=0&hl=tr&rclk=1",
    "website_url": "",
    "rating_text": "3,6",
    "stars": null,
    "number_of_reviews": null,
    "price_level": "",
    "open_hours": "",
    "extraction_timestamp": "2025-06-07T13:50:53.146Z",
    "source_name": "google",
    "source_query": "Irrigation Equipment",
    "source_country": "BG",
    "country": "Bulgaria",
    "state": "Ruse Province",
    "city": "Obshtina Ivanovo"
  },
  {
    "source_id": "ChIJu4wq9CderkARm8KtAHGnq4A",
    "name": "Veni",
    "category": "Veni",
    "formatted_address": "4,0(381)",
    "phone_number": "",
    "source_url": "https://www.google.com/maps/place/Veni/data=!4m7!3m6!1s0x40ae5e27f42a8cbb:0x80aba77100adc29b!8m2!3d43.8264741!4d25.9715755!16s%2Fg%2F11cs3_0lvv!19sChIJu4wq9CderkARm8KtAHGnq4A?authuser=0&hl=tr&rclk=1",
    "website_url": "",
    "rating_text": "4,0",
    "stars": null,
    "number_of_reviews": null,
    "price_level": "",
    "open_hours": "",
    "extraction_timestamp": "2025-06-07T13:50:53.146Z",
    "source_name": "google",
    "source_query": "Irrigation Equipment",
    "source_country": "BG",
    "country": "Bulgaria",
    "state": "Ruse Province",
    "city": "Obshtina Ivanovo"
  },
  {
    "source_id": "ChIJjytwvY5grkAR8dUkEv3Fs5w",
    "name": "Thiklon",
    "category": "Thiklon",
    "formatted_address": "4,0(16)",
    "phone_number": "+35982860744",
    "source_url": "https://www.google.com/maps/place/Thiklon/data=!4m7!3m6!1s0x40ae608ebd702b8f:0x9cb3c5fd1224d5f1!8m2!3d43.8271236!4d25.9501784!16s%2Fg%2F1tfgh9xk!19sChIJjytwvY5grkAR8dUkEv3Fs5w?authuser=0&hl=tr&rclk=1",
    "website_url": "",
    "rating_text": "4,0",
    "stars": null,
    "number_of_reviews": null,
    "price_level": "",
    "open_hours": "",
    "extraction_timestamp": "2025-06-07T13:50:53.147Z",
    "source_name": "google",
    "source_query": "Irrigation Equipment",
    "source_country": "BG",
    "country": "Bulgaria",
    "state": "Ruse Province",
    "city": "Obshtina Ivanovo"
  },
  {
    "source_id": "ChIJ6yjNrn1hrkARQRqL0aq0-Jc",
    "name": "Строителни материали Георги Петков",
    "category": "Строителни материали Георги Петков",
    "formatted_address": "5,0(5)",
    "phone_number": "+359896783151",
    "source_url": "https://www.google.com/maps/place/%D0%A1%D1%82%D1%80%D0%BE%D0%B8%D1%82%D0%B5%D0%BB%D0%BD%D0%B8+%D0%BC%D0%B0%D1%82%D0%B5%D1%80%D0%B8%D0%B0%D0%BB%D0%B8+%D0%93%D0%B5%D0%BE%D1%80%D0%B3%D0%B8+%D0%9F%D0%B5%D1%82%D0%BA%D0%BE%D0%B2/data=!4m7!3m6!1s0x40ae617daecd28eb:0x97f8b4aad18b1a41!8m2!3d43.8295877!4d25.9557336!16s%2Fg%2F11l_gbbqp5!19sChIJ6yjNrn1hrkARQRqL0aq0-Jc?authuser=0&hl=tr&rclk=1",
    "website_url": "",
    "rating_text": "5,0",
    "stars": null,
    "number_of_reviews": null,
    "price_level": "",
    "open_hours": "",
    "extraction_timestamp": "2025-06-07T13:50:53.147Z",
    "source_name": "google",
    "source_query": "Irrigation Equipment",
    "source_country": "BG",
    "country": "Bulgaria",
    "state": "Ruse Province",
    "city": "Obshtina Ivanovo"
  },
  {
    "source_id": "ChIJ97hDaMr1rkAR9kYgZqUDYaU",
    "name": "Proizvoditelno-Potrebitelna Kooperatsiya Krasen",
    "category": "Proizvoditelno-Potrebitelna Kooperatsiya Krasen",
    "formatted_address": "4,3(33)",
    "phone_number": "+3598152411",
    "source_url": "https://www.google.com/maps/place/Proizvoditelno-Potrebitelna+Kooperatsiya+Krasen/data=!4m7!3m6!1s0x40aef5ca6843b8f7:0xa56103a5662046f6!8m2!3d43.7383337!4d25.9803499!16s%2Fg%2F1tk1xk7r!19sChIJ97hDaMr1rkAR9kYgZqUDYaU?authuser=0&hl=tr&rclk=1",
    "website_url": "",
    "rating_text": "4,3",
    "stars": null,
    "number_of_reviews": null,
    "price_level": "",
    "open_hours": "",
    "extraction_timestamp": "2025-06-07T13:50:53.147Z",
    "source_name": "google",
    "source_query": "Irrigation Equipment",
    "source_country": "BG",
    "country": "Bulgaria",
    "state": "Ruse Province",
    "city": "Obshtina Ivanovo"
  },
  {
    "source_id": "ChIJdRxgsOdhrkARPLJ-UNZHEBM",
    "name": "TetraSink Мултифункционални мивки за кухня",
    "category": "TetraSink Мултифункционални мивки за кухня",
    "formatted_address": "4,6(11)",
    "phone_number": "+359896700521",
    "source_url": "https://www.google.com/maps/place/TetraSink+%D0%9C%D1%83%D0%BB%D1%82%D0%B8%D1%84%D1%83%D0%BD%D0%BA%D1%86%D0%B8%D0%BE%D0%BD%D0%B0%D0%BB%D0%BD%D0%B8+%D0%BC%D0%B8%D0%B2%D0%BA%D0%B8+%D0%B7%D0%B0+%D0%BA%D1%83%D1%85%D0%BD%D1%8F/data=!4m7!3m6!1s0x40ae61e7b0601c75:0x131047d6507eb23c!8m2!3d43.8385365!4d25.9589474!16s%2Fg%2F11l5kh1tcr!19sChIJdRxgsOdhrkARPLJ-UNZHEBM?authuser=0&hl=tr&rclk=1",
    "website_url": "https://tetrasink.com/bg",
    "rating_text": "4,6",
    "stars": null,
    "number_of_reviews": null,
    "price_level": "",
    "open_hours": "",
    "extraction_timestamp": "2025-06-07T13:50:53.147Z",
    "source_name": "google",
    "source_query": "Irrigation Equipment",
    "source_country": "BG",
    "country": "Bulgaria",
    "state": "Ruse Province",
    "city": "Obshtina Ivanovo"
  },
  {
    "source_id": "ChIJfdJMBTBhrkARIL5xusSUNVk",
    "name": "gohce marinov",
    "category": "gohce marinov",
    "formatted_address": "3,0(2)",
    "phone_number": "+359894205672",
    "source_url": "https://www.google.com/maps/place/gohce+marinov/data=!4m7!3m6!1s0x40ae6130054cd27d:0x593594c4ba71be20!8m2!3d43.7979981!4d25.9053209!16s%2Fg%2F11qn14m13k!19sChIJfdJMBTBhrkARIL5xusSUNVk?authuser=0&hl=tr&rclk=1",
    "website_url": "",
    "rating_text": "3,0",
    "stars": null,
    "number_of_reviews": null,
    "price_level": "",
    "open_hours": "",
    "extraction_timestamp": "2025-06-07T13:50:53.148Z",
    "source_name": "google",
    "source_query": "Irrigation Equipment",
    "source_country": "BG",
    "country": "Bulgaria",
    "state": "Ruse Province",
    "city": "Obshtina Ivanovo"
  },
  {
    "source_id": "ChIJu8Tfd6lhrkAR78KtcypkOlk",
    "name": "Автомивка \"МЕГАКАР\" ЕООД",
    "category": "Автомивка \"МЕГАКАР\" ЕООД",
    "formatted_address": "4,4(308)",
    "phone_number": "+359896757513",
    "source_url": "https://www.google.com/maps/place/%D0%90%D0%B2%D1%82%D0%BE%D0%BC%D0%B8%D0%B2%D0%BA%D0%B0+%22%D0%9C%D0%95%D0%93%D0%90%D0%9A%D0%90%D0%A0%22+%D0%95%D0%9E%D0%9E%D0%94/data=!4m7!3m6!1s0x40ae61a977dfc4bb:0x593a642a73adc2ef!8m2!3d43.8339886!4d25.9773693!16s%2Fg%2F11g0h7_3fj!19sChIJu8Tfd6lhrkAR78KtcypkOlk?authuser=0&hl=tr&rclk=1",
    "website_url": "",
    "rating_text": "4,4",
    "stars": null,
    "number_of_reviews": null,
    "price_level": "",
    "open_hours": "",
    "extraction_timestamp": "2025-06-07T13:50:53.148Z",
    "source_name": "google",
    "source_query": "Irrigation Equipment",
    "source_country": "BG",
    "country": "Bulgaria",
    "state": "Ruse Province",
    "city": "Obshtina Ivanovo"
  },
  {
    "source_id": "ChIJSWco0cDzrkARpgDJhGQmEhY",
    "name": "Супермаркет \"КООП\" с. Тръстеник",
    "category": "Супермаркет \"КООП\" с. Тръстеник",
    "formatted_address": "4,5(23)",
    "phone_number": "",
    "source_url": "https://www.google.com/maps/place/%D0%A1%D1%83%D0%BF%D0%B5%D1%80%D0%BC%D0%B0%D1%80%D0%BA%D0%B5%D1%82+%22%D0%9A%D0%9E%D0%9E%D0%9F%22+%D1%81.+%D0%A2%D1%80%D1%8A%D1%81%D1%82%D0%B5%D0%BD%D0%B8%D0%BA/data=!4m7!3m6!1s0x40aef3c0d1286749:0x1612266484c900a6!8m2!3d43.6611157!4d25.8573133!16s%2Fg%2F11q1m84fx9!19sChIJSWco0cDzrkARpgDJhGQmEhY?authuser=0&hl=tr&rclk=1",
    "website_url": "",
    "rating_text": "4,5",
    "stars": null,
    "number_of_reviews": null,
    "price_level": "",
    "open_hours": "",
    "extraction_timestamp": "2025-06-07T13:50:53.148Z",
    "source_name": "google",
    "source_query": "Irrigation Equipment",
    "source_country": "BG",
    "country": "Bulgaria",
    "state": "Ruse Province",
    "city": "Obshtina Ivanovo"
  },
  {
    "source_id": "ChIJEd28lJhgrkAR7WxzhUed4as",
    "name": "когенератори",
    "category": "когенератори",
    "formatted_address": "",
    "phone_number": "+35982823568",
    "source_url": "https://www.google.com/maps/place/%D0%BA%D0%BE%D0%B3%D0%B5%D0%BD%D0%B5%D1%80%D0%B0%D1%82%D0%BE%D1%80%D0%B8/data=!4m7!3m6!1s0x40ae609894bcdd11:0xabe19d4785736ced!8m2!3d43.8347252!4d25.9693126!16s%2Fg%2F11h_6q4ws5!19sChIJEd28lJhgrkAR7WxzhUed4as?authuser=0&hl=tr&rclk=1",
    "website_url": "http://radiatori.bgtherm.com/contact_IPS.html",
    "rating_text": "",
    "stars": null,
    "number_of_reviews": null,
    "price_level": "",
    "open_hours": "",
    "extraction_timestamp": "2025-06-07T13:50:53.148Z",
    "source_name": "google",
    "source_query": "Irrigation Equipment",
    "source_country": "BG",
    "country": "Bulgaria",
    "state": "Ruse Province",
    "city": "Obshtina Ivanovo"
  },
  {
    "source_id": "ChIJz4Mt6L9grkARUnLPetcYEYQ",
    "name": "Акваристика и Зоомагазин в Русе-\"Аквазоо Немо\"",
    "category": "Акваристика и Зоомагазин в Русе-\"Аквазоо Немо\"",
    "formatted_address": "4,8(146)",
    "phone_number": "+359888316917",
    "source_url": "https://www.google.com/maps/place/%D0%90%D0%BA%D0%B2%D0%B0%D1%80%D0%B8%D1%81%D1%82%D0%B8%D0%BA%D0%B0+%D0%B8+%D0%97%D0%BE%D0%BE%D0%BC%D0%B0%D0%B3%D0%B0%D0%B7%D0%B8%D0%BD+%D0%B2+%D0%A0%D1%83%D1%81%D0%B5-%22%D0%90%D0%BA%D0%B2%D0%B0%D0%B7%D0%BE%D0%BE+%D0%9D%D0%B5%D0%BC%D0%BE%22/data=!4m7!3m6!1s0x40ae60bfe82d83cf:0x841118d77acf7252!8m2!3d43.8399207!4d25.9556222!16s%2Fg%2F11f50t2_77!19sChIJz4Mt6L9grkARUnLPetcYEYQ?authuser=0&hl=tr&rclk=1",
    "website_url": "",
    "rating_text": "4,8",
    "stars": null,
    "number_of_reviews": null,
    "price_level": "",
    "open_hours": "",
    "extraction_timestamp": "2025-06-07T13:50:53.148Z",
    "source_name": "google",
    "source_query": "Irrigation Equipment",
    "source_country": "BG",
    "country": "Bulgaria",
    "state": "Ruse Province",
    "city": "Obshtina Ivanovo"
  }
]
