[
  {
    "source_id": "ChIJQciuB6TurkARmK_LAb9KylI",
    "name": "МАГАЗИН ПЛАМ",
    "category": "МАГАЗИН ПЛАМ",
    "formatted_address": "4,7(39)",
    "phone_number": "+359889444831",
    "source_url": "https://www.google.com/maps/place/%D0%9C%D0%90%D0%93%D0%90%D0%97%D0%98%D0%9D+%D0%9F%D0%9B%D0%90%D0%9C/data=!4m7!3m6!1s0x40aeeea407aec841:0x52ca4abf01cbaf98!8m2!3d43.5847688!4d25.866599!16s%2Fg%2F11g6nhcfk3!19sChIJQciuB6TurkARmK_LAb9KylI?authuser=0&hl=tr&rclk=1",
    "website_url": "http://plameood.com/",
    "rating_text": "4,7",
    "stars": null,
    "number_of_reviews": null,
    "price_level": "",
    "open_hours": "",
    "extraction_timestamp": "2025-06-07T13:50:41.703Z",
    "source_name": "google",
    "source_query": "Irrigation Equipment",
    "source_country": "BG",
    "country": "Bulgaria",
    "state": "Ruse Province",
    "city": "Obshtina Borovo"
  },
  {
    "source_id": "ChIJs-3c9rOEqkARVzyxNRxPH6k",
    "name": "Aqua Engeneering Group",
    "category": "Aqua Engeneering Group",
    "formatted_address": "4,4(47)",
    "phone_number": "+359884201983",
    "source_url": "https://www.google.com/maps/place/Aqua+Engeneering+Group/data=!4m7!3m6!1s0x40aa84b3f6dcedb3:0xa91f4f1c35b13c57!8m2!3d42.6634902!4d23.2564096!16s%2Fg%2F1tgfv3gl!19sChIJs-3c9rOEqkARVzyxNRxPH6k?authuser=0&hl=tr&rclk=1",
    "website_url": "http://aqua-irrigation.com/",
    "rating_text": "4,4",
    "stars": null,
    "number_of_reviews": null,
    "price_level": "",
    "open_hours": "",
    "extraction_timestamp": "2025-06-07T13:50:41.705Z",
    "source_name": "google",
    "source_query": "Irrigation Equipment",
    "source_country": "BG",
    "country": "Bulgaria",
    "state": "Ruse Province",
    "city": "Obshtina Borovo"
  },
  {
    "source_id": "ChIJK8wCxbmUpkARABmAf9j7-ZE",
    "name": "Градински Рай ООД",
    "category": "Градински Рай ООД",
    "formatted_address": "4,5(54)",
    "phone_number": "+359878211155",
    "source_url": "https://www.google.com/maps/place/%D0%93%D1%80%D0%B0%D0%B4%D0%B8%D0%BD%D1%81%D0%BA%D0%B8+%D0%A0%D0%B0%D0%B9+%D0%9E%D0%9E%D0%94/data=!4m7!3m6!1s0x40a694b9c502cc2b:0x91f9fbd87f801900!8m2!3d42.5115053!4d27.4500541!16s%2Fg%2F11cm01kb9s!19sChIJK8wCxbmUpkARABmAf9j7-ZE?authuser=0&hl=tr&rclk=1",
    "website_url": "http://e-gradinabg.com/",
    "rating_text": "4,5",
    "stars": null,
    "number_of_reviews": null,
    "price_level": "",
    "open_hours": "",
    "extraction_timestamp": "2025-06-07T13:50:41.706Z",
    "source_name": "google",
    "source_query": "Irrigation Equipment",
    "source_country": "BG",
    "country": "Bulgaria",
    "state": "Ruse Province",
    "city": "Obshtina Borovo"
  },
  {
    "source_id": "ChIJkdQRcI7prkARl7jPzzLYetY",
    "name": "Nerma",
    "category": "Nerma",
    "formatted_address": "4,9(19)",
    "phone_number": "",
    "source_url": "https://www.google.com/maps/place/Nerma/data=!4m7!3m6!1s0x40aee98e7011d491:0xd67ad832cfcfb897!8m2!3d43.5385847!4d25.8708299!16s%2Fg%2F11snpw7yc8!19sChIJkdQRcI7prkARl7jPzzLYetY?authuser=0&hl=tr&rclk=1",
    "website_url": "",
    "rating_text": "4,9",
    "stars": null,
    "number_of_reviews": null,
    "price_level": "",
    "open_hours": "",
    "extraction_timestamp": "2025-06-07T13:50:41.707Z",
    "source_name": "google",
    "source_query": "Irrigation Equipment",
    "source_country": "BG",
    "country": "Bulgaria",
    "state": "Ruse Province",
    "city": "Obshtina Borovo"
  },
  {
    "source_id": "ChIJ5V4SUgDvrkARKnXKdrS5Bk4",
    "name": "ПЕТРОВ 23",
    "category": "ПЕТРОВ 23",
    "formatted_address": "5,0(1)",
    "phone_number": "+359893600708",
    "source_url": "https://www.google.com/maps/place/%D0%9F%D0%95%D0%A2%D0%A0%D0%9E%D0%92+23/data=!4m7!3m6!1s0x40aeef0052125ee5:0x4e06b9b476ca752a!8m2!3d43.5903472!4d25.8739557!16s%2Fg%2F11wv9rqyzw!19sChIJ5V4SUgDvrkARKnXKdrS5Bk4?authuser=0&hl=tr&rclk=1",
    "website_url": "",
    "rating_text": "5,0",
    "stars": null,
    "number_of_reviews": null,
    "price_level": "",
    "open_hours": "",
    "extraction_timestamp": "2025-06-07T13:50:41.708Z",
    "source_name": "google",
    "source_query": "Irrigation Equipment",
    "source_country": "BG",
    "country": "Bulgaria",
    "state": "Ruse Province",
    "city": "Obshtina Borovo"
  },
  {
    "source_id": "ChIJ4cb9DsFgrkARH1nrvdfpgQo",
    "name": "Кей Ви Ел ЕООД",
    "category": "Кей Ви Ел ЕООД",
    "formatted_address": "",
    "phone_number": "+35982507370",
    "source_url": "https://www.google.com/maps/place/%D0%9A%D0%B5%D0%B9+%D0%92%D0%B8+%D0%95%D0%BB+%D0%95%D0%9E%D0%9E%D0%94/data=!4m7!3m6!1s0x40ae60c10efdc6e1:0xa81e9d7bdeb591f!8m2!3d43.8214999!4d25.9247541!16s%2Fg%2F11j0jl790d!19sChIJ4cb9DsFgrkARH1nrvdfpgQo?authuser=0&hl=tr&rclk=1",
    "website_url": "http://kvl.bg/%D0%BA%D0%BE%D0%BD%D1%82%D0%B0%D0%BA%D1%82%D0%B8/",
    "rating_text": "",
    "stars": null,
    "number_of_reviews": null,
    "price_level": "",
    "open_hours": "",
    "extraction_timestamp": "2025-06-07T13:50:41.709Z",
    "source_name": "google",
    "source_query": "Irrigation Equipment",
    "source_country": "BG",
    "country": "Bulgaria",
    "state": "Ruse Province",
    "city": "Obshtina Borovo"
  },
  {
    "source_id": "ChIJHZPl3J7urkARs0TT1ZXw4KM",
    "name": "Kimt-D",
    "category": "Kimt-D",
    "formatted_address": "4,6(125)",
    "phone_number": "+359877421499",
    "source_url": "https://www.google.com/maps/place/Kimt-D/data=!4m7!3m6!1s0x40aeee9edce5931d:0xa3e0f095d5d344b3!8m2!3d43.5895019!4d25.8730233!16s%2Fg%2F1tn048zp!19sChIJHZPl3J7urkARs0TT1ZXw4KM?authuser=0&hl=tr&rclk=1",
    "website_url": "",
    "rating_text": "4,6",
    "stars": null,
    "number_of_reviews": null,
    "price_level": "",
    "open_hours": "",
    "extraction_timestamp": "2025-06-07T13:50:41.710Z",
    "source_name": "google",
    "source_query": "Irrigation Equipment",
    "source_country": "BG",
    "country": "Bulgaria",
    "state": "Ruse Province",
    "city": "Obshtina Borovo"
  },
  {
    "source_id": "ChIJDyHD7zD3rkARWgAEOw8VtoA",
    "name": "Leko",
    "category": "Leko",
    "formatted_address": "4,4(5)",
    "phone_number": "",
    "source_url": "https://www.google.com/maps/place/Leko/data=!4m7!3m6!1s0x40aef730efc3210f:0x80b6150f3b04005a!8m2!3d43.7135039!4d26.0401507!16s%2Fg%2F11rmq2kg2x!19sChIJDyHD7zD3rkARWgAEOw8VtoA?authuser=0&hl=tr&rclk=1",
    "website_url": "",
    "rating_text": "4,4",
    "stars": null,
    "number_of_reviews": null,
    "price_level": "",
    "open_hours": "",
    "extraction_timestamp": "2025-06-07T13:50:41.711Z",
    "source_name": "google",
    "source_query": "Irrigation Equipment",
    "source_country": "BG",
    "country": "Bulgaria",
    "state": "Ruse Province",
    "city": "Obshtina Borovo"
  },
  {
    "source_id": "ChIJSWco0cDzrkARpgDJhGQmEhY",
    "name": "Супермаркет \"КООП\" с. Тръстеник",
    "category": "Супермаркет \"КООП\" с. Тръстеник",
    "formatted_address": "4,5(23)",
    "phone_number": "",
    "source_url": "https://www.google.com/maps/place/%D0%A1%D1%83%D0%BF%D0%B5%D1%80%D0%BC%D0%B0%D1%80%D0%BA%D0%B5%D1%82+%22%D0%9A%D0%9E%D0%9E%D0%9F%22+%D1%81.+%D0%A2%D1%80%D1%8A%D1%81%D1%82%D0%B5%D0%BD%D0%B8%D0%BA/data=!4m7!3m6!1s0x40aef3c0d1286749:0x1612266484c900a6!8m2!3d43.6611157!4d25.8573133!16s%2Fg%2F11q1m84fx9!19sChIJSWco0cDzrkARpgDJhGQmEhY?authuser=0&hl=tr&rclk=1",
    "website_url": "",
    "rating_text": "4,5",
    "stars": null,
    "number_of_reviews": null,
    "price_level": "",
    "open_hours": "",
    "extraction_timestamp": "2025-06-07T13:50:41.711Z",
    "source_name": "google",
    "source_query": "Irrigation Equipment",
    "source_country": "BG",
    "country": "Bulgaria",
    "state": "Ruse Province",
    "city": "Obshtina Borovo"
  },
  {
    "source_id": "ChIJOTNgGgbArkARAWf2kzoUeJs",
    "name": "Yanita Shop",
    "category": "Yanita Shop",
    "formatted_address": "4,3(39)",
    "phone_number": "",
    "source_url": "https://www.google.com/maps/place/Yanita+Shop/data=!4m7!3m6!1s0x40aec0061a603339:0x9b78143a93f66701!8m2!3d43.5278101!4d25.6876608!16s%2Fg%2F11c5s7twbm!19sChIJOTNgGgbArkARAWf2kzoUeJs?authuser=0&hl=tr&rclk=1",
    "website_url": "",
    "rating_text": "4,3",
    "stars": null,
    "number_of_reviews": null,
    "price_level": "",
    "open_hours": "",
    "extraction_timestamp": "2025-06-07T13:50:41.712Z",
    "source_name": "google",
    "source_query": "Irrigation Equipment",
    "source_country": "BG",
    "country": "Bulgaria",
    "state": "Ruse Province",
    "city": "Obshtina Borovo"
  },
  {
    "source_id": "ChIJE4rpMsTArkARsRRndlsCHWQ",
    "name": "TOPLIVO - Warehouse White",
    "category": "TOPLIVO - Warehouse White",
    "formatted_address": "4,6(7)",
    "phone_number": "+35981771775",
    "source_url": "https://www.google.com/maps/place/TOPLIVO+-+Warehouse+White/data=!4m7!3m6!1s0x40aec0c432e98a13:0x641d025b766714b1!8m2!3d43.4757119!4d25.6706313!16s%2Fg%2F11g8y9mvn4!19sChIJE4rpMsTArkARsRRndlsCHWQ?authuser=0&hl=tr&rclk=1",
    "website_url": "http://toplivo.bg/",
    "rating_text": "4,6",
    "stars": null,
    "number_of_reviews": null,
    "price_level": "",
    "open_hours": "",
    "extraction_timestamp": "2025-06-07T13:50:41.713Z",
    "source_name": "google",
    "source_query": "Irrigation Equipment",
    "source_country": "BG",
    "country": "Bulgaria",
    "state": "Ruse Province",
    "city": "Obshtina Borovo"
  },
  {
    "source_id": "ChIJ9dUkY131rkARXLk8AETbEtw",
    "name": "COOP Basarbovo",
    "category": "COOP Basarbovo",
    "formatted_address": "4,3(442)",
    "phone_number": "",
    "source_url": "https://www.google.com/maps/place/COOP+Basarbovo/data=!4m7!3m6!1s0x40aef55d6324d5f5:0xdc12db44003cb95c!8m2!3d43.77419!4d25.9507585!16s%2Fg%2F1pp2tlk1l!19sChIJ9dUkY131rkARXLk8AETbEtw?authuser=0&hl=tr&rclk=1",
    "website_url": "",
    "rating_text": "4,3",
    "stars": null,
    "number_of_reviews": null,
    "price_level": "",
    "open_hours": "",
    "extraction_timestamp": "2025-06-07T13:50:41.713Z",
    "source_name": "google",
    "source_query": "Irrigation Equipment",
    "source_country": "BG",
    "country": "Bulgaria",
    "state": "Ruse Province",
    "city": "Obshtina Borovo"
  },
  {
    "source_id": "ChIJ97hDaMr1rkAR9kYgZqUDYaU",
    "name": "Proizvoditelno-Potrebitelna Kooperatsiya Krasen",
    "category": "Proizvoditelno-Potrebitelna Kooperatsiya Krasen",
    "formatted_address": "4,3(33)",
    "phone_number": "+3598152411",
    "source_url": "https://www.google.com/maps/place/Proizvoditelno-Potrebitelna+Kooperatsiya+Krasen/data=!4m7!3m6!1s0x40aef5ca6843b8f7:0xa56103a5662046f6!8m2!3d43.7383337!4d25.9803499!16s%2Fg%2F1tk1xk7r!19sChIJ97hDaMr1rkAR9kYgZqUDYaU?authuser=0&hl=tr&rclk=1",
    "website_url": "",
    "rating_text": "4,3",
    "stars": null,
    "number_of_reviews": null,
    "price_level": "",
    "open_hours": "",
    "extraction_timestamp": "2025-06-07T13:50:41.714Z",
    "source_name": "google",
    "source_query": "Irrigation Equipment",
    "source_country": "BG",
    "country": "Bulgaria",
    "state": "Ruse Province",
    "city": "Obshtina Borovo"
  },
  {
    "source_id": "ChIJy4WsXUOVpkARwvDaaASvmAQ",
    "name": "Хидроленд Сондажи",
    "category": "Хидроленд Сондажи",
    "formatted_address": "4,8(25)",
    "phone_number": "+359898435757",
    "source_url": "https://www.google.com/maps/place/%D0%A5%D0%B8%D0%B4%D1%80%D0%BE%D0%BB%D0%B5%D0%BD%D0%B4+%D0%A1%D0%BE%D0%BD%D0%B4%D0%B0%D0%B6%D0%B8/data=!4m7!3m6!1s0x40a695435dac85cb:0x498af0468daf0c2!8m2!3d42.5118006!4d27.4677322!16s%2Fg%2F11vd6fgcqk!19sChIJy4WsXUOVpkARwvDaaASvmAQ?authuser=0&hl=tr&rclk=1",
    "website_url": "https://www.hydroland.bg/",
    "rating_text": "4,8",
    "stars": null,
    "number_of_reviews": null,
    "price_level": "",
    "open_hours": "",
    "extraction_timestamp": "2025-06-07T13:50:41.715Z",
    "source_name": "google",
    "source_query": "Irrigation Equipment",
    "source_country": "BG",
    "country": "Bulgaria",
    "state": "Ruse Province",
    "city": "Obshtina Borovo"
  },
  {
    "source_id": "ChIJ5Y0-VNfDrkARfhtfsV42QSc",
    "name": "Търговски комплекс \"ЦИМБИ\"",
    "category": "Търговски комплекс \"ЦИМБИ\"",
    "formatted_address": "4,7(42)",
    "phone_number": "+359896658794",
    "source_url": "https://www.google.com/maps/place/%D0%A2%D1%8A%D1%80%D0%B3%D0%BE%D0%B2%D1%81%D0%BA%D0%B8+%D0%BA%D0%BE%D0%BC%D0%BF%D0%BB%D0%B5%D0%BA%D1%81+%22%D0%A6%D0%98%D0%9C%D0%91%D0%98%22/data=!4m7!3m6!1s0x40aec3d7543e8de5:0x2741365eb15f1b7e!8m2!3d43.4617966!4d25.7331877!16s%2Fg%2F11q965zwrd!19sChIJ5Y0-VNfDrkARfhtfsV42QSc?authuser=0&hl=tr&rclk=1",
    "website_url": "",
    "rating_text": "4,7",
    "stars": null,
    "number_of_reviews": null,
    "price_level": "",
    "open_hours": "",
    "extraction_timestamp": "2025-06-07T13:50:41.716Z",
    "source_name": "google",
    "source_query": "Irrigation Equipment",
    "source_country": "BG",
    "country": "Bulgaria",
    "state": "Ruse Province",
    "city": "Obshtina Borovo"
  },
  {
    "source_id": "ChIJ1-aKyl1nrkARk-s02r5Mmqo",
    "name": "Bader Bulgaria",
    "category": "Bader Bulgaria",
    "formatted_address": "4,4(49)",
    "phone_number": "+359884373286",
    "source_url": "https://www.google.com/maps/place/Bader+Bulgaria/data=!4m7!3m6!1s0x40ae675dca8ae6d7:0xaa9a4cbeda34eb93!8m2!3d43.8522038!4d25.9877092!16s%2Fg%2F11fsrxsz3d!19sChIJ1-aKyl1nrkARk-s02r5Mmqo?authuser=0&hl=tr&rclk=1",
    "website_url": "https://bader-leather.com/",
    "rating_text": "4,4",
    "stars": null,
    "number_of_reviews": null,
    "price_level": "",
    "open_hours": "",
    "extraction_timestamp": "2025-06-07T13:50:41.717Z",
    "source_name": "google",
    "source_query": "Irrigation Equipment",
    "source_country": "BG",
    "country": "Bulgaria",
    "state": "Ruse Province",
    "city": "Obshtina Borovo"
  },
  {
    "source_id": "ChIJDdt6eYjrrkARGy9gRq-JPw8",
    "name": "Silvena 99",
    "category": "Silvena 99",
    "formatted_address": "3,7(13)",
    "phone_number": "+35981432756",
    "source_url": "https://www.google.com/maps/place/Silvena+99/data=!4m7!3m6!1s0x40aeeb88797adb0d:0xf3f89af46602f1b!8m2!3d43.5820551!4d25.8104168!16s%2Fg%2F1tc_74vr!19sChIJDdt6eYjrrkARGy9gRq-JPw8?authuser=0&hl=tr&rclk=1",
    "website_url": "",
    "rating_text": "3,7",
    "stars": null,
    "number_of_reviews": null,
    "price_level": "",
    "open_hours": "",
    "extraction_timestamp": "2025-06-07T13:50:41.717Z",
    "source_name": "google",
    "source_query": "Irrigation Equipment",
    "source_country": "BG",
    "country": "Bulgaria",
    "state": "Ruse Province",
    "city": "Obshtina Borovo"
  },
  {
    "source_id": "ChIJp93EXhhfrkARSbbGe-rejxk",
    "name": "Express Service OOD",
    "category": "Express Service OOD",
    "formatted_address": "4,7(75)",
    "phone_number": "+359887412838",
    "source_url": "https://www.google.com/maps/place/Express+Service+OOD/data=!4m7!3m6!1s0x40ae5f185ec4dda7:0x198fdeea7bc6b649!8m2!3d43.7940788!4d26.0299663!16s%2Fg%2F11c1nswv8h!19sChIJp93EXhhfrkARSbbGe-rejxk?authuser=0&hl=tr&rclk=1",
    "website_url": "http://www.lz1866.com/",
    "rating_text": "4,7",
    "stars": null,
    "number_of_reviews": null,
    "price_level": "",
    "open_hours": "",
    "extraction_timestamp": "2025-06-07T13:50:41.718Z",
    "source_name": "google",
    "source_query": "Irrigation Equipment",
    "source_country": "BG",
    "country": "Bulgaria",
    "state": "Ruse Province",
    "city": "Obshtina Borovo"
  },
  {
    "source_id": "ChIJMd-r3-LDrkARxIGtXpDM6ik",
    "name": "The Market",
    "category": "The Market",
    "formatted_address": "4,0(410)",
    "phone_number": "",
    "source_url": "https://www.google.com/maps/place/The+Market/data=!4m7!3m6!1s0x40aec3e2dfabdf31:0x29eacc905ead81c4!8m2!3d43.4579889!4d25.7390106!16s%2Fg%2F12qf4wb_7!19sChIJMd-r3-LDrkARxIGtXpDM6ik?authuser=0&hl=tr&rclk=1",
    "website_url": "",
    "rating_text": "4,0",
    "stars": null,
    "number_of_reviews": null,
    "price_level": "",
    "open_hours": "",
    "extraction_timestamp": "2025-06-07T13:50:41.718Z",
    "source_name": "google",
    "source_query": "Irrigation Equipment",
    "source_country": "BG",
    "country": "Bulgaria",
    "state": "Ruse Province",
    "city": "Obshtina Borovo"
  },
  {
    "source_id": "ChIJdRTQFZ8lqUARIH9sg0PgEmk",
    "name": "PRAKTIS",
    "category": "PRAKTIS",
    "formatted_address": "4,3(774)",
    "phone_number": "+35962622137",
    "source_url": "https://www.google.com/maps/place/PRAKTIS/data=!4m7!3m6!1s0x40a9259f15d01475:0x6912e043836c7f20!8m2!3d43.0777307!4d25.5996236!16s%2Fg%2F11ghlcr6xf!19sChIJdRTQFZ8lqUARIH9sg0PgEmk?authuser=0&hl=tr&rclk=1",
    "website_url": "https://praktis.bg/",
    "rating_text": "4,3",
    "stars": null,
    "number_of_reviews": null,
    "price_level": "",
    "open_hours": "",
    "extraction_timestamp": "2025-06-07T13:50:41.720Z",
    "source_name": "google",
    "source_query": "Irrigation Equipment",
    "source_country": "BG",
    "country": "Bulgaria",
    "state": "Ruse Province",
    "city": "Obshtina Borovo"
  },
  {
    "source_id": "ChIJe93ansPBrkARiJ3o06mp_CE",
    "name": "АРТ КАФЕ",
    "category": "АРТ КАФЕ",
    "formatted_address": "4,6(82) · BGN 10–20",
    "phone_number": "+359885960409",
    "source_url": "https://www.google.com/maps/place/%D0%90%D0%A0%D0%A2+%D0%9A%D0%90%D0%A4%D0%95/data=!4m7!3m6!1s0x40aec1c39edadd7b:0x21fca9a9d3e89d88!8m2!3d43.4694896!4d25.6730844!16s%2Fg%2F11r_k4v1gn!19sChIJe93ansPBrkARiJ3o06mp_CE?authuser=0&hl=tr&rclk=1",
    "website_url": "",
    "rating_text": "4,6",
    "stars": null,
    "number_of_reviews": null,
    "price_level": "",
    "open_hours": "",
    "extraction_timestamp": "2025-06-07T13:50:41.722Z",
    "source_name": "google",
    "source_query": "Irrigation Equipment",
    "source_country": "BG",
    "country": "Bulgaria",
    "state": "Ruse Province",
    "city": "Obshtina Borovo"
  },
  {
    "source_id": "ChIJX9kGSe1JqUARyJ3Olguqgcc",
    "name": "Slavchev Pit Stop",
    "category": "Slavchev Pit Stop",
    "formatted_address": "5,0(1)",
    "phone_number": "+359884370190",
    "source_url": "https://www.google.com/maps/place/Slavchev+Pit+Stop/data=!4m7!3m6!1s0x40a949ed4906d95f:0xc781aa0b96ce9dc8!8m2!3d43.2331846!4d25.3067547!16s%2Fg%2F11l73jb5gy!19sChIJX9kGSe1JqUARyJ3Olguqgcc?authuser=0&hl=tr&rclk=1",
    "website_url": "https://www.facebook.com/profile.php?id=100089079243515",
    "rating_text": "5,0",
    "stars": null,
    "number_of_reviews": null,
    "price_level": "",
    "open_hours": "",
    "extraction_timestamp": "2025-06-07T13:50:41.723Z",
    "source_name": "google",
    "source_query": "Irrigation Equipment",
    "source_country": "BG",
    "country": "Bulgaria",
    "state": "Ruse Province",
    "city": "Obshtina Borovo"
  },
  {
    "source_id": "ChIJtaNc3UVJqUAR6-xoZO5wG9c",
    "name": "ЕТ \"ВЛАДИ 99\"",
    "category": "ЕТ \"ВЛАДИ 99\"",
    "formatted_address": "4,6(8)",
    "phone_number": "",
    "source_url": "https://www.google.com/maps/place/%D0%95%D0%A2+%22%D0%92%D0%9B%D0%90%D0%94%D0%98+99%22/data=!4m7!3m6!1s0x40a94945dd5ca3b5:0xd71b70ee6468eceb!8m2!3d43.2369465!4d25.3031752!16s%2Fg%2F11q8hqch32!19sChIJtaNc3UVJqUAR6-xoZO5wG9c?authuser=0&hl=tr&rclk=1",
    "website_url": "",
    "rating_text": "4,6",
    "stars": null,
    "number_of_reviews": null,
    "price_level": "",
    "open_hours": "",
    "extraction_timestamp": "2025-06-07T13:50:41.724Z",
    "source_name": "google",
    "source_query": "Irrigation Equipment",
    "source_country": "BG",
    "country": "Bulgaria",
    "state": "Ruse Province",
    "city": "Obshtina Borovo"
  },
  {
    "source_id": "ChIJQTP9kz0vqUARYlm16lpHuPQ",
    "name": "Сладкарска къща Венера",
    "category": "Сладкарска къща Венера",
    "formatted_address": "4,3(24)",
    "phone_number": "+359889071076",
    "source_url": "https://www.google.com/maps/place/%D0%A1%D0%BB%D0%B0%D0%B4%D0%BA%D0%B0%D1%80%D1%81%D0%BA%D0%B0+%D0%BA%D1%8A%D1%89%D0%B0+%D0%92%D0%B5%D0%BD%D0%B5%D1%80%D0%B0/data=!4m7!3m6!1s0x40a92f3d93fd3341:0xf4b8475aeab55962!8m2!3d43.1517034!4d25.6315501!16s%2Fg%2F11jq4rrlp4!19sChIJQTP9kz0vqUARYlm16lpHuPQ?authuser=0&hl=tr&rclk=1",
    "website_url": "",
    "rating_text": "4,3",
    "stars": null,
    "number_of_reviews": null,
    "price_level": "",
    "open_hours": "",
    "extraction_timestamp": "2025-06-07T13:50:41.725Z",
    "source_name": "google",
    "source_query": "Irrigation Equipment",
    "source_country": "BG",
    "country": "Bulgaria",
    "state": "Ruse Province",
    "city": "Obshtina Borovo"
  },
  {
    "source_id": "ChIJBzzowkolqUARoueBkxO9OCk",
    "name": "Зоо магазин и Груминг салон Щастливите лапички",
    "category": "Зоо магазин и Груминг салон Щастливите лапички",
    "formatted_address": "4,8(211)",
    "phone_number": "+359879993293",
    "source_url": "https://www.google.com/maps/place/%D0%97%D0%BE%D0%BE+%D0%BC%D0%B0%D0%B3%D0%B0%D0%B7%D0%B8%D0%BD+%D0%B8+%D0%93%D1%80%D1%83%D0%BC%D0%B8%D0%BD%D0%B3+%D1%81%D0%B0%D0%BB%D0%BE%D0%BD+%D0%A9%D0%B0%D1%81%D1%82%D0%BB%D0%B8%D0%B2%D0%B8%D1%82%D0%B5+%D0%BB%D0%B0%D0%BF%D0%B8%D1%87%D0%BA%D0%B8/data=!4m7!3m6!1s0x40a9254ac2e83c07:0x2938bd139381e7a2!8m2!3d43.0800831!4d25.6057012!16s%2Fg%2F11ghr53m6d!19sChIJBzzowkolqUARoueBkxO9OCk?authuser=0&hl=tr&rclk=1",
    "website_url": "",
    "rating_text": "4,8",
    "stars": null,
    "number_of_reviews": null,
    "price_level": "",
    "open_hours": "",
    "extraction_timestamp": "2025-06-07T13:50:41.727Z",
    "source_name": "google",
    "source_query": "Irrigation Equipment",
    "source_country": "BG",
    "country": "Bulgaria",
    "state": "Ruse Province",
    "city": "Obshtina Borovo"
  },
  {
    "source_id": "ChIJx0EEkuclqUARrpihW8Z1FAQ",
    "name": "Profix",
    "category": "Profix",
    "formatted_address": "4,9(37)",
    "phone_number": "+359878368777",
    "source_url": "https://www.google.com/maps/place/Profix/data=!4m7!3m6!1s0x40a925e7920441c7:0x41475c65ba198ae!8m2!3d43.0789392!4d25.6088909!16s%2Fg%2F11z5fx4r9!19sChIJx0EEkuclqUARrpihW8Z1FAQ?authuser=0&hl=tr&rclk=1",
    "website_url": "http://profix.bg/",
    "rating_text": "4,9",
    "stars": null,
    "number_of_reviews": null,
    "price_level": "",
    "open_hours": "",
    "extraction_timestamp": "2025-06-07T13:50:41.728Z",
    "source_name": "google",
    "source_query": "Irrigation Equipment",
    "source_country": "BG",
    "country": "Bulgaria",
    "state": "Ruse Province",
    "city": "Obshtina Borovo"
  },
  {
    "source_id": "ChIJi8kr6ltJqUAR1s-K7GelVjY",
    "name": "Coffee \"TV\"",
    "category": "Coffee \"TV\"",
    "formatted_address": "4,0(182) · BGN 10–20",
    "phone_number": "+359895695331",
    "source_url": "https://www.google.com/maps/place/Coffee+%22TV%22/data=!4m7!3m6!1s0x40a9495bea2bc98b:0x3656a567ec8acfd6!8m2!3d43.2382664!4d25.3060842!16s%2Fg%2F1pp2vb9rq!19sChIJi8kr6ltJqUAR1s-K7GelVjY?authuser=0&hl=tr&rclk=1",
    "website_url": "",
    "rating_text": "4,0",
    "stars": null,
    "number_of_reviews": null,
    "price_level": "",
    "open_hours": "",
    "extraction_timestamp": "2025-06-07T13:50:41.730Z",
    "source_name": "google",
    "source_query": "Irrigation Equipment",
    "source_country": "BG",
    "country": "Bulgaria",
    "state": "Ruse Province",
    "city": "Obshtina Borovo"
  },
  {
    "source_id": "ChIJ27fBjv0lqUAR4KlmqGoqWaU",
    "name": "Non Stop",
    "category": "Non Stop",
    "formatted_address": "4,3(76)",
    "phone_number": "",
    "source_url": "https://www.google.com/maps/place/Non+Stop/data=!4m7!3m6!1s0x40a925fd8ec1b7db:0xa5592a6aa866a9e0!8m2!3d43.0769669!4d25.6104441!16s%2Fg%2F11f7pv0b_6!19sChIJ27fBjv0lqUAR4KlmqGoqWaU?authuser=0&hl=tr&rclk=1",
    "website_url": "",
    "rating_text": "4,3",
    "stars": null,
    "number_of_reviews": null,
    "price_level": "",
    "open_hours": "",
    "extraction_timestamp": "2025-06-07T13:50:41.731Z",
    "source_name": "google",
    "source_query": "Irrigation Equipment",
    "source_country": "BG",
    "country": "Bulgaria",
    "state": "Ruse Province",
    "city": "Obshtina Borovo"
  },
  {
    "source_id": "ChIJBSR1RmP7rkARm3ngt_dUo60",
    "name": "Food Store",
    "category": "Food Store",
    "formatted_address": "4,0(1)",
    "phone_number": "",
    "source_url": "https://www.google.com/maps/place/Food+Store/data=!4m7!3m6!1s0x40aefb6346752405:0xada354f7b7e0799b!8m2!3d43.6160272!4d26.021654!16s%2Fg%2F11s57bpm74!19sChIJBSR1RmP7rkARm3ngt_dUo60?authuser=0&hl=tr&rclk=1",
    "website_url": "",
    "rating_text": "4,0",
    "stars": null,
    "number_of_reviews": null,
    "price_level": "",
    "open_hours": "",
    "extraction_timestamp": "2025-06-07T13:50:41.731Z",
    "source_name": "google",
    "source_query": "Irrigation Equipment",
    "source_country": "BG",
    "country": "Bulgaria",
    "state": "Ruse Province",
    "city": "Obshtina Borovo"
  },
  {
    "source_id": "ChIJLczREwYmqUARG9wiskFMnCw",
    "name": "Супермаркет Класико",
    "category": "Супермаркет Класико",
    "formatted_address": "3,9(812)",
    "phone_number": "+35962600115",
    "source_url": "https://www.google.com/maps/place/%D0%A1%D1%83%D0%BF%D0%B5%D1%80%D0%BC%D0%B0%D1%80%D0%BA%D0%B5%D1%82+%D0%9A%D0%BB%D0%B0%D1%81%D0%B8%D0%BA%D0%BE/data=!4m7!3m6!1s0x40a9260613d1cc2d:0x2c9c4c41b222dc1b!8m2!3d43.084094!4d25.622013!16s%2Fg%2F11bwq9b2wj!19sChIJLczREwYmqUARG9wiskFMnCw?authuser=0&hl=tr&rclk=1",
    "website_url": "http://www.klasiko.bg/",
    "rating_text": "3,9",
    "stars": null,
    "number_of_reviews": null,
    "price_level": "",
    "open_hours": "",
    "extraction_timestamp": "2025-06-07T13:50:41.732Z",
    "source_name": "google",
    "source_query": "Irrigation Equipment",
    "source_country": "BG",
    "country": "Bulgaria",
    "state": "Ruse Province",
    "city": "Obshtina Borovo"
  },
  {
    "source_id": "ChIJ-UFXHvQtqUAR6Gv74fzpJF4",
    "name": "Food Store",
    "category": "Food Store",
    "formatted_address": "4,3(4)",
    "phone_number": "",
    "source_url": "https://www.google.com/maps/place/Food+Store/data=!4m7!3m6!1s0x40a92df41e5741f9:0x5e24e9fce1fb6be8!8m2!3d43.1842863!4d25.6197204!16s%2Fg%2F11fj0j1h54!19sChIJ-UFXHvQtqUAR6Gv74fzpJF4?authuser=0&hl=tr&rclk=1",
    "website_url": "",
    "rating_text": "4,3",
    "stars": null,
    "number_of_reviews": null,
    "price_level": "",
    "open_hours": "",
    "extraction_timestamp": "2025-06-07T13:50:41.732Z",
    "source_name": "google",
    "source_query": "Irrigation Equipment",
    "source_country": "BG",
    "country": "Bulgaria",
    "state": "Ruse Province",
    "city": "Obshtina Borovo"
  },
  {
    "source_id": "ChIJjzdsqeDBrkARadqlQFgq38E",
    "name": "Byalamarket",
    "category": "Byalamarket",
    "formatted_address": "4,3(87)",
    "phone_number": "",
    "source_url": "https://www.google.com/maps/place/Byalamarket/data=!4m7!3m6!1s0x40aec1e0a96c378f:0xc1df2a5840a5da69!8m2!3d43.4649458!4d25.7303731!16s%2Fg%2F11h2h76jxw!19sChIJjzdsqeDBrkARadqlQFgq38E?authuser=0&hl=tr&rclk=1",
    "website_url": "",
    "rating_text": "4,3",
    "stars": null,
    "number_of_reviews": null,
    "price_level": "",
    "open_hours": "",
    "extraction_timestamp": "2025-06-07T13:50:41.733Z",
    "source_name": "google",
    "source_query": "Irrigation Equipment",
    "source_country": "BG",
    "country": "Bulgaria",
    "state": "Ruse Province",
    "city": "Obshtina Borovo"
  },
  {
    "source_id": "ChIJExqf09EnqUARpm5c7lfQI5M",
    "name": "Минимаркет Митос | Easypay | Mitos Minimarket",
    "category": "Минимаркет Митос | Easypay | Mitos Minimarket",
    "formatted_address": "4,5(35)",
    "phone_number": "+359887307779",
    "source_url": "https://www.google.com/maps/place/%D0%9C%D0%B8%D0%BD%D0%B8%D0%BC%D0%B0%D1%80%D0%BA%D0%B5%D1%82+%D0%9C%D0%B8%D1%82%D0%BE%D1%81+%7C+Easypay+%7C+Mitos+Minimarket/data=!4m7!3m6!1s0x40a927d1d39f1a13:0x9323d057ee5c6ea6!8m2!3d43.0813962!4d25.6252809!16s%2Fg%2F11rccxgbyy!19sChIJExqf09EnqUARpm5c7lfQI5M?authuser=0&hl=tr&rclk=1",
    "website_url": "",
    "rating_text": "4,5",
    "stars": null,
    "number_of_reviews": null,
    "price_level": "",
    "open_hours": "",
    "extraction_timestamp": "2025-06-07T13:50:41.733Z",
    "source_name": "google",
    "source_query": "Irrigation Equipment",
    "source_country": "BG",
    "country": "Bulgaria",
    "state": "Ruse Province",
    "city": "Obshtina Borovo"
  }
]
