[
  {
    "source_id": "ChIJkV1ssPdDrkARO720aO6k47U",
    "name": "KM GROUP - IRRIGATION SYSTEMS",
    "category": "KM GROUP - IRRIGATION SYSTEMS",
    "formatted_address": "4,8(8)",
    "phone_number": "+35981789701",
    "source_url": "https://www.google.com/maps/place/KM+GROUP+-+IRRIGATION+SYSTEMS/data=!4m7!3m6!1s0x40ae43f7b06c5d91:0xb5e3a4ee68b4bd3b!8m2!3d43.943756!4d26.2045157!16s%2Fg%2F1v2jbd_j!19sChIJkV1ssPdDrkARO720aO6k47U?authuser=0&hl=tr&rclk=1",
    "website_url": "http://catalog.bg/company.php?company=47393",
    "rating_text": "4,8",
    "stars": null,
    "number_of_reviews": null,
    "price_level": "",
    "open_hours": "",
    "extraction_timestamp": "2025-06-07T13:50:19.388Z",
    "source_name": "google",
    "source_query": "Irrigation Equipment",
    "source_country": "BG",
    "country": "Bulgaria",
    "state": "Ruse Province",
    "city": "Slivo Pole"
  },
  {
    "source_id": "ChIJly0pKrdgrkARoJZC1lgKWoY",
    "name": "ПОЛИВНИ СИСТЕМИ ЕООД",
    "category": "ПОЛИВНИ СИСТЕМИ ЕООД",
    "formatted_address": "4,7(11)",
    "phone_number": "+359887424020",
    "source_url": "https://www.google.com/maps/place/%D0%9F%D0%9E%D0%9B%D0%98%D0%92%D0%9D%D0%98+%D0%A1%D0%98%D0%A1%D0%A2%D0%95%D0%9C%D0%98+%D0%95%D0%9E%D0%9E%D0%94/data=!4m7!3m6!1s0x40ae60b72a292d97:0x865a0a58d64296a0!8m2!3d43.8355713!4d25.9656554!16s%2Fg%2F1hc2rnssk!19sChIJly0pKrdgrkARoJZC1lgKWoY?authuser=0&hl=tr&rclk=1",
    "website_url": "",
    "rating_text": "4,7",
    "stars": null,
    "number_of_reviews": null,
    "price_level": "",
    "open_hours": "",
    "extraction_timestamp": "2025-06-07T13:50:19.389Z",
    "source_name": "google",
    "source_query": "Irrigation Equipment",
    "source_country": "BG",
    "country": "Bulgaria",
    "state": "Ruse Province",
    "city": "Slivo Pole"
  },
  {
    "source_id": "ChIJJbg5rIVDrkAR6kJK7k9TwGI",
    "name": "Профимакс ООД",
    "category": "Профимакс ООД",
    "formatted_address": "5,0(20)",
    "phone_number": "+359894368695",
    "source_url": "https://www.google.com/maps/place/%D0%9F%D1%80%D0%BE%D1%84%D0%B8%D0%BC%D0%B0%D0%BA%D1%81+%D0%9E%D0%9E%D0%94/data=!4m7!3m6!1s0x40ae4385ac39b825:0x62c0534fee4a42ea!8m2!3d43.9443496!4d26.2059307!16s%2Fg%2F11t9dnxd5k!19sChIJJbg5rIVDrkAR6kJK7k9TwGI?authuser=0&hl=tr&rclk=1",
    "website_url": "",
    "rating_text": "5,0",
    "stars": null,
    "number_of_reviews": null,
    "price_level": "",
    "open_hours": "",
    "extraction_timestamp": "2025-06-07T13:50:19.389Z",
    "source_name": "google",
    "source_query": "Irrigation Equipment",
    "source_country": "BG",
    "country": "Bulgaria",
    "state": "Ruse Province",
    "city": "Slivo Pole"
  },
  {
    "source_id": "ChIJD1ndUABDrkAR_fgDd0hDELY",
    "name": "AQUA&CLEAN",
    "category": "AQUA&CLEAN",
    "formatted_address": "5,0(8)",
    "phone_number": "+359898924901",
    "source_url": "https://www.google.com/maps/place/AQUA%26CLEAN/data=!4m7!3m6!1s0x40ae430050dd590f:0xb61043487703f8fd!8m2!3d43.9423849!4d26.2058362!16s%2Fg%2F11wvbdhyv_!19sChIJD1ndUABDrkAR_fgDd0hDELY?authuser=0&hl=tr&rclk=1",
    "website_url": "http://www.aquaandclean.com/",
    "rating_text": "5,0",
    "stars": null,
    "number_of_reviews": null,
    "price_level": "",
    "open_hours": "",
    "extraction_timestamp": "2025-06-07T13:50:19.390Z",
    "source_name": "google",
    "source_query": "Irrigation Equipment",
    "source_country": "BG",
    "country": "Bulgaria",
    "state": "Ruse Province",
    "city": "Slivo Pole"
  },
  {
    "source_id": "ChIJfe2p_7ZDrkARf3KbVgVSnDQ",
    "name": "Строителна Борса ДАНЧЕВ КОМЕРС ООД",
    "category": "Строителна Борса ДАНЧЕВ КОМЕРС ООД",
    "formatted_address": "4,6(116)",
    "phone_number": "+359889824556",
    "source_url": "https://www.google.com/maps/place/%D0%A1%D1%82%D1%80%D0%BE%D0%B8%D1%82%D0%B5%D0%BB%D0%BD%D0%B0+%D0%91%D0%BE%D1%80%D1%81%D0%B0+%D0%94%D0%90%D0%9D%D0%A7%D0%95%D0%92+%D0%9A%D0%9E%D0%9C%D0%95%D0%A0%D0%A1+%D0%9E%D0%9E%D0%94/data=!4m7!3m6!1s0x40ae43b6ffa9ed7d:0x349c5205569b727f!8m2!3d43.9394841!4d26.1954151!16s%2Fg%2F11gjhp1n1h!19sChIJfe2p_7ZDrkARf3KbVgVSnDQ?authuser=0&hl=tr&rclk=1",
    "website_url": "https://www.business.bg/f-47111/danchev-komers.html",
    "rating_text": "4,6",
    "stars": null,
    "number_of_reviews": null,
    "price_level": "",
    "open_hours": "",
    "extraction_timestamp": "2025-06-07T13:50:19.392Z",
    "source_name": "google",
    "source_query": "Irrigation Equipment",
    "source_country": "BG",
    "country": "Bulgaria",
    "state": "Ruse Province",
    "city": "Slivo Pole"
  },
  {
    "source_id": "ChIJE1MN-1xhrkARKqEyHI07MCo",
    "name": "OGRADKI BG",
    "category": "OGRADKI BG",
    "formatted_address": "4,3(6)",
    "phone_number": "+359895675832",
    "source_url": "https://www.google.com/maps/place/OGRADKI+BG/data=!4m7!3m6!1s0x40ae615cfb0d5313:0x2a303b8d1c32a12a!8m2!3d43.8539914!4d25.9913739!16s%2Fg%2F11jgf0rqh4!19sChIJE1MN-1xhrkARKqEyHI07MCo?authuser=0&hl=tr&rclk=1",
    "website_url": "http://www.ogradki.bg/",
    "rating_text": "4,3",
    "stars": null,
    "number_of_reviews": null,
    "price_level": "",
    "open_hours": "",
    "extraction_timestamp": "2025-06-07T13:50:19.393Z",
    "source_name": "google",
    "source_query": "Irrigation Equipment",
    "source_country": "BG",
    "country": "Bulgaria",
    "state": "Ruse Province",
    "city": "Slivo Pole"
  },
  {
    "source_id": "ChIJkV1ssPdDrkARpHJeFUNKtII",
    "name": "Kiril Danchev",
    "category": "Kiril Danchev",
    "formatted_address": "4,6(7)",
    "phone_number": "+35981312143",
    "source_url": "https://www.google.com/maps/place/Kiril+Danchev/data=!4m7!3m6!1s0x40ae43f7b06c5d91:0x82b44a43155e72a4!8m2!3d43.94178!4d26.2046099!16s%2Fg%2F1thlll0v!19sChIJkV1ssPdDrkARpHJeFUNKtII?authuser=0&hl=tr&rclk=1",
    "website_url": "",
    "rating_text": "4,6",
    "stars": null,
    "number_of_reviews": null,
    "price_level": "",
    "open_hours": "",
    "extraction_timestamp": "2025-06-07T13:50:19.393Z",
    "source_name": "google",
    "source_query": "Irrigation Equipment",
    "source_country": "BG",
    "country": "Bulgaria",
    "state": "Ruse Province",
    "city": "Slivo Pole"
  },
  {
    "source_id": "ChIJtcLQl51grkAR9a5Y_RyZsMI",
    "name": "Bul Drip",
    "category": "Bul Drip",
    "formatted_address": "",
    "phone_number": "+359887424020",
    "source_url": "https://www.google.com/maps/place/Bul+Drip/data=!4m7!3m6!1s0x40ae609d97d0c2b5:0xc2b0991cfd58aef5!8m2!3d43.8287244!4d25.9716352!16s%2Fg%2F1vljdv97!19sChIJtcLQl51grkAR9a5Y_RyZsMI?authuser=0&hl=tr&rclk=1",
    "website_url": "",
    "rating_text": "",
    "stars": null,
    "number_of_reviews": null,
    "price_level": "",
    "open_hours": "",
    "extraction_timestamp": "2025-06-07T13:50:19.393Z",
    "source_name": "google",
    "source_query": "Irrigation Equipment",
    "source_country": "BG",
    "country": "Bulgaria",
    "state": "Ruse Province",
    "city": "Slivo Pole"
  }
]
