[
  {
    "source_id": "ChIJOf0M2KLHq0AR8psbRNoZK5w",
    "name": "Dŭndi",
    "category": "Dŭndi",
    "formatted_address": "4,5(4)",
    "phone_number": "",
    "source_url": "https://www.google.com/maps/place/D%C5%ADndi/data=!4m7!3m6!1s0x40abc7a2d80cfd39:0x9c2b19da441b9bf2!8m2!3d43.0941015!4d24.4192495!16s%2Fg%2F11rscds565!19sChIJOf0M2KLHq0AR8psbRNoZK5w?authuser=0&hl=tr&rclk=1",
    "website_url": "",
    "rating_text": "4,5",
    "stars": null,
    "number_of_reviews": null,
    "price_level": "",
    "open_hours": "",
    "extraction_timestamp": "2025-06-07T13:57:50.667Z",
    "source_name": "google",
    "source_query": "Irrigation Equipment",
    "source_country": "BG",
    "country": "Bulgaria",
    "state": "Lovech Province",
    "city": "Ugarchin"
  },
  {
    "source_id": "ChIJvWRXIwDHq0ARNTaq2PbMhFw",
    "name": "Строителен Магазин гр.Угърчин",
    "category": "Строителен Магазин гр.Угърчин",
    "formatted_address": "",
    "phone_number": "+359879611101",
    "source_url": "https://www.google.com/maps/place/%D0%A1%D1%82%D1%80%D0%BE%D0%B8%D1%82%D0%B5%D0%BB%D0%B5%D0%BD+%D0%9C%D0%B0%D0%B3%D0%B0%D0%B7%D0%B8%D0%BD+%D0%B3%D1%80.%D0%A3%D0%B3%D1%8A%D1%80%D1%87%D0%B8%D0%BD/data=!4m7!3m6!1s0x40abc700235764bd:0x5c84ccf6d8aa3635!8m2!3d43.0968958!4d24.4194404!16s%2Fg%2F11vs8195f9!19sChIJvWRXIwDHq0ARNTaq2PbMhFw?authuser=0&hl=tr&rclk=1",
    "website_url": "",
    "rating_text": "",
    "stars": null,
    "number_of_reviews": null,
    "price_level": "",
    "open_hours": "",
    "extraction_timestamp": "2025-06-07T13:57:50.668Z",
    "source_name": "google",
    "source_query": "Irrigation Equipment",
    "source_country": "BG",
    "country": "Bulgaria",
    "state": "Lovech Province",
    "city": "Ugarchin"
  },
  {
    "source_id": "ChIJh5ivcvjHq0AR-V1VHkXEkIo",
    "name": "Фаворит1 Угърчин",
    "category": "Фаворит1 Угърчин",
    "formatted_address": "4,8(12)",
    "phone_number": "",
    "source_url": "https://www.google.com/maps/place/%D0%A4%D0%B0%D0%B2%D0%BE%D1%80%D0%B8%D1%821+%D0%A3%D0%B3%D1%8A%D1%80%D1%87%D0%B8%D0%BD/data=!4m7!3m6!1s0x40abc7f872af9887:0x8a90c4451e555df9!8m2!3d43.0993218!4d24.4177556!16s%2Fg%2F11jsszxktq!19sChIJh5ivcvjHq0AR-V1VHkXEkIo?authuser=0&hl=tr&rclk=1",
    "website_url": "",
    "rating_text": "4,8",
    "stars": null,
    "number_of_reviews": null,
    "price_level": "",
    "open_hours": "",
    "extraction_timestamp": "2025-06-07T13:57:50.669Z",
    "source_name": "google",
    "source_query": "Irrigation Equipment",
    "source_country": "BG",
    "country": "Bulgaria",
    "state": "Lovech Province",
    "city": "Ugarchin"
  },
  {
    "source_id": "ChIJV5mCnczUUwgRG-I5ClV8_so",
    "name": "MSDgroup-Борба с вредители-ДДД",
    "category": "MSDgroup-Борба с вредители-ДДД",
    "formatted_address": "5,0(3)",
    "phone_number": "+359884807330",
    "source_url": "https://www.google.com/maps/place/MSDgroup-%D0%91%D0%BE%D1%80%D0%B1%D0%B0+%D1%81+%D0%B2%D1%80%D0%B5%D0%B4%D0%B8%D1%82%D0%B5%D0%BB%D0%B8-%D0%94%D0%94%D0%94/data=!4m7!3m6!1s0x853d4cc9d829957:0xcafe7c550a39e21b!8m2!3d43.1445748!4d24.7167732!16s%2Fg%2F11txmbxhdb!19sChIJV5mCnczUUwgRG-I5ClV8_so?authuser=0&hl=tr&rclk=1",
    "website_url": "http://msdgroup.bg/",
    "rating_text": "5,0",
    "stars": null,
    "number_of_reviews": null,
    "price_level": "",
    "open_hours": "",
    "extraction_timestamp": "2025-06-07T13:57:50.669Z",
    "source_name": "google",
    "source_query": "Irrigation Equipment",
    "source_country": "BG",
    "country": "Bulgaria",
    "state": "Lovech Province",
    "city": "Ugarchin"
  },
  {
    "source_id": "ChIJceqv6MuEqkAR45AXk38sGOE",
    "name": "Irrigation Systems",
    "category": "Irrigation Systems",
    "formatted_address": "4,4(10)",
    "phone_number": "+35928085001",
    "source_url": "https://www.google.com/maps/place/Irrigation+Systems/data=!4m7!3m6!1s0x40aa84cbe8afea71:0xe1182c7f931790e3!8m2!3d42.6700035!4d23.2681798!16s%2Fg%2F1thtbmsl!19sChIJceqv6MuEqkAR45AXk38sGOE?authuser=0&hl=tr&rclk=1",
    "website_url": "https://nps.bg/",
    "rating_text": "4,4",
    "stars": null,
    "number_of_reviews": null,
    "price_level": "",
    "open_hours": "",
    "extraction_timestamp": "2025-06-07T13:57:50.670Z",
    "source_name": "google",
    "source_query": "Irrigation Equipment",
    "source_country": "BG",
    "country": "Bulgaria",
    "state": "Lovech Province",
    "city": "Ugarchin"
  },
  {
    "source_id": "ChIJC6mZldJ1qUARvvqCgAO7eTM",
    "name": "Строймаркет Цаков ЕООД",
    "category": "Строймаркет Цаков ЕООД",
    "formatted_address": "5,0(22)",
    "phone_number": "+359887625866",
    "source_url": "https://www.google.com/maps/place/%D0%A1%D1%82%D1%80%D0%BE%D0%B9%D0%BC%D0%B0%D1%80%D0%BA%D0%B5%D1%82+%D0%A6%D0%B0%D0%BA%D0%BE%D0%B2+%D0%95%D0%9E%D0%9E%D0%94/data=!4m7!3m6!1s0x40a975d29599a90b:0x3379bb038082fabe!8m2!3d42.8411533!4d24.9160109!16s%2Fg%2F11j1t89wdw!19sChIJC6mZldJ1qUARvvqCgAO7eTM?authuser=0&hl=tr&rclk=1",
    "website_url": "",
    "rating_text": "5,0",
    "stars": null,
    "number_of_reviews": null,
    "price_level": "",
    "open_hours": "",
    "extraction_timestamp": "2025-06-07T13:58:27.434Z",
    "source_name": "google",
    "source_query": "Irrigation Equipment",
    "source_country": "BG",
    "country": "Bulgaria",
    "state": "Lovech Province",
    "city": "Apriltsi"
  },
  {
    "source_id": "ChIJi3CUGc91qUAR4PIVzNTPGVo",
    "name": "Строителен хипермаркет Ерми",
    "category": "Строителен хипермаркет Ерми",
    "formatted_address": "4,5(82)",
    "phone_number": "+35969583242",
    "source_url": "https://www.google.com/maps/place/%D0%A1%D1%82%D1%80%D0%BE%D0%B8%D1%82%D0%B5%D0%BB%D0%B5%D0%BD+%D1%85%D0%B8%D0%BF%D0%B5%D1%80%D0%BC%D0%B0%D1%80%D0%BA%D0%B5%D1%82+%D0%95%D1%80%D0%BC%D0%B8/data=!4m7!3m6!1s0x40a975cf1994708b:0x5a19cfd4cc15f2e0!8m2!3d42.8320906!4d24.9240897!16s%2Fg%2F11g9qstmbk!19sChIJi3CUGc91qUAR4PIVzNTPGVo?authuser=0&hl=tr&rclk=1",
    "website_url": "",
    "rating_text": "4,5",
    "stars": null,
    "number_of_reviews": null,
    "price_level": "",
    "open_hours": "",
    "extraction_timestamp": "2025-06-07T13:58:27.435Z",
    "source_name": "google",
    "source_query": "Irrigation Equipment",
    "source_country": "BG",
    "country": "Bulgaria",
    "state": "Lovech Province",
    "city": "Apriltsi"
  },
  {
    "source_id": "ChIJVXSb4tl-qUAR-FZbtU56igk",
    "name": "Магазин Велчевски - всичко за дома и строителството",
    "category": "Магазин Велчевски - всичко за дома и строителството",
    "formatted_address": "4,7(70)",
    "phone_number": "+359888690362",
    "source_url": "https://www.google.com/maps/place/%D0%9C%D0%B0%D0%B3%D0%B0%D0%B7%D0%B8%D0%BD+%D0%92%D0%B5%D0%BB%D1%87%D0%B5%D0%B2%D1%81%D0%BA%D0%B8+-+%D0%B2%D1%81%D0%B8%D1%87%D0%BA%D0%BE+%D0%B7%D0%B0+%D0%B4%D0%BE%D0%BC%D0%B0+%D0%B8+%D1%81%D1%82%D1%80%D0%BE%D0%B8%D1%82%D0%B5%D0%BB%D1%81%D1%82%D0%B2%D0%BE%D1%82%D0%BE/data=!4m7!3m6!1s0x40a97ed9e29b7455:0x98a7a4eb55b56f8!8m2!3d42.8929318!4d24.7115612!16s%2Fg%2F11c1vkgvs1!19sChIJVXSb4tl-qUAR-FZbtU56igk?authuser=0&hl=tr&rclk=1",
    "website_url": "",
    "rating_text": "4,7",
    "stars": null,
    "number_of_reviews": null,
    "price_level": "",
    "open_hours": "",
    "extraction_timestamp": "2025-06-07T13:58:37.160Z",
    "source_name": "google",
    "source_query": "Irrigation Equipment",
    "source_country": "BG",
    "country": "Bulgaria",
    "state": "Lovech Province",
    "city": "Troyan"
  },
  {
    "source_id": "ChIJ8-q9vFd_qUAREeK5trEu5HE",
    "name": "Construction materials Viva Ltd.",
    "category": "Construction materials Viva Ltd.",
    "formatted_address": "4,6(331)",
    "phone_number": "+359878915745",
    "source_url": "https://www.google.com/maps/place/Construction+materials+Viva+Ltd./data=!4m7!3m6!1s0x40a97f57bcbdeaf3:0x71e42eb1b6b9e211!8m2!3d42.8594645!4d24.6830137!16s%2Fg%2F11cry0lkvq!19sChIJ8-q9vFd_qUAREeK5trEu5HE?authuser=0&hl=tr&rclk=1",
    "website_url": "",
    "rating_text": "4,6",
    "stars": null,
    "number_of_reviews": null,
    "price_level": "",
    "open_hours": "",
    "extraction_timestamp": "2025-06-07T13:58:37.160Z",
    "source_name": "google",
    "source_query": "Irrigation Equipment",
    "source_country": "BG",
    "country": "Bulgaria",
    "state": "Lovech Province",
    "city": "Troyan"
  },
  {
    "source_id": "ChIJ7Szw79h-qUAR7nCmuGMAcsw",
    "name": "Kopa Hidrosistem",
    "category": "Kopa Hidrosistem",
    "formatted_address": "4,5(62)",
    "phone_number": "+35967062185",
    "source_url": "https://www.google.com/maps/place/Kopa+Hidrosistem/data=!4m7!3m6!1s0x40a97ed8eff02ced:0xcc720063b8a670ee!8m2!3d42.9258835!4d24.7017301!16s%2Fg%2F1tw_lr5b!19sChIJ7Szw79h-qUAR7nCmuGMAcsw?authuser=0&hl=tr&rclk=1",
    "website_url": "",
    "rating_text": "4,5",
    "stars": null,
    "number_of_reviews": null,
    "price_level": "",
    "open_hours": "",
    "extraction_timestamp": "2025-06-07T13:58:37.161Z",
    "source_name": "google",
    "source_query": "Irrigation Equipment",
    "source_country": "BG",
    "country": "Bulgaria",
    "state": "Lovech Province",
    "city": "Troyan"
  },
  {
    "source_id": "ChIJZcuBijZ5qUARynh2V-YzYCo",
    "name": "Корект ООД",
    "category": "Корект ООД",
    "formatted_address": "4,7(44)",
    "phone_number": "+359886840734",
    "source_url": "https://www.google.com/maps/place/%D0%9A%D0%BE%D1%80%D0%B5%D0%BA%D1%82+%D0%9E%D0%9E%D0%94/data=!4m7!3m6!1s0x40a979368a81cb65:0x2a6033e6577678ca!8m2!3d42.8988438!4d24.7407436!16s%2Fg%2F11f54mwcyd!19sChIJZcuBijZ5qUARynh2V-YzYCo?authuser=0&hl=tr&rclk=1",
    "website_url": "",
    "rating_text": "4,7",
    "stars": null,
    "number_of_reviews": null,
    "price_level": "",
    "open_hours": "",
    "extraction_timestamp": "2025-06-07T13:58:37.161Z",
    "source_name": "google",
    "source_query": "Irrigation Equipment",
    "source_country": "BG",
    "country": "Bulgaria",
    "state": "Lovech Province",
    "city": "Troyan"
  },
  {
    "source_id": "ChIJhR8UwzV_qUARrIFKGNIomAA",
    "name": "TeMax Троян",
    "category": "TeMax Троян",
    "formatted_address": "4,4(129)",
    "phone_number": "+35967092093",
    "source_url": "https://www.google.com/maps/place/TeMax+%D0%A2%D1%80%D0%BE%D1%8F%D0%BD/data=!4m7!3m6!1s0x40a97f35c3141f85:0x9828d2184a81ac!8m2!3d42.8917644!4d24.7175466!16s%2Fg%2F11shg7f6wj!19sChIJhR8UwzV_qUARrIFKGNIomAA?authuser=0&hl=tr&rclk=1",
    "website_url": "",
    "rating_text": "4,4",
    "stars": null,
    "number_of_reviews": null,
    "price_level": "",
    "open_hours": "",
    "extraction_timestamp": "2025-06-07T13:58:37.162Z",
    "source_name": "google",
    "source_query": "Irrigation Equipment",
    "source_country": "BG",
    "country": "Bulgaria",
    "state": "Lovech Province",
    "city": "Troyan"
  },
  {
    "source_id": "ChIJxYSAMs14qUARTdog8askwA4",
    "name": "TOPLIVO - Warehouse Troyan",
    "category": "TOPLIVO - Warehouse Troyan",
    "formatted_address": "3,9(61)",
    "phone_number": "+359878802024",
    "source_url": "https://www.google.com/maps/place/TOPLIVO+-+Warehouse+Troyan/data=!4m7!3m6!1s0x40a978cd328084c5:0xec024abf120da4d!8m2!3d42.8776931!4d24.7119731!16s%2Fg%2F11g8xg2dps!19sChIJxYSAMs14qUARTdog8askwA4?authuser=0&hl=tr&rclk=1",
    "website_url": "",
    "rating_text": "3,9",
    "stars": null,
    "number_of_reviews": null,
    "price_level": "",
    "open_hours": "",
    "extraction_timestamp": "2025-06-07T13:58:37.162Z",
    "source_name": "google",
    "source_query": "Irrigation Equipment",
    "source_country": "BG",
    "country": "Bulgaria",
    "state": "Lovech Province",
    "city": "Troyan"
  },
  {
    "source_id": "ChIJjXPFVCl_qUARPDr3iYCib4w",
    "name": "Стефан Вълев ЕООД",
    "category": "Стефан Вълев ЕООД",
    "formatted_address": "4,6(128)",
    "phone_number": "+359884045666",
    "source_url": "https://www.google.com/maps/place/%D0%A1%D1%82%D0%B5%D1%84%D0%B0%D0%BD+%D0%92%D1%8A%D0%BB%D0%B5%D0%B2+%D0%95%D0%9E%D0%9E%D0%94/data=!4m7!3m6!1s0x40a97f2954c5738d:0x8c6fa28089f73a3c!8m2!3d42.8963797!4d24.7148725!16s%2Fg%2F1tz6_x6s!19sChIJjXPFVCl_qUARPDr3iYCib4w?authuser=0&hl=tr&rclk=1",
    "website_url": "",
    "rating_text": "4,6",
    "stars": null,
    "number_of_reviews": null,
    "price_level": "",
    "open_hours": "",
    "extraction_timestamp": "2025-06-07T13:58:37.163Z",
    "source_name": "google",
    "source_query": "Irrigation Equipment",
    "source_country": "BG",
    "country": "Bulgaria",
    "state": "Lovech Province",
    "city": "Troyan"
  },
  {
    "source_id": "ChIJH8FIOm9_qUARmQh5AjaQqBw",
    "name": "Магазин и сервиз за колела Bike Center Троян",
    "category": "Магазин и сервиз за колела Bike Center Троян",
    "formatted_address": "4,9(32)",
    "phone_number": "+359889395695",
    "source_url": "https://www.google.com/maps/place/%D0%9C%D0%B0%D0%B3%D0%B0%D0%B7%D0%B8%D0%BD+%D0%B8+%D1%81%D0%B5%D1%80%D0%B2%D0%B8%D0%B7+%D0%B7%D0%B0+%D0%BA%D0%BE%D0%BB%D0%B5%D0%BB%D0%B0+Bike+Center+%D0%A2%D1%80%D0%BE%D1%8F%D0%BD/data=!4m7!3m6!1s0x40a97f6f3a48c11f:0x1ca8903602790899!8m2!3d42.8896299!4d24.7097117!16s%2Fg%2F11j8xgtycf!19sChIJH8FIOm9_qUARmQh5AjaQqBw?authuser=0&hl=tr&rclk=1",
    "website_url": "",
    "rating_text": "4,9",
    "stars": null,
    "number_of_reviews": null,
    "price_level": "",
    "open_hours": "",
    "extraction_timestamp": "2025-06-07T13:58:37.163Z",
    "source_name": "google",
    "source_query": "Irrigation Equipment",
    "source_country": "BG",
    "country": "Bulgaria",
    "state": "Lovech Province",
    "city": "Troyan"
  },
  {
    "source_id": "ChIJMZkujH5_qUARJJCVfjxyojo",
    "name": "Магазин за велосипеди и сервиз Hemus Bikes Троян",
    "category": "Магазин за велосипеди и сервиз Hemus Bikes Троян",
    "formatted_address": "4,9(54)",
    "phone_number": "+359888337814",
    "source_url": "https://www.google.com/maps/place/%D0%9C%D0%B0%D0%B3%D0%B0%D0%B7%D0%B8%D0%BD+%D0%B7%D0%B0+%D0%B2%D0%B5%D0%BB%D0%BE%D1%81%D0%B8%D0%BF%D0%B5%D0%B4%D0%B8+%D0%B8+%D1%81%D0%B5%D1%80%D0%B2%D0%B8%D0%B7+Hemus+Bikes+%D0%A2%D1%80%D0%BE%D1%8F%D0%BD/data=!4m7!3m6!1s0x40a97f7e8c2e9931:0x3aa2723c7e959024!8m2!3d42.8847912!4d24.7123448!16s%2Fg%2F11ftbkrqr6!19sChIJMZkujH5_qUARJJCVfjxyojo?authuser=0&hl=tr&rclk=1",
    "website_url": "",
    "rating_text": "4,9",
    "stars": null,
    "number_of_reviews": null,
    "price_level": "",
    "open_hours": "",
    "extraction_timestamp": "2025-06-07T13:58:37.163Z",
    "source_name": "google",
    "source_query": "Irrigation Equipment",
    "source_country": "BG",
    "country": "Bulgaria",
    "state": "Lovech Province",
    "city": "Troyan"
  },
  {
    "source_id": "ChIJU74IDC1_qUARi51OZRKGM6c",
    "name": "Life Supermarket",
    "category": "Life Supermarket",
    "formatted_address": "4,3(1.942)",
    "phone_number": "+35967091001",
    "source_url": "https://www.google.com/maps/place/Life+Supermarket/data=!4m7!3m6!1s0x40a97f2d0c08be53:0xa7338612654e9d8b!8m2!3d42.8758621!4d24.7125473!16s%2Fg%2F11dz56czrf!19sChIJU74IDC1_qUARi51OZRKGM6c?authuser=0&hl=tr&rclk=1",
    "website_url": "",
    "rating_text": "4,3",
    "stars": null,
    "number_of_reviews": null,
    "price_level": "",
    "open_hours": "",
    "extraction_timestamp": "2025-06-07T13:58:37.164Z",
    "source_name": "google",
    "source_query": "Irrigation Equipment",
    "source_country": "BG",
    "country": "Bulgaria",
    "state": "Lovech Province",
    "city": "Troyan"
  },
  {
    "source_id": "ChIJhz8jJ9Z-qUAR4yvymM1xCzs",
    "name": "Little Market",
    "category": "Little Market",
    "formatted_address": "4,4(879)",
    "phone_number": "",
    "source_url": "https://www.google.com/maps/place/Little+Market/data=!4m7!3m6!1s0x40a97ed627233f87:0x3b0b71cd98f22be3!8m2!3d42.8888521!4d24.7127664!16s%2Fg%2F11dfq92p12!19sChIJhz8jJ9Z-qUAR4yvymM1xCzs?authuser=0&hl=tr&rclk=1",
    "website_url": "",
    "rating_text": "4,4",
    "stars": null,
    "number_of_reviews": null,
    "price_level": "",
    "open_hours": "",
    "extraction_timestamp": "2025-06-07T13:58:37.165Z",
    "source_name": "google",
    "source_query": "Irrigation Equipment",
    "source_country": "BG",
    "country": "Bulgaria",
    "state": "Lovech Province",
    "city": "Troyan"
  },
  {
    "source_id": "ChIJBfgmFsp4qUARQKN8He_YOrI",
    "name": "Market \"Lagat\"",
    "category": "Market \"Lagat\"",
    "formatted_address": "4,1(772)",
    "phone_number": "",
    "source_url": "https://www.google.com/maps/place/Market+%22Lagat%22/data=!4m7!3m6!1s0x40a978ca1626f805:0xb23ad8ef1d7ca340!8m2!3d42.8711283!4d24.7123175!16s%2Fg%2F11c5rt1f1l!19sChIJBfgmFsp4qUARQKN8He_YOrI?authuser=0&hl=tr&rclk=1",
    "website_url": "",
    "rating_text": "4,1",
    "stars": null,
    "number_of_reviews": null,
    "price_level": "",
    "open_hours": "",
    "extraction_timestamp": "2025-06-07T13:58:37.165Z",
    "source_name": "google",
    "source_query": "Irrigation Equipment",
    "source_country": "BG",
    "country": "Bulgaria",
    "state": "Lovech Province",
    "city": "Troyan"
  },
  {
    "source_id": "ChIJt7nFVCl_qUARp50eOYa0NeQ",
    "name": "T Market",
    "category": "T Market",
    "formatted_address": "3,7(966)",
    "phone_number": "+35970070171",
    "source_url": "https://www.google.com/maps/place/T+Market/data=!4m7!3m6!1s0x40a97f2954c5b9b7:0xe435b486391e9da7!8m2!3d42.8849997!4d24.7146639!16s%2Fg%2F12j14d1r_!19sChIJt7nFVCl_qUARp50eOYa0NeQ?authuser=0&hl=tr&rclk=1",
    "website_url": "",
    "rating_text": "3,7",
    "stars": null,
    "number_of_reviews": null,
    "price_level": "",
    "open_hours": "",
    "extraction_timestamp": "2025-06-07T13:58:37.166Z",
    "source_name": "google",
    "source_query": "Irrigation Equipment",
    "source_country": "BG",
    "country": "Bulgaria",
    "state": "Lovech Province",
    "city": "Troyan"
  },
  {
    "source_id": "ChIJLYBt_St_qUARJ-3m9RKMnvk",
    "name": "ФИРМЕН МАГАЗИН \"ВИНПРОМ - ТРОЯН\"",
    "category": "ФИРМЕН МАГАЗИН \"ВИНПРОМ - ТРОЯН\"",
    "formatted_address": "4,8(75)",
    "phone_number": "+359877370335",
    "source_url": "https://www.google.com/maps/place/%D0%A4%D0%98%D0%A0%D0%9C%D0%95%D0%9D+%D0%9C%D0%90%D0%93%D0%90%D0%97%D0%98%D0%9D+%22%D0%92%D0%98%D0%9D%D0%9F%D0%A0%D0%9E%D0%9C+-+%D0%A2%D0%A0%D0%9E%D0%AF%D0%9D%22/data=!4m7!3m6!1s0x40a97f2bfd6d802d:0xf99e8c12f5e6ed27!8m2!3d42.8866806!4d24.7123933!16s%2Fg%2F11bwqgbl1t!19sChIJLYBt_St_qUARJ-3m9RKMnvk?authuser=0&hl=tr&rclk=1",
    "website_url": "",
    "rating_text": "4,8",
    "stars": null,
    "number_of_reviews": null,
    "price_level": "",
    "open_hours": "",
    "extraction_timestamp": "2025-06-07T13:58:37.166Z",
    "source_name": "google",
    "source_query": "Irrigation Equipment",
    "source_country": "BG",
    "country": "Bulgaria",
    "state": "Lovech Province",
    "city": "Troyan"
  },
  {
    "source_id": "ChIJPTHT6it_qUARNYSVsVHuzZM",
    "name": "Obshtinski Pazari",
    "category": "Obshtinski Pazari",
    "formatted_address": "4,2(240)",
    "phone_number": "+359879816292",
    "source_url": "https://www.google.com/maps/place/Obshtinski+Pazari/data=!4m7!3m6!1s0x40a97f2bead3313d:0x93cdee51b1958435!8m2!3d42.8847062!4d24.7134805!16s%2Fg%2F1tgjjsq4!19sChIJPTHT6it_qUARNYSVsVHuzZM?authuser=0&hl=tr&rclk=1",
    "website_url": "",
    "rating_text": "4,2",
    "stars": null,
    "number_of_reviews": null,
    "price_level": "",
    "open_hours": "",
    "extraction_timestamp": "2025-06-07T13:58:37.167Z",
    "source_name": "google",
    "source_query": "Irrigation Equipment",
    "source_country": "BG",
    "country": "Bulgaria",
    "state": "Lovech Province",
    "city": "Troyan"
  },
  {
    "source_id": "ChIJbfRNywN5qUARqjcmoBUFgGc",
    "name": "ЕТ Елка Ковачева - железария",
    "category": "ЕТ Елка Ковачева - железария",
    "formatted_address": "5,0(3)",
    "phone_number": "",
    "source_url": "https://www.google.com/maps/place/%D0%95%D0%A2+%D0%95%D0%BB%D0%BA%D0%B0+%D0%9A%D0%BE%D0%B2%D0%B0%D1%87%D0%B5%D0%B2%D0%B0+-+%D0%B6%D0%B5%D0%BB%D0%B5%D0%B7%D0%B0%D1%80%D0%B8%D1%8F/data=!4m7!3m6!1s0x40a97903cb4df46d:0x67800515a02637aa!8m2!3d42.8715381!4d24.7128336!16s%2Fg%2F11mp56n5n9!19sChIJbfRNywN5qUARqjcmoBUFgGc?authuser=0&hl=tr&rclk=1",
    "website_url": "",
    "rating_text": "5,0",
    "stars": null,
    "number_of_reviews": null,
    "price_level": "",
    "open_hours": "",
    "extraction_timestamp": "2025-06-07T13:58:37.167Z",
    "source_name": "google",
    "source_query": "Irrigation Equipment",
    "source_country": "BG",
    "country": "Bulgaria",
    "state": "Lovech Province",
    "city": "Troyan"
  },
  {
    "source_id": "ChIJARFx24Z_qUARaFCjo4cBP5o",
    "name": "Магазин за хр.стоки\"Магап\" grocery store",
    "category": "Магазин за хр.стоки\"Магап\" grocery store",
    "formatted_address": "4,5(23)",
    "phone_number": "+359884005262",
    "source_url": "https://www.google.com/maps/place/%D0%9C%D0%B0%D0%B3%D0%B0%D0%B7%D0%B8%D0%BD+%D0%B7%D0%B0+%D1%85%D1%80.%D1%81%D1%82%D0%BE%D0%BA%D0%B8%22%D0%9C%D0%B0%D0%B3%D0%B0%D0%BF%22+grocery+store/data=!4m7!3m6!1s0x40a97f86db711101:0x9a3f0187a3a35068!8m2!3d42.892019!4d24.703!16s%2Fg%2F11rfs8wl1g!19sChIJARFx24Z_qUARaFCjo4cBP5o?authuser=0&hl=tr&rclk=1",
    "website_url": "",
    "rating_text": "4,5",
    "stars": null,
    "number_of_reviews": null,
    "price_level": "",
    "open_hours": "",
    "extraction_timestamp": "2025-06-07T13:58:37.167Z",
    "source_name": "google",
    "source_query": "Irrigation Equipment",
    "source_country": "BG",
    "country": "Bulgaria",
    "state": "Lovech Province",
    "city": "Troyan"
  },
  {
    "source_id": "ChIJ2_J4BJ5_qUARnRZ9l2Ew9QU",
    "name": "Техномаркет Троян",
    "category": "Техномаркет Троян",
    "formatted_address": "4,2(96)",
    "phone_number": "+359882589975",
    "source_url": "https://www.google.com/maps/place/%D0%A2%D0%B5%D1%85%D0%BD%D0%BE%D0%BC%D0%B0%D1%80%D0%BA%D0%B5%D1%82+%D0%A2%D1%80%D0%BE%D1%8F%D0%BD/data=!4m7!3m6!1s0x40a97f9e0478f2db:0x5f53061977d169d!8m2!3d42.8915634!4d24.7160625!16s%2Fg%2F11rd8rcplm!19sChIJ2_J4BJ5_qUARnRZ9l2Ew9QU?authuser=0&hl=tr&rclk=1",
    "website_url": "",
    "rating_text": "4,2",
    "stars": null,
    "number_of_reviews": null,
    "price_level": "",
    "open_hours": "",
    "extraction_timestamp": "2025-06-07T13:58:37.167Z",
    "source_name": "google",
    "source_query": "Irrigation Equipment",
    "source_country": "BG",
    "country": "Bulgaria",
    "state": "Lovech Province",
    "city": "Troyan"
  },
  {
    "source_id": "ChIJneo2pqV_qUAR2N6soxkBlb0",
    "name": "Хлебоизкусителница Троян",
    "category": "Хлебоизкусителница Троян",
    "formatted_address": "5,0(42)",
    "phone_number": "+359889647474",
    "source_url": "https://www.google.com/maps/place/%D0%A5%D0%BB%D0%B5%D0%B1%D0%BE%D0%B8%D0%B7%D0%BA%D1%83%D1%81%D0%B8%D1%82%D0%B5%D0%BB%D0%BD%D0%B8%D1%86%D0%B0+%D0%A2%D1%80%D0%BE%D1%8F%D0%BD/data=!4m7!3m6!1s0x40a97fa5a636ea9d:0xbd950119a3acded8!8m2!3d42.8628944!4d24.6942923!16s%2Fg%2F11rcgv_1sz!19sChIJneo2pqV_qUAR2N6soxkBlb0?authuser=0&hl=tr&rclk=1",
    "website_url": "",
    "rating_text": "5,0",
    "stars": null,
    "number_of_reviews": null,
    "price_level": "",
    "open_hours": "",
    "extraction_timestamp": "2025-06-07T13:58:37.168Z",
    "source_name": "google",
    "source_query": "Irrigation Equipment",
    "source_country": "BG",
    "country": "Bulgaria",
    "state": "Lovech Province",
    "city": "Troyan"
  },
  {
    "source_id": "ChIJ4VIMvCp_qUARVARBNnPdkZ0",
    "name": "магазин \"Лесидрен\"",
    "category": "магазин \"Лесидрен\"",
    "formatted_address": "4,2(36)",
    "phone_number": "+359885336228",
    "source_url": "https://www.google.com/maps/place/%D0%BC%D0%B0%D0%B3%D0%B0%D0%B7%D0%B8%D0%BD+%22%D0%9B%D0%B5%D1%81%D0%B8%D0%B4%D1%80%D0%B5%D0%BD%22/data=!4m7!3m6!1s0x40a97f2abc0c52e1:0x9d91dd7336410454!8m2!3d42.889257!4d24.7134721!16s%2Fg%2F11g4dtp96g!19sChIJ4VIMvCp_qUARVARBNnPdkZ0?authuser=0&hl=tr&rclk=1",
    "website_url": "",
    "rating_text": "4,2",
    "stars": null,
    "number_of_reviews": null,
    "price_level": "",
    "open_hours": "",
    "extraction_timestamp": "2025-06-07T13:58:37.168Z",
    "source_name": "google",
    "source_query": "Irrigation Equipment",
    "source_country": "BG",
    "country": "Bulgaria",
    "state": "Lovech Province",
    "city": "Troyan"
  },
  {
    "source_id": "ChIJjxZjtQV_qUARL_EyFAmooDA",
    "name": "Супермаркет Родопа Троян Център",
    "category": "Супермаркет Родопа Троян Център",
    "formatted_address": "4,2(15)",
    "phone_number": "+359879030046",
    "source_url": "https://www.google.com/maps/place/%D0%A1%D1%83%D0%BF%D0%B5%D1%80%D0%BC%D0%B0%D1%80%D0%BA%D0%B5%D1%82+%D0%A0%D0%BE%D0%B4%D0%BE%D0%BF%D0%B0+%D0%A2%D1%80%D0%BE%D1%8F%D0%BD+%D0%A6%D0%B5%D0%BD%D1%82%D1%8A%D1%80/data=!4m7!3m6!1s0x40a97f05b563168f:0x30a0a8091432f12f!8m2!3d42.8880135!4d24.7128839!16s%2Fg%2F11f7p9vnds!19sChIJjxZjtQV_qUARL_EyFAmooDA?authuser=0&hl=tr&rclk=1",
    "website_url": "",
    "rating_text": "4,2",
    "stars": null,
    "number_of_reviews": null,
    "price_level": "",
    "open_hours": "",
    "extraction_timestamp": "2025-06-07T13:58:37.169Z",
    "source_name": "google",
    "source_query": "Irrigation Equipment",
    "source_country": "BG",
    "country": "Bulgaria",
    "state": "Lovech Province",
    "city": "Troyan"
  },
  {
    "source_id": "ChIJv87bkHN_qUARlnwrH2z7xYg",
    "name": "Zoomania Megastore",
    "category": "Zoomania Megastore",
    "formatted_address": "4,3(20)",
    "phone_number": "+359884723491",
    "source_url": "https://www.google.com/maps/place/Zoomania+Megastore/data=!4m7!3m6!1s0x40a97f7390dbcebf:0x88c5fb6c1f2b7c96!8m2!3d42.891585!4d24.7170593!16s%2Fg%2F11v6532j7k!19sChIJv87bkHN_qUARlnwrH2z7xYg?authuser=0&hl=tr&rclk=1",
    "website_url": "",
    "rating_text": "4,3",
    "stars": null,
    "number_of_reviews": null,
    "price_level": "",
    "open_hours": "",
    "extraction_timestamp": "2025-06-07T13:58:37.169Z",
    "source_name": "google",
    "source_query": "Irrigation Equipment",
    "source_country": "BG",
    "country": "Bulgaria",
    "state": "Lovech Province",
    "city": "Troyan"
  },
  {
    "source_id": "ChIJ8dOsl4p5qUARor_fnaaCxGM",
    "name": "ПИТИЕПРОДАВНИЦА - \"ВИНПРОМ - ТРОЯН\", Орешак",
    "category": "ПИТИЕПРОДАВНИЦА - \"ВИНПРОМ - ТРОЯН\", Орешак",
    "formatted_address": "ПИТИЕПРОДАВНИЦА - \"ВИНПРОМ - ТРОЯН\", Орешак",
    "phone_number": "+359884194494",
    "source_url": "https://www.google.com/maps/place/%D0%9F%D0%98%D0%A2%D0%98%D0%95%D0%9F%D0%A0%D0%9E%D0%94%D0%90%D0%92%D0%9D%D0%98%D0%A6%D0%90+-+%22%D0%92%D0%98%D0%9D%D0%9F%D0%A0%D0%9E%D0%9C+-+%D0%A2%D0%A0%D0%9E%D0%AF%D0%9D%22,+%D0%9E%D1%80%D0%B5%D1%88%D0%B0%D0%BA/data=!4m7!3m6!1s0x40a9798a97acd3f1:0x63c482a69ddfbfa2!8m2!3d42.8627756!4d24.7814692!16s%2Fg%2F11s2r9pssn!19sChIJ8dOsl4p5qUARor_fnaaCxGM?authuser=0&hl=tr&rclk=1",
    "website_url": "",
    "rating_text": "5,0",
    "stars": null,
    "number_of_reviews": null,
    "price_level": "",
    "open_hours": "",
    "extraction_timestamp": "2025-06-07T13:58:37.169Z",
    "source_name": "google",
    "source_query": "Irrigation Equipment",
    "source_country": "BG",
    "country": "Bulgaria",
    "state": "Lovech Province",
    "city": "Troyan"
  },
  {
    "source_id": "ChIJO7aU1DR_qUAR2mgrsY-jAys",
    "name": "EXTRAMARKET",
    "category": "EXTRAMARKET",
    "formatted_address": "4,3(74)",
    "phone_number": "+359988952565",
    "source_url": "https://www.google.com/maps/place/EXTRAMARKET/data=!4m7!3m6!1s0x40a97f34d494b63b:0x2b03a38fb12b68da!8m2!3d42.8735607!4d24.7081906!16s%2Fg%2F11b6gqndxl!19sChIJO7aU1DR_qUAR2mgrsY-jAys?authuser=0&hl=tr&rclk=1",
    "website_url": "",
    "rating_text": "4,3",
    "stars": null,
    "number_of_reviews": null,
    "price_level": "",
    "open_hours": "",
    "extraction_timestamp": "2025-06-07T13:58:37.170Z",
    "source_name": "google",
    "source_query": "Irrigation Equipment",
    "source_country": "BG",
    "country": "Bulgaria",
    "state": "Lovech Province",
    "city": "Troyan"
  },
  {
    "source_id": "ChIJN5De3mx_qUAR9ZnfyFXo6Ao",
    "name": "Lidl",
    "category": "Lidl",
    "formatted_address": "4,4(915)",
    "phone_number": "+35929066444",
    "source_url": "https://www.google.com/maps/place/Lidl/data=!4m7!3m6!1s0x40a97f6cdede9037:0xae8e855c8df99f5!8m2!3d42.89178!4d24.71541!16s%2Fg%2F11r8mbk75c!19sChIJN5De3mx_qUAR9ZnfyFXo6Ao?authuser=0&hl=tr&rclk=1",
    "website_url": "",
    "rating_text": "4,4",
    "stars": null,
    "number_of_reviews": null,
    "price_level": "",
    "open_hours": "",
    "extraction_timestamp": "2025-06-07T13:58:37.170Z",
    "source_name": "google",
    "source_query": "Irrigation Equipment",
    "source_country": "BG",
    "country": "Bulgaria",
    "state": "Lovech Province",
    "city": "Troyan"
  },
  {
    "source_id": "ChIJa2cz2wV5qUARaXoGct38ui4",
    "name": "Супер маркет Слънце",
    "category": "Супер маркет Слънце",
    "formatted_address": "4,1(42)",
    "phone_number": "",
    "source_url": "https://www.google.com/maps/place/%D0%A1%D1%83%D0%BF%D0%B5%D1%80+%D0%BC%D0%B0%D1%80%D0%BA%D0%B5%D1%82+%D0%A1%D0%BB%D1%8A%D0%BD%D1%86%D0%B5/data=!4m7!3m6!1s0x40a97905db33676b:0x2ebafcdd72067a69!8m2!3d42.8946225!4d24.7495846!16s%2Fg%2F11t1dsf02c!19sChIJa2cz2wV5qUARaXoGct38ui4?authuser=0&hl=tr&rclk=1",
    "website_url": "",
    "rating_text": "4,1",
    "stars": null,
    "number_of_reviews": null,
    "price_level": "",
    "open_hours": "",
    "extraction_timestamp": "2025-06-07T13:58:37.170Z",
    "source_name": "google",
    "source_query": "Irrigation Equipment",
    "source_country": "BG",
    "country": "Bulgaria",
    "state": "Lovech Province",
    "city": "Troyan"
  },
  {
    "source_id": "ChIJD2H4SdZ-qUARFGbLeRP-Oo0",
    "name": "Зоомагазин Зоомаркет",
    "category": "Зоомагазин Зоомаркет",
    "formatted_address": "4,6(20)",
    "phone_number": "+359894734849",
    "source_url": "https://www.google.com/maps/place/%D0%97%D0%BE%D0%BE%D0%BC%D0%B0%D0%B3%D0%B0%D0%B7%D0%B8%D0%BD+%D0%97%D0%BE%D0%BE%D0%BC%D0%B0%D1%80%D0%BA%D0%B5%D1%82/data=!4m7!3m6!1s0x40a97ed649f8610f:0x8d3afe1379cb6614!8m2!3d42.889945!4d24.7127438!16s%2Fg%2F11g9vwcjk4!19sChIJD2H4SdZ-qUARFGbLeRP-Oo0?authuser=0&hl=tr&rclk=1",
    "website_url": "",
    "rating_text": "4,6",
    "stars": null,
    "number_of_reviews": null,
    "price_level": "",
    "open_hours": "",
    "extraction_timestamp": "2025-06-07T13:58:37.171Z",
    "source_name": "google",
    "source_query": "Irrigation Equipment",
    "source_country": "BG",
    "country": "Bulgaria",
    "state": "Lovech Province",
    "city": "Troyan"
  },
  {
    "source_id": "ChIJB9touPY0qkARUAp6_qFC8DE",
    "name": "Маки и Милс ТМ ООД",
    "category": "Маки и Милс ТМ ООД",
    "formatted_address": "4,6(198)",
    "phone_number": "+359886366272",
    "source_url": "https://www.google.com/maps/place/%D0%9C%D0%B0%D0%BA%D0%B8+%D0%B8+%D0%9C%D0%B8%D0%BB%D1%81+%D0%A2%D0%9C+%D0%9E%D0%9E%D0%94/data=!4m7!3m6!1s0x40aa34f6b868db07:0x31f042a1fe7a0a50!8m2!3d42.9226871!4d24.2491803!16s%2Fg%2F11g8xgl06g!19sChIJB9touPY0qkARUAp6_qFC8DE?authuser=0&hl=tr&rclk=1",
    "website_url": "",
    "rating_text": "4,6",
    "stars": null,
    "number_of_reviews": null,
    "price_level": "",
    "open_hours": "",
    "extraction_timestamp": "2025-06-07T13:58:45.670Z",
    "source_name": "google",
    "source_query": "Irrigation Equipment",
    "source_country": "BG",
    "country": "Bulgaria",
    "state": "Lovech Province",
    "city": "Teteven"
  },
  {
    "source_id": "ChIJry0mUjE1qkARuol9ZcyGPtY",
    "name": "Магазин \"Лесидрен\"",
    "category": "Магазин \"Лесидрен\"",
    "formatted_address": "4,4(132)",
    "phone_number": "+359885337992",
    "source_url": "https://www.google.com/maps/place/%D0%9C%D0%B0%D0%B3%D0%B0%D0%B7%D0%B8%D0%BD+%22%D0%9B%D0%B5%D1%81%D0%B8%D0%B4%D1%80%D0%B5%D0%BD%22/data=!4m7!3m6!1s0x40aa353152262daf:0xd63e86cc657d89ba!8m2!3d42.9165961!4d24.2644104!16s%2Fg%2F11f9xqp1q6!19sChIJry0mUjE1qkARuol9ZcyGPtY?authuser=0&hl=tr&rclk=1",
    "website_url": "",
    "rating_text": "4,4",
    "stars": null,
    "number_of_reviews": null,
    "price_level": "",
    "open_hours": "",
    "extraction_timestamp": "2025-06-07T13:58:45.671Z",
    "source_name": "google",
    "source_query": "Irrigation Equipment",
    "source_country": "BG",
    "country": "Bulgaria",
    "state": "Lovech Province",
    "city": "Teteven"
  },
  {
    "source_id": "ChIJde6LndwzqkARF2sX04Flnxg",
    "name": "СУПЕРМАРКЕТ БИЛЯНА",
    "category": "СУПЕРМАРКЕТ БИЛЯНА",
    "formatted_address": "4,4(217)",
    "phone_number": "",
    "source_url": "https://www.google.com/maps/place/%D0%A1%D0%A3%D0%9F%D0%95%D0%A0%D0%9C%D0%90%D0%A0%D0%9A%D0%95%D0%A2+%D0%91%D0%98%D0%9B%D0%AF%D0%9D%D0%90/data=!4m7!3m6!1s0x40aa33dc9d8bee75:0x189f6581d3176b17!8m2!3d42.9129286!4d24.2813514!16s%2Fg%2F11fhrz357h!19sChIJde6LndwzqkARF2sX04Flnxg?authuser=0&hl=tr&rclk=1",
    "website_url": "",
    "rating_text": "4,4",
    "stars": null,
    "number_of_reviews": null,
    "price_level": "",
    "open_hours": "",
    "extraction_timestamp": "2025-06-07T13:58:45.672Z",
    "source_name": "google",
    "source_query": "Irrigation Equipment",
    "source_country": "BG",
    "country": "Bulgaria",
    "state": "Lovech Province",
    "city": "Teteven"
  },
  {
    "source_id": "ChIJJbrUA4k0qkARePg5I-OI4Uk",
    "name": "T MARKET",
    "category": "T MARKET",
    "formatted_address": "3,8(577)",
    "phone_number": "+35970070171",
    "source_url": "https://www.google.com/maps/place/T+MARKET/data=!4m7!3m6!1s0x40aa348903d4ba25:0x49e188e32339f878!8m2!3d42.9177749!4d24.2644112!16s%2Fg%2F11c5fy7y05!19sChIJJbrUA4k0qkARePg5I-OI4Uk?authuser=0&hl=tr&rclk=1",
    "website_url": "",
    "rating_text": "3,8",
    "stars": null,
    "number_of_reviews": null,
    "price_level": "",
    "open_hours": "",
    "extraction_timestamp": "2025-06-07T13:58:45.672Z",
    "source_name": "google",
    "source_query": "Irrigation Equipment",
    "source_country": "BG",
    "country": "Bulgaria",
    "state": "Lovech Province",
    "city": "Teteven"
  },
  {
    "source_id": "ChIJS_-XuJQ1qkAR9BrM3L-ZXKI",
    "name": "Туристически информационен център Тетевен",
    "category": "Туристически информационен център Тетевен",
    "formatted_address": "5,0(4)",
    "phone_number": "",
    "source_url": "https://www.google.com/maps/place/%D0%A2%D1%83%D1%80%D0%B8%D1%81%D1%82%D0%B8%D1%87%D0%B5%D1%81%D0%BA%D0%B8+%D0%B8%D0%BD%D1%84%D0%BE%D1%80%D0%BC%D0%B0%D1%86%D0%B8%D0%BE%D0%BD%D0%B5%D0%BD+%D1%86%D0%B5%D0%BD%D1%82%D1%8A%D1%80+%D0%A2%D0%B5%D1%82%D0%B5%D0%B2%D0%B5%D0%BD/data=!4m7!3m6!1s0x40aa3594b897ff4b:0xa25c99bfdccc1af4!8m2!3d42.917251!4d24.2588827!16s%2Fg%2F11rbkxj8nj!19sChIJS_-XuJQ1qkAR9BrM3L-ZXKI?authuser=0&hl=tr&rclk=1",
    "website_url": "",
    "rating_text": "5,0",
    "stars": null,
    "number_of_reviews": null,
    "price_level": "",
    "open_hours": "",
    "extraction_timestamp": "2025-06-07T13:58:45.672Z",
    "source_name": "google",
    "source_query": "Irrigation Equipment",
    "source_country": "BG",
    "country": "Bulgaria",
    "state": "Lovech Province",
    "city": "Teteven"
  },
  {
    "source_id": "ChIJ1USJ9h01qkARJYYUvf2VGC4",
    "name": "Супермаркет \"Централ\"",
    "category": "Супермаркет \"Централ\"",
    "formatted_address": "4,2(39)",
    "phone_number": "",
    "source_url": "https://www.google.com/maps/place/%D0%A1%D1%83%D0%BF%D0%B5%D1%80%D0%BC%D0%B0%D1%80%D0%BA%D0%B5%D1%82+%22%D0%A6%D0%B5%D0%BD%D1%82%D1%80%D0%B0%D0%BB%22/data=!4m7!3m6!1s0x40aa351df68944d5:0x2e1895fdbd148625!8m2!3d42.9199991!4d24.2580706!16s%2Fg%2F11gnpxxxcf!19sChIJ1USJ9h01qkARJYYUvf2VGC4?authuser=0&hl=tr&rclk=1",
    "website_url": "",
    "rating_text": "4,2",
    "stars": null,
    "number_of_reviews": null,
    "price_level": "",
    "open_hours": "",
    "extraction_timestamp": "2025-06-07T13:58:45.673Z",
    "source_name": "google",
    "source_query": "Irrigation Equipment",
    "source_country": "BG",
    "country": "Bulgaria",
    "state": "Lovech Province",
    "city": "Teteven"
  },
  {
    "source_id": "ChIJaTkAdXI1qkARQBVSJjE4JFc",
    "name": "Хранителен Магазин \"ПЕП и П\"",
    "category": "Хранителен Магазин \"ПЕП и П\"",
    "formatted_address": "5,0(1)",
    "phone_number": "+359884640857",
    "source_url": "https://www.google.com/maps/place/%D0%A5%D1%80%D0%B0%D0%BD%D0%B8%D1%82%D0%B5%D0%BB%D0%B5%D0%BD+%D0%9C%D0%B0%D0%B3%D0%B0%D0%B7%D0%B8%D0%BD+%22%D0%9F%D0%95%D0%9F+%D0%B8+%D0%9F%22/data=!4m7!3m6!1s0x40aa357275003969:0x5724383126521540!8m2!3d42.9194829!4d24.2619317!16s%2Fg%2F11w2dbp29f!19sChIJaTkAdXI1qkARQBVSJjE4JFc?authuser=0&hl=tr&rclk=1",
    "website_url": "",
    "rating_text": "5,0",
    "stars": null,
    "number_of_reviews": null,
    "price_level": "",
    "open_hours": "",
    "extraction_timestamp": "2025-06-07T13:58:45.673Z",
    "source_name": "google",
    "source_query": "Irrigation Equipment",
    "source_country": "BG",
    "country": "Bulgaria",
    "state": "Lovech Province",
    "city": "Teteven"
  },
  {
    "source_id": "ChIJIdVvHDY1qkARQ-BhrJAlTHw",
    "name": "Магазин ТЕДИВАС",
    "category": "Магазин ТЕДИВАС",
    "formatted_address": "4,5(27)",
    "phone_number": "+359893384003",
    "source_url": "https://www.google.com/maps/place/%D0%9C%D0%B0%D0%B3%D0%B0%D0%B7%D0%B8%D0%BD+%D0%A2%D0%95%D0%94%D0%98%D0%92%D0%90%D0%A1/data=!4m7!3m6!1s0x40aa35361c6fd521:0x7c4c2590ac61e043!8m2!3d42.9182716!4d24.258932!16s%2Fg%2F11gjzjkgz7!19sChIJIdVvHDY1qkARQ-BhrJAlTHw?authuser=0&hl=tr&rclk=1",
    "website_url": "",
    "rating_text": "4,5",
    "stars": null,
    "number_of_reviews": null,
    "price_level": "",
    "open_hours": "",
    "extraction_timestamp": "2025-06-07T13:58:45.674Z",
    "source_name": "google",
    "source_query": "Irrigation Equipment",
    "source_country": "BG",
    "country": "Bulgaria",
    "state": "Lovech Province",
    "city": "Teteven"
  },
  {
    "source_id": "ChIJZWMiJVFXqkARQgDFOLoABHE",
    "name": "Irrigation systems",
    "category": "Irrigation systems",
    "formatted_address": "3,0(1)",
    "phone_number": "",
    "source_url": "https://www.google.com/maps/place/Irrigation+systems/data=!4m7!3m6!1s0x40aa575125226365:0x710400ba38c50042!8m2!3d42.9101731!4d23.8037135!16s%2Fg%2F11g9f5s4_z!19sChIJZWMiJVFXqkARQgDFOLoABHE?authuser=0&hl=tr&rclk=1",
    "website_url": "",
    "rating_text": "3,0",
    "stars": null,
    "number_of_reviews": null,
    "price_level": "",
    "open_hours": "",
    "extraction_timestamp": "2025-06-07T13:58:45.674Z",
    "source_name": "google",
    "source_query": "Irrigation Equipment",
    "source_country": "BG",
    "country": "Bulgaria",
    "state": "Lovech Province",
    "city": "Teteven"
  },
  {
    "source_id": "ChIJDWIRqV-jq0AR_IEx9uaf8aU",
    "name": "Йови ГРУП ООД",
    "category": "Йови ГРУП ООД",
    "formatted_address": "4,9(115)",
    "phone_number": "+359890909377",
    "source_url": "https://www.google.com/maps/place/%D0%99%D0%BE%D0%B2%D0%B8+%D0%93%D0%A0%D0%A3%D0%9F+%D0%9E%D0%9E%D0%94/data=!4m7!3m6!1s0x40aba35fa911620d:0xa5f19fe6f63181fc!8m2!3d43.2037813!4d24.1658579!16s%2Fg%2F11f3bqbbxk!19sChIJDWIRqV-jq0AR_IEx9uaf8aU?authuser=0&hl=tr&rclk=1",
    "website_url": "",
    "rating_text": "4,9",
    "stars": null,
    "number_of_reviews": null,
    "price_level": "",
    "open_hours": "",
    "extraction_timestamp": "2025-06-07T13:58:55.995Z",
    "source_name": "google",
    "source_query": "Irrigation Equipment",
    "source_country": "BG",
    "country": "Bulgaria",
    "state": "Lovech Province",
    "city": "Lukovit"
  },
  {
    "source_id": "ChIJS8VabqCkq0ARVPG1S98E3Ag",
    "name": "Магазин за строителни материали “МОНЕВ БГ” ООД",
    "category": "Магазин за строителни материали “МОНЕВ БГ” ООД",
    "formatted_address": "4,7(86)",
    "phone_number": "+35969752251",
    "source_url": "https://www.google.com/maps/place/%D0%9C%D0%B0%D0%B3%D0%B0%D0%B7%D0%B8%D0%BD+%D0%B7%D0%B0+%D1%81%D1%82%D1%80%D0%BE%D0%B8%D1%82%D0%B5%D0%BB%D0%BD%D0%B8+%D0%BC%D0%B0%D1%82%D0%B5%D1%80%D0%B8%D0%B0%D0%BB%D0%B8+%E2%80%9C%D0%9C%D0%9E%D0%9D%D0%95%D0%92+%D0%91%D0%93%E2%80%9D+%D0%9E%D0%9E%D0%94/data=!4m7!3m6!1s0x40aba4a06e5ac54b:0x8dc04df4bb5f154!8m2!3d43.2017368!4d24.1631539!16s%2Fg%2F11b7q64kp1!19sChIJS8VabqCkq0ARVPG1S98E3Ag?authuser=0&hl=tr&rclk=1",
    "website_url": "",
    "rating_text": "4,7",
    "stars": null,
    "number_of_reviews": null,
    "price_level": "",
    "open_hours": "",
    "extraction_timestamp": "2025-06-07T13:58:55.996Z",
    "source_name": "google",
    "source_query": "Irrigation Equipment",
    "source_country": "BG",
    "country": "Bulgaria",
    "state": "Lovech Province",
    "city": "Lukovit"
  },
  {
    "source_id": "ChIJGXdzsV-jq0ARu1NM2MgaJhA",
    "name": "Zdravets",
    "category": "Zdravets",
    "formatted_address": "4,6(308)",
    "phone_number": "",
    "source_url": "https://www.google.com/maps/place/Zdravets/data=!4m7!3m6!1s0x40aba35fb1737719:0x10261ac8d84c53bb!8m2!3d43.2039656!4d24.1651556!16s%2Fg%2F1pzpj5xm_!19sChIJGXdzsV-jq0ARu1NM2MgaJhA?authuser=0&hl=tr&rclk=1",
    "website_url": "",
    "rating_text": "4,6",
    "stars": null,
    "number_of_reviews": null,
    "price_level": "",
    "open_hours": "",
    "extraction_timestamp": "2025-06-07T13:58:55.996Z",
    "source_name": "google",
    "source_query": "Irrigation Equipment",
    "source_country": "BG",
    "country": "Bulgaria",
    "state": "Lovech Province",
    "city": "Lukovit"
  },
  {
    "source_id": "ChIJ95WKZ9ajq0AR0d6M3LylyWw",
    "name": "ВиК Ловеч, район Луковит",
    "category": "ВиК Ловеч, район Луковит",
    "formatted_address": "ВиК Ловеч, район Луковит",
    "phone_number": "+359889404154",
    "source_url": "https://www.google.com/maps/place/%D0%92%D0%B8%D0%9A+%D0%9B%D0%BE%D0%B2%D0%B5%D1%87,+%D1%80%D0%B0%D0%B9%D0%BE%D0%BD+%D0%9B%D1%83%D0%BA%D0%BE%D0%B2%D0%B8%D1%82/data=!4m7!3m6!1s0x40aba3d6678a95f7:0x6cc9a5bcdc8cded1!8m2!3d43.2089342!4d24.1681244!16s%2Fg%2F11f8wm0m1w!19sChIJ95WKZ9ajq0AR0d6M3LylyWw?authuser=0&hl=tr&rclk=1",
    "website_url": "",
    "rating_text": "4,0",
    "stars": null,
    "number_of_reviews": null,
    "price_level": "",
    "open_hours": "",
    "extraction_timestamp": "2025-06-07T13:58:56.005Z",
    "source_name": "google",
    "source_query": "Irrigation Equipment",
    "source_country": "BG",
    "country": "Bulgaria",
    "state": "Lovech Province",
    "city": "Lukovit"
  },
  {
    "source_id": "ChIJ4yhZg12jq0ARJWXPfs8jHi8",
    "name": "Targovski Kompleks Inter",
    "category": "Targovski Kompleks Inter",
    "formatted_address": "4,1(345)",
    "phone_number": "+35969753444",
    "source_url": "https://www.google.com/maps/place/Targovski+Kompleks+Inter/data=!4m7!3m6!1s0x40aba35d835928e3:0x2f1e23cf7ecf6525!8m2!3d43.2067912!4d24.1654788!16s%2Fg%2F1tlvn0jv!19sChIJ4yhZg12jq0ARJWXPfs8jHi8?authuser=0&hl=tr&rclk=1",
    "website_url": "",
    "rating_text": "4,1",
    "stars": null,
    "number_of_reviews": null,
    "price_level": "",
    "open_hours": "",
    "extraction_timestamp": "2025-06-07T13:58:56.005Z",
    "source_name": "google",
    "source_query": "Irrigation Equipment",
    "source_country": "BG",
    "country": "Bulgaria",
    "state": "Lovech Province",
    "city": "Lukovit"
  },
  {
    "source_id": "ChIJCcZh8f2jq0AR3jCnntllMNY",
    "name": "CoShare Area",
    "category": "CoShare Area",
    "formatted_address": "4,9(53) · BGN 1–10",
    "phone_number": "",
    "source_url": "https://www.google.com/maps/place/CoShare+Area/data=!4m7!3m6!1s0x40aba3fdf161c609:0xd63065d99ea730de!8m2!3d43.2026126!4d24.1681017!16s%2Fg%2F11vzgmbjv8!19sChIJCcZh8f2jq0AR3jCnntllMNY?authuser=0&hl=tr&rclk=1",
    "website_url": "",
    "rating_text": "4,9",
    "stars": null,
    "number_of_reviews": null,
    "price_level": "",
    "open_hours": "",
    "extraction_timestamp": "2025-06-07T13:58:56.006Z",
    "source_name": "google",
    "source_query": "Irrigation Equipment",
    "source_country": "BG",
    "country": "Bulgaria",
    "state": "Lovech Province",
    "city": "Lukovit"
  },
  {
    "source_id": "ChIJtUlyIOClq0ARCpvulP626OY",
    "name": "Zlaten Park",
    "category": "Zlaten Park",
    "formatted_address": "4,8(4.132)",
    "phone_number": "",
    "source_url": "https://www.google.com/maps/place/Zlaten+Park/data=!4m7!3m6!1s0x40aba5e0207249b5:0xe6e8b6fe94ee9b0a!8m2!3d43.1992125!4d24.1578727!16s%2Fg%2F11kxkyb32l!19sChIJtUlyIOClq0ARCpvulP626OY?authuser=0&hl=tr&rclk=1",
    "website_url": "",
    "rating_text": "4,8",
    "stars": null,
    "number_of_reviews": null,
    "price_level": "",
    "open_hours": "",
    "extraction_timestamp": "2025-06-07T13:58:56.006Z",
    "source_name": "google",
    "source_query": "Irrigation Equipment",
    "source_country": "BG",
    "country": "Bulgaria",
    "state": "Lovech Province",
    "city": "Lukovit"
  },
  {
    "source_id": "ChIJA174L2mjq0ARAOPUV0_WeQM",
    "name": "Lidl",
    "category": "Lidl",
    "formatted_address": "4,4(1.877)",
    "phone_number": "+35929066444",
    "source_url": "https://www.google.com/maps/place/Lidl/data=!4m7!3m6!1s0x40aba3692ff85e03:0x379d64f57d4e300!8m2!3d43.2142725!4d24.1655062!16s%2Fg%2F1ydpvd4dx!19sChIJA174L2mjq0ARAOPUV0_WeQM?authuser=0&hl=tr&rclk=1",
    "website_url": "",
    "rating_text": "4,4",
    "stars": null,
    "number_of_reviews": null,
    "price_level": "",
    "open_hours": "",
    "extraction_timestamp": "2025-06-07T13:58:56.007Z",
    "source_name": "google",
    "source_query": "Irrigation Equipment",
    "source_country": "BG",
    "country": "Bulgaria",
    "state": "Lovech Province",
    "city": "Lukovit"
  },
  {
    "source_id": "ChIJidXAVqekq0ARDliqK9H-feo",
    "name": "DonSoft - CCTV, Alarms, Radio",
    "category": "DonSoft - CCTV, Alarms, Radio",
    "formatted_address": "DonSoft - CCTV, Alarms, Radio",
    "phone_number": "+359888819223",
    "source_url": "https://www.google.com/maps/place/DonSoft+-+CCTV,+Alarms,+Radio/data=!4m7!3m6!1s0x40aba4a756c0d589:0xea7dfed12baa580e!8m2!3d43.2018403!4d24.1675568!16s%2Fg%2F11b7yc94ll!19sChIJidXAVqekq0ARDliqK9H-feo?authuser=0&hl=tr&rclk=1",
    "website_url": "",
    "rating_text": "4,8",
    "stars": null,
    "number_of_reviews": null,
    "price_level": "",
    "open_hours": "",
    "extraction_timestamp": "2025-06-07T13:58:56.008Z",
    "source_name": "google",
    "source_query": "Irrigation Equipment",
    "source_country": "BG",
    "country": "Bulgaria",
    "state": "Lovech Province",
    "city": "Lukovit"
  },
  {
    "source_id": "ChIJ6ZeqK2ejq0AR_ug7dn401EQ",
    "name": "T MARKET",
    "category": "T MARKET",
    "formatted_address": "3,8(561)",
    "phone_number": "+35970070171",
    "source_url": "https://www.google.com/maps/place/T+MARKET/data=!4m7!3m6!1s0x40aba3672baa97e9:0x44d4347e763be8fe!8m2!3d43.2075637!4d24.1623973!16s%2Fg%2F11b5k79c5y!19sChIJ6ZeqK2ejq0AR_ug7dn401EQ?authuser=0&hl=tr&rclk=1",
    "website_url": "",
    "rating_text": "3,8",
    "stars": null,
    "number_of_reviews": null,
    "price_level": "",
    "open_hours": "",
    "extraction_timestamp": "2025-06-07T13:58:56.008Z",
    "source_name": "google",
    "source_query": "Irrigation Equipment",
    "source_country": "BG",
    "country": "Bulgaria",
    "state": "Lovech Province",
    "city": "Lukovit"
  },
  {
    "source_id": "ChIJj4TvGZmjq0ARlhWrbQ31d3U",
    "name": "Дончев Строй 90 ЕООД",
    "category": "Дончев Строй 90 ЕООД",
    "formatted_address": "Yapı Malzemeleri Mağazası · ул, Св.Св.Кирил и Методий 54Kapalı ⋅ Açılış zamanı: Paz 08:30 · +359 87 629 2908",
    "phone_number": "+359876292908",
    "source_url": "https://www.google.com/maps/place/%D0%94%D0%BE%D0%BD%D1%87%D0%B5%D0%B2+%D0%A1%D1%82%D1%80%D0%BE%D0%B9+90+%D0%95%D0%9E%D0%9E%D0%94/data=!4m7!3m6!1s0x40aba39919ef848f:0x7577f50d6dab1596!8m2!3d43.2039549!4d24.1712809!16s%2Fg%2F11hq7hv3h1!19sChIJj4TvGZmjq0ARlhWrbQ31d3U?authuser=0&hl=tr&rclk=1",
    "website_url": "",
    "rating_text": "",
    "stars": null,
    "number_of_reviews": null,
    "price_level": "",
    "open_hours": "",
    "extraction_timestamp": "2025-06-07T13:58:56.009Z",
    "source_name": "google",
    "source_query": "Irrigation Equipment",
    "source_country": "BG",
    "country": "Bulgaria",
    "state": "Lovech Province",
    "city": "Lukovit"
  },
  {
    "source_id": "ChIJKf__Nz6jq0ARN-pb8NhVHdk",
    "name": "Моят магазин Червенобрежкото",
    "category": "Моят магазин Червенобрежкото",
    "formatted_address": "4,6(46)",
    "phone_number": "+359878966077",
    "source_url": "https://www.google.com/maps/place/%D0%9C%D0%BE%D1%8F%D1%82+%D0%BC%D0%B0%D0%B3%D0%B0%D0%B7%D0%B8%D0%BD+%D0%A7%D0%B5%D1%80%D0%B2%D0%B5%D0%BD%D0%BE%D0%B1%D1%80%D0%B5%D0%B6%D0%BA%D0%BE%D1%82%D0%BE/data=!4m7!3m6!1s0x40aba33e37ffff29:0xd91d55d8f05bea37!8m2!3d43.2128933!4d24.1562608!16s%2Fg%2F11sfrq_0yw!19sChIJKf__Nz6jq0ARN-pb8NhVHdk?authuser=0&hl=tr&rclk=1",
    "website_url": "",
    "rating_text": "4,6",
    "stars": null,
    "number_of_reviews": null,
    "price_level": "",
    "open_hours": "",
    "extraction_timestamp": "2025-06-07T13:58:56.009Z",
    "source_name": "google",
    "source_query": "Irrigation Equipment",
    "source_country": "BG",
    "country": "Bulgaria",
    "state": "Lovech Province",
    "city": "Lukovit"
  },
  {
    "source_id": "ChIJ8dJ4Plmjq0ARzHVyYoWbyN0",
    "name": "Моят Магазин",
    "category": "Моят Магазин",
    "formatted_address": "4,4(93)",
    "phone_number": "+359887817474",
    "source_url": "https://www.google.com/maps/place/%D0%9C%D0%BE%D1%8F%D1%82+%D0%9C%D0%B0%D0%B3%D0%B0%D0%B7%D0%B8%D0%BD/data=!4m7!3m6!1s0x40aba3593e78d2f1:0xddc89b85627275cc!8m2!3d43.2040704!4d24.1712824!16s%2Fg%2F11cs0zrd0f!19sChIJ8dJ4Plmjq0ARzHVyYoWbyN0?authuser=0&hl=tr&rclk=1",
    "website_url": "",
    "rating_text": "4,4",
    "stars": null,
    "number_of_reviews": null,
    "price_level": "",
    "open_hours": "",
    "extraction_timestamp": "2025-06-07T13:58:56.009Z",
    "source_name": "google",
    "source_query": "Irrigation Equipment",
    "source_country": "BG",
    "country": "Bulgaria",
    "state": "Lovech Province",
    "city": "Lukovit"
  },
  {
    "source_id": "ChIJf3qbsiijq0AR6YVrwK6erVk",
    "name": "Бакалия Грънчаров",
    "category": "Бакалия Грънчаров",
    "formatted_address": "4,3(8)",
    "phone_number": "",
    "source_url": "https://www.google.com/maps/place/%D0%91%D0%B0%D0%BA%D0%B0%D0%BB%D0%B8%D1%8F+%D0%93%D1%80%D1%8A%D0%BD%D1%87%D0%B0%D1%80%D0%BE%D0%B2/data=!4m7!3m6!1s0x40aba328b29b7a7f:0x59ad9eaec06b85e9!8m2!3d43.2035255!4d24.1644133!16s%2Fg%2F11j4fn0d_0!19sChIJf3qbsiijq0AR6YVrwK6erVk?authuser=0&hl=tr&rclk=1",
    "website_url": "",
    "rating_text": "4,3",
    "stars": null,
    "number_of_reviews": null,
    "price_level": "",
    "open_hours": "",
    "extraction_timestamp": "2025-06-07T13:58:56.010Z",
    "source_name": "google",
    "source_query": "Irrigation Equipment",
    "source_country": "BG",
    "country": "Bulgaria",
    "state": "Lovech Province",
    "city": "Lukovit"
  },
  {
    "source_id": "ChIJ_eLbzF-jq0ARC_gi7ktRPlA",
    "name": "Breakfast Restaurant",
    "category": "Breakfast Restaurant",
    "formatted_address": "4,4(219) · BGN 1–10",
    "phone_number": "",
    "source_url": "https://www.google.com/maps/place/Breakfast+Restaurant/data=!4m7!3m6!1s0x40aba35fccdbe2fd:0x503e514bee22f80b!8m2!3d43.2045003!4d24.1643993!16s%2Fg%2F11f11p1xzd!19sChIJ_eLbzF-jq0ARC_gi7ktRPlA?authuser=0&hl=tr&rclk=1",
    "website_url": "",
    "rating_text": "4,4",
    "stars": null,
    "number_of_reviews": null,
    "price_level": "",
    "open_hours": "",
    "extraction_timestamp": "2025-06-07T13:58:56.010Z",
    "source_name": "google",
    "source_query": "Irrigation Equipment",
    "source_country": "BG",
    "country": "Bulgaria",
    "state": "Lovech Province",
    "city": "Lukovit"
  },
  {
    "source_id": "ChIJq6rqNl6jq0AR9lygh9qBl7k",
    "name": "Пазар Луковит",
    "category": "Пазар Луковит",
    "formatted_address": "5,0(4)",
    "phone_number": "",
    "source_url": "https://www.google.com/maps/place/%D0%9F%D0%B0%D0%B7%D0%B0%D1%80+%D0%9B%D1%83%D0%BA%D0%BE%D0%B2%D0%B8%D1%82/data=!4m7!3m6!1s0x40aba35e36eaaaab:0xb99781da87a05cf6!8m2!3d43.20476!4d24.1648773!16s%2Fg%2F11txv2044q!19sChIJq6rqNl6jq0AR9lygh9qBl7k?authuser=0&hl=tr&rclk=1",
    "website_url": "",
    "rating_text": "5,0",
    "stars": null,
    "number_of_reviews": null,
    "price_level": "",
    "open_hours": "",
    "extraction_timestamp": "2025-06-07T13:58:56.010Z",
    "source_name": "google",
    "source_query": "Irrigation Equipment",
    "source_country": "BG",
    "country": "Bulgaria",
    "state": "Lovech Province",
    "city": "Lukovit"
  },
  {
    "source_id": "ChIJrzicmOWjq0ARZZ94oGSZfcM",
    "name": "Магазин Табако Дринкс ЕООД",
    "category": "Магазин Табако Дринкс ЕООД",
    "formatted_address": "5,0(1)",
    "phone_number": "",
    "source_url": "https://www.google.com/maps/place/%D0%9C%D0%B0%D0%B3%D0%B0%D0%B7%D0%B8%D0%BD+%D0%A2%D0%B0%D0%B1%D0%B0%D0%BA%D0%BE+%D0%94%D1%80%D0%B8%D0%BD%D0%BA%D1%81+%D0%95%D0%9E%D0%9E%D0%94/data=!4m7!3m6!1s0x40aba3e5989c38af:0xc37d9964a0789f65!8m2!3d43.206222!4d24.1637067!16s%2Fg%2F11kqgtcq93!19sChIJrzicmOWjq0ARZZ94oGSZfcM?authuser=0&hl=tr&rclk=1",
    "website_url": "",
    "rating_text": "5,0",
    "stars": null,
    "number_of_reviews": null,
    "price_level": "",
    "open_hours": "",
    "extraction_timestamp": "2025-06-07T13:58:56.011Z",
    "source_name": "google",
    "source_query": "Irrigation Equipment",
    "source_country": "BG",
    "country": "Bulgaria",
    "state": "Lovech Province",
    "city": "Lukovit"
  },
  {
    "source_id": "ChIJy8Ge8lqjq0ARB6KIPoOde_U",
    "name": "Pet Store",
    "category": "Pet Store",
    "formatted_address": "5,0(9)",
    "phone_number": "",
    "source_url": "https://www.google.com/maps/place/Pet+Store/data=!4m7!3m6!1s0x40aba35af29ec1cb:0xf57b9d833e88a207!8m2!3d43.204625!4d24.1652991!16s%2Fg%2F11v0k_c1_c!19sChIJy8Ge8lqjq0ARB6KIPoOde_U?authuser=0&hl=tr&rclk=1",
    "website_url": "",
    "rating_text": "5,0",
    "stars": null,
    "number_of_reviews": null,
    "price_level": "",
    "open_hours": "",
    "extraction_timestamp": "2025-06-07T13:58:56.011Z",
    "source_name": "google",
    "source_query": "Irrigation Equipment",
    "source_country": "BG",
    "country": "Bulgaria",
    "state": "Lovech Province",
    "city": "Lukovit"
  },
  {
    "source_id": "ChIJy43P_16jq0ARcq4OcAORBuw",
    "name": "Брезент Индъстри",
    "category": "Брезент Индъстри",
    "formatted_address": "",
    "phone_number": "+359895627800",
    "source_url": "https://www.google.com/maps/place/%D0%91%D1%80%D0%B5%D0%B7%D0%B5%D0%BD%D1%82+%D0%98%D0%BD%D0%B4%D1%8A%D1%81%D1%82%D1%80%D0%B8/data=!4m7!3m6!1s0x40aba35effcf8dcb:0xec069103700eae72!8m2!3d43.2037494!4d24.1668579!16s%2Fg%2F11fp8zfl52!19sChIJy43P_16jq0ARcq4OcAORBuw?authuser=0&hl=tr&rclk=1",
    "website_url": "",
    "rating_text": "",
    "stars": null,
    "number_of_reviews": null,
    "price_level": "",
    "open_hours": "",
    "extraction_timestamp": "2025-06-07T13:58:56.011Z",
    "source_name": "google",
    "source_query": "Irrigation Equipment",
    "source_country": "BG",
    "country": "Bulgaria",
    "state": "Lovech Province",
    "city": "Lukovit"
  },
  {
    "source_id": "ChIJceqv6MuEqkAR45AXk38sGOE",
    "name": "Irrigation Systems",
    "category": "Irrigation Systems",
    "formatted_address": "4,4(10)",
    "phone_number": "+35928085001",
    "source_url": "https://www.google.com/maps/place/Irrigation+Systems/data=!4m7!3m6!1s0x40aa84cbe8afea71:0xe1182c7f931790e3!8m2!3d42.6700035!4d23.2681798!16s%2Fg%2F1thtbmsl!19sChIJceqv6MuEqkAR45AXk38sGOE?authuser=0&hl=tr&rclk=1",
    "website_url": "",
    "rating_text": "4,4",
    "stars": null,
    "number_of_reviews": null,
    "price_level": "",
    "open_hours": "",
    "extraction_timestamp": "2025-06-07T13:58:56.011Z",
    "source_name": "google",
    "source_query": "Irrigation Equipment",
    "source_country": "BG",
    "country": "Bulgaria",
    "state": "Lovech Province",
    "city": "Lukovit"
  },
  {
    "source_id": "ChIJXcMbDX-PqkARzdyEwqjpY7c",
    "name": "Железария \"Стоичков и синове\" ООД",
    "category": "Железария \"Стоичков и синове\" ООД",
    "formatted_address": "4,6(69)",
    "phone_number": "+359896689787",
    "source_url": "https://www.google.com/maps/place/%D0%96%D0%B5%D0%BB%D0%B5%D0%B7%D0%B0%D1%80%D0%B8%D1%8F+%22%D0%A1%D1%82%D0%BE%D0%B8%D1%87%D0%BA%D0%BE%D0%B2+%D0%B8+%D1%81%D0%B8%D0%BD%D0%BE%D0%B2%D0%B5%22+%D0%9E%D0%9E%D0%94/data=!4m7!3m6!1s0x40aa8f7f0d1bc35d:0xb763e9a8c284dccd!8m2!3d42.7064752!4d23.3514925!16s%2Fg%2F1q5bk_lz1!19sChIJXcMbDX-PqkARzdyEwqjpY7c?authuser=0&hl=tr&rclk=1",
    "website_url": "",
    "rating_text": "4,6",
    "stars": null,
    "number_of_reviews": null,
    "price_level": "",
    "open_hours": "",
    "extraction_timestamp": "2025-06-07T13:58:56.012Z",
    "source_name": "google",
    "source_query": "Irrigation Equipment",
    "source_country": "BG",
    "country": "Bulgaria",
    "state": "Lovech Province",
    "city": "Lukovit"
  },
  {
    "source_id": "ChIJn6KBuFoZq0ARnppIwt9eoQ4",
    "name": "Нелбо АД гр. Враца",
    "category": "Нелбо АД гр. Враца",
    "formatted_address": "4,8(25)",
    "phone_number": "+359882925832",
    "source_url": "https://www.google.com/maps/place/%D0%9D%D0%B5%D0%BB%D0%B1%D0%BE+%D0%90%D0%94+%D0%B3%D1%80.+%D0%92%D1%80%D0%B0%D1%86%D0%B0/data=!4m7!3m6!1s0x40ab195ab881a29f:0xea15edfc2489a9e!8m2!3d43.2035763!4d23.5550292!16s%2Fg%2F11pylk4bwc!19sChIJn6KBuFoZq0ARnppIwt9eoQ4?authuser=0&hl=tr&rclk=1",
    "website_url": "",
    "rating_text": "4,8",
    "stars": null,
    "number_of_reviews": null,
    "price_level": "",
    "open_hours": "",
    "extraction_timestamp": "2025-06-07T13:58:56.012Z",
    "source_name": "google",
    "source_query": "Irrigation Equipment",
    "source_country": "BG",
    "country": "Bulgaria",
    "state": "Lovech Province",
    "city": "Lukovit"
  },
  {
    "source_id": "ChIJVVVVFXmFqkARwplfuK9mz3w",
    "name": "Sortovi Semena - Sofia plc.",
    "category": "Sortovi Semena - Sofia plc.",
    "formatted_address": "4,3(267)",
    "phone_number": "+35929831393",
    "source_url": "https://www.google.com/maps/place/Sortovi+Semena+-+Sofia+plc./data=!4m7!3m6!1s0x40aa857915555555:0x7ccf66afb85f99c2!8m2!3d42.7044829!4d23.3347441!16s%2Fg%2F1pv2hzgtr!19sChIJVVVVFXmFqkARwplfuK9mz3w?authuser=0&hl=tr&rclk=1",
    "website_url": "",
    "rating_text": "4,3",
    "stars": null,
    "number_of_reviews": null,
    "price_level": "",
    "open_hours": "",
    "extraction_timestamp": "2025-06-07T13:58:56.012Z",
    "source_name": "google",
    "source_query": "Irrigation Equipment",
    "source_country": "BG",
    "country": "Bulgaria",
    "state": "Lovech Province",
    "city": "Lukovit"
  },
  {
    "source_id": "ChIJrWboJ1BXqkARniMQDhi5TFc",
    "name": "Pipelife Bulgaria Ltd",
    "category": "Pipelife Bulgaria Ltd",
    "formatted_address": "4,4(65)",
    "phone_number": "+359893551765",
    "source_url": "https://www.google.com/maps/place/Pipelife+Bulgaria+Ltd/data=!4m7!3m6!1s0x40aa575027e866ad:0x574cb9180e10239e!8m2!3d42.9153611!4d23.8068306!16s%2Fg%2F1tk1lh61!19sChIJrWboJ1BXqkARniMQDhi5TFc?authuser=0&hl=tr&rclk=1",
    "website_url": "",
    "rating_text": "4,4",
    "stars": null,
    "number_of_reviews": null,
    "price_level": "",
    "open_hours": "",
    "extraction_timestamp": "2025-06-07T13:58:56.013Z",
    "source_name": "google",
    "source_query": "Irrigation Equipment",
    "source_country": "BG",
    "country": "Bulgaria",
    "state": "Lovech Province",
    "city": "Lukovit"
  },
  {
    "source_id": "ChIJdxzt5LSIqkAR7EtmsrSCSSY",
    "name": "Romstal Bulgaria Ltd.",
    "category": "Romstal Bulgaria Ltd.",
    "formatted_address": "4,3(117)",
    "phone_number": "+35928920954",
    "source_url": "https://www.google.com/maps/place/Romstal+Bulgaria+Ltd./data=!4m7!3m6!1s0x40aa88b4e4ed1c77:0x264982b4b2664bec!8m2!3d42.7080367!4d23.4182063!16s%2Fg%2F1td9p0jf!19sChIJdxzt5LSIqkAR7EtmsrSCSSY?authuser=0&hl=tr&rclk=1",
    "website_url": "",
    "rating_text": "4,3",
    "stars": null,
    "number_of_reviews": null,
    "price_level": "",
    "open_hours": "",
    "extraction_timestamp": "2025-06-07T13:58:56.013Z",
    "source_name": "google",
    "source_query": "Irrigation Equipment",
    "source_country": "BG",
    "country": "Bulgaria",
    "state": "Lovech Province",
    "city": "Lukovit"
  },
  {
    "source_id": "ChIJ3yNvfPAYq0AR2vQ9-uxEDbw",
    "name": "Ineks Trade",
    "category": "Ineks Trade",
    "formatted_address": "4,5(225)",
    "phone_number": "+359878111297",
    "source_url": "https://www.google.com/maps/place/Ineks+Trade/data=!4m7!3m6!1s0x40ab18f07c6f23df:0xbc0d44ecfa3df4da!8m2!3d43.1960156!4d23.5735487!16s%2Fg%2F1vn9mlcb!19sChIJ3yNvfPAYq0AR2vQ9-uxEDbw?authuser=0&hl=tr&rclk=1",
    "website_url": "",
    "rating_text": "4,5",
    "stars": null,
    "number_of_reviews": null,
    "price_level": "",
    "open_hours": "",
    "extraction_timestamp": "2025-06-07T13:58:56.013Z",
    "source_name": "google",
    "source_query": "Irrigation Equipment",
    "source_country": "BG",
    "country": "Bulgaria",
    "state": "Lovech Province",
    "city": "Lukovit"
  },
  {
    "source_id": "ChIJZWMiJVFXqkARQgDFOLoABHE",
    "name": "Irrigation systems",
    "category": "Irrigation systems",
    "formatted_address": "3,0(1)",
    "phone_number": "",
    "source_url": "https://www.google.com/maps/place/Irrigation+systems/data=!4m7!3m6!1s0x40aa575125226365:0x710400ba38c50042!8m2!3d42.9101731!4d23.8037135!16s%2Fg%2F11g9f5s4_z!19sChIJZWMiJVFXqkARQgDFOLoABHE?authuser=0&hl=tr&rclk=1",
    "website_url": "",
    "rating_text": "3,0",
    "stars": null,
    "number_of_reviews": null,
    "price_level": "",
    "open_hours": "",
    "extraction_timestamp": "2025-06-07T13:58:56.014Z",
    "source_name": "google",
    "source_query": "Irrigation Equipment",
    "source_country": "BG",
    "country": "Bulgaria",
    "state": "Lovech Province",
    "city": "Lukovit"
  },
  {
    "source_id": "ChIJe0OJB8n5qkAREI86Stv3e2I",
    "name": "Hardware Store",
    "category": "Hardware Store",
    "formatted_address": "4,8(19)",
    "phone_number": "+359888015981",
    "source_url": "https://www.google.com/maps/place/Hardware+Store/data=!4m7!3m6!1s0x40aaf9c90789437b:0x627bf7db4a3a8f10!8m2!3d42.951911!4d23.6803646!16s%2Fg%2F11fmbkn8tg!19sChIJe0OJB8n5qkAREI86Stv3e2I?authuser=0&hl=tr&rclk=1",
    "website_url": "",
    "rating_text": "4,8",
    "stars": null,
    "number_of_reviews": null,
    "price_level": "",
    "open_hours": "",
    "extraction_timestamp": "2025-06-07T13:58:56.014Z",
    "source_name": "google",
    "source_query": "Irrigation Equipment",
    "source_country": "BG",
    "country": "Bulgaria",
    "state": "Lovech Province",
    "city": "Lukovit"
  },
  {
    "source_id": "ChIJg_sbmoePqkARJl6LjS5lyJE",
    "name": "STOITCHKOV AND SONS",
    "category": "STOITCHKOV AND SONS",
    "formatted_address": "4,9(161)",
    "phone_number": "+35929366161",
    "source_url": "https://www.google.com/maps/place/STOITCHKOV+AND+SONS/data=!4m7!3m6!1s0x40aa8f879a1bfb83:0x91c8652e8d8b5e26!8m2!3d42.7074085!4d23.3393578!16s%2Fg%2F1hc5yq4wp!19sChIJg_sbmoePqkARJl6LjS5lyJE?authuser=0&hl=tr&rclk=1",
    "website_url": "",
    "rating_text": "4,9",
    "stars": null,
    "number_of_reviews": null,
    "price_level": "",
    "open_hours": "",
    "extraction_timestamp": "2025-06-07T13:58:56.014Z",
    "source_name": "google",
    "source_query": "Irrigation Equipment",
    "source_country": "BG",
    "country": "Bulgaria",
    "state": "Lovech Province",
    "city": "Lukovit"
  },
  {
    "source_id": "ChIJuUMr8O7dq0AR1ZSfc2wrs-8",
    "name": "Professional gardeners Ltd.",
    "category": "Professional gardeners Ltd.",
    "formatted_address": "4,7(56)",
    "phone_number": "+359887406992",
    "source_url": "https://www.google.com/maps/place/Professional+gardeners+Ltd./data=!4m7!3m6!1s0x40abddeef02b43b9:0xefb32b6c739f94d5!8m2!3d43.1601726!4d24.7221959!16s%2Fg%2F1tgpr36n!19sChIJuUMr8O7dq0AR1ZSfc2wrs-8?authuser=0&hl=tr&rclk=1",
    "website_url": "",
    "rating_text": "4,7",
    "stars": null,
    "number_of_reviews": null,
    "price_level": "",
    "open_hours": "",
    "extraction_timestamp": "2025-06-07T13:59:06.240Z",
    "source_name": "google",
    "source_query": "Irrigation Equipment",
    "source_country": "BG",
    "country": "Bulgaria",
    "state": "Lovech Province",
    "city": "Obshtina Lovech"
  },
  {
    "source_id": "ChIJtcSgcfzdq0ARk1lYMT0M--o",
    "name": "Vodosnabdyavane I Kanalizatsiya",
    "category": "Vodosnabdyavane I Kanalizatsiya",
    "formatted_address": "3,3(84)",
    "phone_number": "+35968651112",
    "source_url": "https://www.google.com/maps/place/Vodosnabdyavane+I+Kanalizatsiya/data=!4m7!3m6!1s0x40abddfc71a0c4b5:0xeafb0c3d31585993!8m2!3d43.1457291!4d24.7176102!16s%2Fg%2F1trrbpnx!19sChIJtcSgcfzdq0ARk1lYMT0M--o?authuser=0&hl=tr&rclk=1",
    "website_url": "",
    "rating_text": "3,3",
    "stars": null,
    "number_of_reviews": null,
    "price_level": "",
    "open_hours": "",
    "extraction_timestamp": "2025-06-07T13:59:06.244Z",
    "source_name": "google",
    "source_query": "Irrigation Equipment",
    "source_country": "BG",
    "country": "Bulgaria",
    "state": "Lovech Province",
    "city": "Obshtina Lovech"
  },
  {
    "source_id": "ChIJg_CX1efdq0AR9TMVjmGHLtM",
    "name": "TOPLIVO - Warehouse Lovech",
    "category": "TOPLIVO - Warehouse Lovech",
    "formatted_address": "4,0(82)",
    "phone_number": "+359878802023",
    "source_url": "https://www.google.com/maps/place/TOPLIVO+-+Warehouse+Lovech/data=!4m7!3m6!1s0x40abdde7d597f083:0xd32e87618e1533f5!8m2!3d43.1388856!4d24.7039726!16s%2Fg%2F11g8xj1tqt!19sChIJg_CX1efdq0AR9TMVjmGHLtM?authuser=0&hl=tr&rclk=1",
    "website_url": "",
    "rating_text": "4,0",
    "stars": null,
    "number_of_reviews": null,
    "price_level": "",
    "open_hours": "",
    "extraction_timestamp": "2025-06-07T13:59:06.244Z",
    "source_name": "google",
    "source_query": "Irrigation Equipment",
    "source_country": "BG",
    "country": "Bulgaria",
    "state": "Lovech Province",
    "city": "Obshtina Lovech"
  },
  {
    "source_id": "ChIJl9iAui3nq0AR7ji6epK858A",
    "name": "Пречиствателна станция за отпадни води Ловеч",
    "category": "Пречиствателна станция за отпадни води Ловеч",
    "formatted_address": "5,0(4)",
    "phone_number": "",
    "source_url": "https://www.google.com/maps/place/%D0%9F%D1%80%D0%B5%D1%87%D0%B8%D1%81%D1%82%D0%B2%D0%B0%D1%82%D0%B5%D0%BB%D0%BD%D0%B0+%D1%81%D1%82%D0%B0%D0%BD%D1%86%D0%B8%D1%8F+%D0%B7%D0%B0+%D0%BE%D1%82%D0%BF%D0%B0%D0%B4%D0%BD%D0%B8+%D0%B2%D0%BE%D0%B4%D0%B8+%D0%9B%D0%BE%D0%B2%D0%B5%D1%87/data=!4m7!3m6!1s0x40abe72dba80d897:0xc0e7bc927aba38ee!8m2!3d43.1758406!4d24.747868!16s%2Fg%2F11c1tyxck7!19sChIJl9iAui3nq0AR7ji6epK858A?authuser=0&hl=tr&rclk=1",
    "website_url": "",
    "rating_text": "5,0",
    "stars": null,
    "number_of_reviews": null,
    "price_level": "",
    "open_hours": "",
    "extraction_timestamp": "2025-06-07T13:59:06.245Z",
    "source_name": "google",
    "source_query": "Irrigation Equipment",
    "source_country": "BG",
    "country": "Bulgaria",
    "state": "Lovech Province",
    "city": "Obshtina Lovech"
  },
  {
    "source_id": "ChIJCQ7czfzdq0ARr9zLjwghROg",
    "name": "Obshtinski Pazari Lovech",
    "category": "Obshtinski Pazari Lovech",
    "formatted_address": "3,6(549)",
    "phone_number": "+35968603232",
    "source_url": "https://www.google.com/maps/place/Obshtinski+Pazari+Lovech/data=!4m7!3m6!1s0x40abddfccddc0e09:0xe84421088fcbdcaf!8m2!3d43.1448282!4d24.7185164!16s%2Fg%2F1tcxy9tq!19sChIJCQ7czfzdq0ARr9zLjwghROg?authuser=0&hl=tr&rclk=1",
    "website_url": "",
    "rating_text": "3,6",
    "stars": null,
    "number_of_reviews": null,
    "price_level": "",
    "open_hours": "",
    "extraction_timestamp": "2025-06-07T13:59:06.245Z",
    "source_name": "google",
    "source_query": "Irrigation Equipment",
    "source_country": "BG",
    "country": "Bulgaria",
    "state": "Lovech Province",
    "city": "Obshtina Lovech"
  },
  {
    "source_id": "ChIJ2T9_nufdq0ARfKMhvR6ePVs",
    "name": "Фемина Строителни Материали",
    "category": "Фемина Строителни Материали",
    "formatted_address": "4,5(14)",
    "phone_number": "+359888478652",
    "source_url": "https://www.google.com/maps/place/%D0%A4%D0%B5%D0%BC%D0%B8%D0%BD%D0%B0+%D0%A1%D1%82%D1%80%D0%BE%D0%B8%D1%82%D0%B5%D0%BB%D0%BD%D0%B8+%D0%9C%D0%B0%D1%82%D0%B5%D1%80%D0%B8%D0%B0%D0%BB%D0%B8/data=!4m7!3m6!1s0x40abdde79e7f3fd9:0x5b3d9e1ebd21a37c!8m2!3d43.1372351!4d24.7056748!16s%2Fg%2F11csb0qdqk!19sChIJ2T9_nufdq0ARfKMhvR6ePVs?authuser=0&hl=tr&rclk=1",
    "website_url": "",
    "rating_text": "4,5",
    "stars": null,
    "number_of_reviews": null,
    "price_level": "",
    "open_hours": "",
    "extraction_timestamp": "2025-06-07T13:59:06.245Z",
    "source_name": "google",
    "source_query": "Irrigation Equipment",
    "source_country": "BG",
    "country": "Bulgaria",
    "state": "Lovech Province",
    "city": "Obshtina Lovech"
  },
  {
    "source_id": "ChIJCXpKjAreq0ARh_p22-2M-xA",
    "name": "SPORT DEPOT Ловеч",
    "category": "SPORT DEPOT Ловеч",
    "formatted_address": "4,2(169)",
    "phone_number": "+35970190009",
    "source_url": "https://www.google.com/maps/place/SPORT+DEPOT+%D0%9B%D0%BE%D0%B2%D0%B5%D1%87/data=!4m7!3m6!1s0x40abde0a8c4a7a09:0x10fb8ceddb76fa87!8m2!3d43.13563!4d24.71706!16s%2Fg%2F1tfrkvg0!19sChIJCXpKjAreq0ARh_p22-2M-xA?authuser=0&hl=tr&rclk=1",
    "website_url": "",
    "rating_text": "4,2",
    "stars": null,
    "number_of_reviews": null,
    "price_level": "",
    "open_hours": "",
    "extraction_timestamp": "2025-06-07T13:59:06.246Z",
    "source_name": "google",
    "source_query": "Irrigation Equipment",
    "source_country": "BG",
    "country": "Bulgaria",
    "state": "Lovech Province",
    "city": "Obshtina Lovech"
  },
  {
    "source_id": "ChIJuQZtsOPdq0AR38sZXw1XI_k",
    "name": "BAHOV EOOD",
    "category": "BAHOV EOOD",
    "formatted_address": "4,4(125)",
    "phone_number": "+35968603388",
    "source_url": "https://www.google.com/maps/place/BAHOV+EOOD/data=!4m7!3m6!1s0x40abdde3b06d06b9:0xf923570d5f19cbdf!8m2!3d43.1362396!4d24.7069942!16s%2Fg%2F1tj94y1z!19sChIJuQZtsOPdq0AR38sZXw1XI_k?authuser=0&hl=tr&rclk=1",
    "website_url": "",
    "rating_text": "4,4",
    "stars": null,
    "number_of_reviews": null,
    "price_level": "",
    "open_hours": "",
    "extraction_timestamp": "2025-06-07T13:59:06.246Z",
    "source_name": "google",
    "source_query": "Irrigation Equipment",
    "source_country": "BG",
    "country": "Bulgaria",
    "state": "Lovech Province",
    "city": "Obshtina Lovech"
  },
  {
    "source_id": "ChIJq096nPvdq0ARLyMcgfnKag0",
    "name": "KASIOPES - Lovech",
    "category": "KASIOPES - Lovech",
    "formatted_address": "5,0(1)",
    "phone_number": "+359885919457",
    "source_url": "https://www.google.com/maps/place/KASIOPES+-+Lovech/data=!4m7!3m6!1s0x40abddfb9c7a4fab:0xd6acaf9811c232f!8m2!3d43.1459606!4d24.7166685!16s%2Fg%2F11h03mjl9!19sChIJq096nPvdq0ARLyMcgfnKag0?authuser=0&hl=tr&rclk=1",
    "website_url": "",
    "rating_text": "5,0",
    "stars": null,
    "number_of_reviews": null,
    "price_level": "",
    "open_hours": "",
    "extraction_timestamp": "2025-06-07T13:59:06.247Z",
    "source_name": "google",
    "source_query": "Irrigation Equipment",
    "source_country": "BG",
    "country": "Bulgaria",
    "state": "Lovech Province",
    "city": "Obshtina Lovech"
  },
  {
    "source_id": "ChIJOd8iXufdq0ARCMF0D7Q7ShM",
    "name": "Фемина Строителни материали",
    "category": "Фемина Строителни материали",
    "formatted_address": "4,7(24)",
    "phone_number": "+359884021053",
    "source_url": "https://www.google.com/maps/place/%D0%A4%D0%B5%D0%BC%D0%B8%D0%BD%D0%B0+%D0%A1%D1%82%D1%80%D0%BE%D0%B8%D1%82%D0%B5%D0%BB%D0%BD%D0%B8+%D0%BC%D0%B0%D1%82%D0%B5%D1%80%D0%B8%D0%B0%D0%BB%D0%B8/data=!4m7!3m6!1s0x40abdde75e22df39:0x134a3bb40f74c108!8m2!3d43.1361729!4d24.7070702!16s%2Fg%2F11cs5mqwnd!19sChIJOd8iXufdq0ARCMF0D7Q7ShM?authuser=0&hl=tr&rclk=1",
    "website_url": "",
    "rating_text": "4,7",
    "stars": null,
    "number_of_reviews": null,
    "price_level": "",
    "open_hours": "",
    "extraction_timestamp": "2025-06-07T13:59:06.247Z",
    "source_name": "google",
    "source_query": "Irrigation Equipment",
    "source_country": "BG",
    "country": "Bulgaria",
    "state": "Lovech Province",
    "city": "Obshtina Lovech"
  },
  {
    "source_id": "ChIJryTLmOfdq0AR6CG7P8ymvx0",
    "name": "DIM 2 | дървен материал | над 100 кубика | склад | Гипсокартон",
    "category": "DIM 2 | дървен материал | над 100 кубика | склад | Гипсокартон",
    "formatted_address": "5,0(1)",
    "phone_number": "+359889850909",
    "source_url": "https://www.google.com/maps/place/DIM+2+%7C+%D0%B4%D1%8A%D1%80%D0%B2%D0%B5%D0%BD+%D0%BC%D0%B0%D1%82%D0%B5%D1%80%D0%B8%D0%B0%D0%BB+%7C+%D0%BD%D0%B0%D0%B4+100+%D0%BA%D1%83%D0%B1%D0%B8%D0%BA%D0%B0+%7C+%D1%81%D0%BA%D0%BB%D0%B0%D0%B4+%7C+%D0%93%D0%B8%D0%BF%D1%81%D0%BE%D0%BA%D0%B0%D1%80%D1%82%D0%BE%D0%BD/data=!4m7!3m6!1s0x40abdde798cb24af:0x1dbfa6cc3fbb21e8!8m2!3d43.1368845!4d24.706431!16s%2Fg%2F11gfpbrb1m!19sChIJryTLmOfdq0AR6CG7P8ymvx0?authuser=0&hl=tr&rclk=1",
    "website_url": "",
    "rating_text": "5,0",
    "stars": null,
    "number_of_reviews": null,
    "price_level": "",
    "open_hours": "",
    "extraction_timestamp": "2025-06-07T13:59:06.247Z",
    "source_name": "google",
    "source_query": "Irrigation Equipment",
    "source_country": "BG",
    "country": "Bulgaria",
    "state": "Lovech Province",
    "city": "Obshtina Lovech"
  },
  {
    "source_id": "ChIJV5mCnczUUwgRG-I5ClV8_so",
    "name": "MSDgroup-Борба с вредители-ДДД",
    "category": "MSDgroup-Борба с вредители-ДДД",
    "formatted_address": "5,0(3)",
    "phone_number": "+359884807330",
    "source_url": "https://www.google.com/maps/place/MSDgroup-%D0%91%D0%BE%D1%80%D0%B1%D0%B0+%D1%81+%D0%B2%D1%80%D0%B5%D0%B4%D0%B8%D1%82%D0%B5%D0%BB%D0%B8-%D0%94%D0%94%D0%94/data=!4m7!3m6!1s0x853d4cc9d829957:0xcafe7c550a39e21b!8m2!3d43.1445748!4d24.7167732!16s%2Fg%2F11txmbxhdb!19sChIJV5mCnczUUwgRG-I5ClV8_so?authuser=0&hl=tr&rclk=1",
    "website_url": "",
    "rating_text": "5,0",
    "stars": null,
    "number_of_reviews": null,
    "price_level": "",
    "open_hours": "",
    "extraction_timestamp": "2025-06-07T13:59:06.248Z",
    "source_name": "google",
    "source_query": "Irrigation Equipment",
    "source_country": "BG",
    "country": "Bulgaria",
    "state": "Lovech Province",
    "city": "Obshtina Lovech"
  },
  {
    "source_id": "ChIJIc_UnDHdq0ARehxTX2YG3wc",
    "name": "Elmiks",
    "category": "Elmiks",
    "formatted_address": "4,5(13)",
    "phone_number": "+359888969290",
    "source_url": "https://www.google.com/maps/place/Elmiks/data=!4m7!3m6!1s0x40abdd319cd4cf21:0x7df06665f531c7a!8m2!3d43.1465!4d24.7159355!16s%2Fg%2F11h27mmypm!19sChIJIc_UnDHdq0ARehxTX2YG3wc?authuser=0&hl=tr&rclk=1",
    "website_url": "",
    "rating_text": "4,5",
    "stars": null,
    "number_of_reviews": null,
    "price_level": "",
    "open_hours": "",
    "extraction_timestamp": "2025-06-07T13:59:06.249Z",
    "source_name": "google",
    "source_query": "Irrigation Equipment",
    "source_country": "BG",
    "country": "Bulgaria",
    "state": "Lovech Province",
    "city": "Obshtina Lovech"
  },
  {
    "source_id": "ChIJMW2JoOPdq0ARdBsTMF93kyk",
    "name": "Отопление и Солар ЕООД гр. Ловеч",
    "category": "Отопление и Солар ЕООД гр. Ловеч",
    "formatted_address": "3,0(2)",
    "phone_number": "+359898883085",
    "source_url": "https://www.google.com/maps/place/%D0%9E%D1%82%D0%BE%D0%BF%D0%BB%D0%B5%D0%BD%D0%B8%D0%B5+%D0%B8+%D0%A1%D0%BE%D0%BB%D0%B0%D1%80+%D0%95%D0%9E%D0%9E%D0%94+%D0%B3%D1%80.+%D0%9B%D0%BE%D0%B2%D0%B5%D1%87/data=!4m7!3m6!1s0x40abdde3a0896d31:0x2993775f30131b74!8m2!3d43.1438949!4d24.7145588!16s%2Fg%2F11hyt02tx7!19sChIJMW2JoOPdq0ARdBsTMF93kyk?authuser=0&hl=tr&rclk=1",
    "website_url": "",
    "rating_text": "3,0",
    "stars": null,
    "number_of_reviews": null,
    "price_level": "",
    "open_hours": "",
    "extraction_timestamp": "2025-06-07T13:59:06.249Z",
    "source_name": "google",
    "source_query": "Irrigation Equipment",
    "source_country": "BG",
    "country": "Bulgaria",
    "state": "Lovech Province",
    "city": "Obshtina Lovech"
  },
  {
    "source_id": "ChIJC59CLADdq0ARp04XFFIEcZ8",
    "name": "АЛТЕРО ЕООД",
    "category": "АЛТЕРО ЕООД",
    "formatted_address": "",
    "phone_number": "+359882345067",
    "source_url": "https://www.google.com/maps/place/%D0%90%D0%9B%D0%A2%D0%95%D0%A0%D0%9E+%D0%95%D0%9E%D0%9E%D0%94/data=!4m7!3m6!1s0x40abdd002c429f0b:0x9f71045214174ea7!8m2!3d43.1501391!4d24.7158047!16s%2Fg%2F11y48cnv63!19sChIJC59CLADdq0ARp04XFFIEcZ8?authuser=0&hl=tr&rclk=1",
    "website_url": "",
    "rating_text": "",
    "stars": null,
    "number_of_reviews": null,
    "price_level": "",
    "open_hours": "",
    "extraction_timestamp": "2025-06-07T13:59:06.249Z",
    "source_name": "google",
    "source_query": "Irrigation Equipment",
    "source_country": "BG",
    "country": "Bulgaria",
    "state": "Lovech Province",
    "city": "Obshtina Lovech"
  },
  {
    "source_id": "ChIJB7RGA_vdq0ARlUhc5fqEmTQ",
    "name": "Елит Кар",
    "category": "Елит Кар",
    "formatted_address": "4,2(87)",
    "phone_number": "+35968601506",
    "source_url": "https://www.google.com/maps/place/%D0%95%D0%BB%D0%B8%D1%82+%D0%9A%D0%B0%D1%80/data=!4m7!3m6!1s0x40abddfb0346b407:0x349984fae55c4895!8m2!3d43.146224!4d24.7141255!16s%2Fg%2F11c3pwm0l_!19sChIJB7RGA_vdq0ARlUhc5fqEmTQ?authuser=0&hl=tr&rclk=1",
    "website_url": "",
    "rating_text": "4,2",
    "stars": null,
    "number_of_reviews": null,
    "price_level": "",
    "open_hours": "",
    "extraction_timestamp": "2025-06-07T13:59:06.250Z",
    "source_name": "google",
    "source_query": "Irrigation Equipment",
    "source_country": "BG",
    "country": "Bulgaria",
    "state": "Lovech Province",
    "city": "Obshtina Lovech"
  },
  {
    "source_id": "ChIJHTtVrwndq0ARvDw5K_p60Ro",
    "name": "Литиум ООД",
    "category": "Литиум ООД",
    "formatted_address": "4,7(6)",
    "phone_number": "+35968520801",
    "source_url": "https://www.google.com/maps/place/%D0%9B%D0%B8%D1%82%D0%B8%D1%83%D0%BC+%D0%9E%D0%9E%D0%94/data=!4m7!3m6!1s0x40abdd09af553b1d:0x1ad17afa2b393cbc!8m2!3d43.1197875!4d24.7138125!16s%2Fg%2F11jncr0z4j!19sChIJHTtVrwndq0ARvDw5K_p60Ro?authuser=0&hl=tr&rclk=1",
    "website_url": "",
    "rating_text": "4,7",
    "stars": null,
    "number_of_reviews": null,
    "price_level": "",
    "open_hours": "",
    "extraction_timestamp": "2025-06-07T13:59:06.250Z",
    "source_name": "google",
    "source_query": "Irrigation Equipment",
    "source_country": "BG",
    "country": "Bulgaria",
    "state": "Lovech Province",
    "city": "Obshtina Lovech"
  },
  {
    "source_id": "ChIJ1dTzBxTdq0ARwae-oV342hA",
    "name": "Технополис Ловеч",
    "category": "Технополис Ловеч",
    "formatted_address": "4,6(19)",
    "phone_number": "+35968587111",
    "source_url": "https://www.google.com/maps/place/%D0%A2%D0%B5%D1%85%D0%BD%D0%BE%D0%BF%D0%BE%D0%BB%D0%B8%D1%81+%D0%9B%D0%BE%D0%B2%D0%B5%D1%87/data=!4m7!3m6!1s0x40abdd1407f3d4d5:0x10daf85da1bea7c1!8m2!3d43.1451878!4d24.7128201!16s%2Fg%2F11w3bnph4w!19sChIJ1dTzBxTdq0ARwae-oV342hA?authuser=0&hl=tr&rclk=1",
    "website_url": "",
    "rating_text": "4,6",
    "stars": null,
    "number_of_reviews": null,
    "price_level": "",
    "open_hours": "",
    "extraction_timestamp": "2025-06-07T13:59:06.251Z",
    "source_name": "google",
    "source_query": "Irrigation Equipment",
    "source_country": "BG",
    "country": "Bulgaria",
    "state": "Lovech Province",
    "city": "Obshtina Lovech"
  },
  {
    "source_id": "ChIJETdn7O7dq0ARjYlj-8e9gaU",
    "name": "Магазин \"Лесидрен\"",
    "category": "Магазин \"Лесидрен\"",
    "formatted_address": "4,4(106)",
    "phone_number": "+359885336661",
    "source_url": "https://www.google.com/maps/place/%D0%9C%D0%B0%D0%B3%D0%B0%D0%B7%D0%B8%D0%BD+%22%D0%9B%D0%B5%D1%81%D0%B8%D0%B4%D1%80%D0%B5%D0%BD%22/data=!4m7!3m6!1s0x40abddeeec673711:0xa581bdc7fb63898d!8m2!3d43.1438695!4d24.7150859!16s%2Fg%2F11gmcxhsp_!19sChIJETdn7O7dq0ARjYlj-8e9gaU?authuser=0&hl=tr&rclk=1",
    "website_url": "",
    "rating_text": "4,4",
    "stars": null,
    "number_of_reviews": null,
    "price_level": "",
    "open_hours": "",
    "extraction_timestamp": "2025-06-07T13:59:06.251Z",
    "source_name": "google",
    "source_query": "Irrigation Equipment",
    "source_country": "BG",
    "country": "Bulgaria",
    "state": "Lovech Province",
    "city": "Obshtina Lovech"
  },
  {
    "source_id": "ChIJ0U_JRmPdq0ARpV5jkoLnfMA",
    "name": "Crystal Self-service Car Wash",
    "category": "Crystal Self-service Car Wash",
    "formatted_address": "4,7(13)",
    "phone_number": "",
    "source_url": "https://www.google.com/maps/place/Crystal+Self-service+Car+Wash/data=!4m7!3m6!1s0x40abdd6346c94fd1:0xc07ce78292635ea5!8m2!3d43.1350848!4d24.7082979!16s%2Fg%2F11h_k6y_by!19sChIJ0U_JRmPdq0ARpV5jkoLnfMA?authuser=0&hl=tr&rclk=1",
    "website_url": "",
    "rating_text": "4,7",
    "stars": null,
    "number_of_reviews": null,
    "price_level": "",
    "open_hours": "",
    "extraction_timestamp": "2025-06-07T13:59:06.251Z",
    "source_name": "google",
    "source_query": "Irrigation Equipment",
    "source_country": "BG",
    "country": "Bulgaria",
    "state": "Lovech Province",
    "city": "Obshtina Lovech"
  },
  {
    "source_id": "ChIJr7T3_-Ddq0ARmF8ZsD-u5qo",
    "name": "Зоомагазин Сорела",
    "category": "Зоомагазин Сорела",
    "formatted_address": "4,6(205)",
    "phone_number": "+359885953552",
    "source_url": "https://www.google.com/maps/place/%D0%97%D0%BE%D0%BE%D0%BC%D0%B0%D0%B3%D0%B0%D0%B7%D0%B8%D0%BD+%D0%A1%D0%BE%D1%80%D0%B5%D0%BB%D0%B0/data=!4m7!3m6!1s0x40abdde0fff7b4af:0xaae6ae3fb0195f98!8m2!3d43.1369071!4d24.7131671!16s%2Fg%2F11dxdg8vk4!19sChIJr7T3_-Ddq0ARmF8ZsD-u5qo?authuser=0&hl=tr&rclk=1",
    "website_url": "",
    "rating_text": "4,6",
    "stars": null,
    "number_of_reviews": null,
    "price_level": "",
    "open_hours": "",
    "extraction_timestamp": "2025-06-07T13:59:06.252Z",
    "source_name": "google",
    "source_query": "Irrigation Equipment",
    "source_country": "BG",
    "country": "Bulgaria",
    "state": "Lovech Province",
    "city": "Obshtina Lovech"
  },
  {
    "source_id": "ChIJNwuYuPzdq0AR6P-joo7U7Hg",
    "name": "Slavimes",
    "category": "Slavimes",
    "formatted_address": "4,0(134)",
    "phone_number": "+35968601080",
    "source_url": "https://www.google.com/maps/place/Slavimes/data=!4m7!3m6!1s0x40abddfcb8980b37:0x78ecd48ea2a3ffe8!8m2!3d43.1458037!4d24.7163333!16s%2Fg%2F1tdzv6hv!19sChIJNwuYuPzdq0AR6P-joo7U7Hg?authuser=0&hl=tr&rclk=1",
    "website_url": "",
    "rating_text": "4,0",
    "stars": null,
    "number_of_reviews": null,
    "price_level": "",
    "open_hours": "",
    "extraction_timestamp": "2025-06-07T13:59:06.252Z",
    "source_name": "google",
    "source_query": "Irrigation Equipment",
    "source_country": "BG",
    "country": "Bulgaria",
    "state": "Lovech Province",
    "city": "Obshtina Lovech"
  },
  {
    "source_id": "ChIJiWnCeaHfq0ARqLlZRmukFSo",
    "name": "H&S Petkoff Beershop",
    "category": "H&S Petkoff Beershop",
    "formatted_address": "4,6(103) · BGN 10–20",
    "phone_number": "+359883697979",
    "source_url": "https://www.google.com/maps/place/H%26S+Petkoff+Beershop/data=!4m7!3m6!1s0x40abdfa179c26989:0x2a15a46b4659b9a8!8m2!3d43.1337306!4d24.7167133!16s%2Fg%2F11fm_982sj!19sChIJiWnCeaHfq0ARqLlZRmukFSo?authuser=0&hl=tr&rclk=1",
    "website_url": "",
    "rating_text": "4,6",
    "stars": null,
    "number_of_reviews": null,
    "price_level": "",
    "open_hours": "",
    "extraction_timestamp": "2025-06-07T13:59:06.253Z",
    "source_name": "google",
    "source_query": "Irrigation Equipment",
    "source_country": "BG",
    "country": "Bulgaria",
    "state": "Lovech Province",
    "city": "Obshtina Lovech"
  },
  {
    "source_id": "ChIJCcA1zPrdq0ARHnOArSi45dM",
    "name": "Lidl",
    "category": "Lidl",
    "formatted_address": "4,3(1.936)",
    "phone_number": "+35929066444",
    "source_url": "https://www.google.com/maps/place/Lidl/data=!4m7!3m6!1s0x40abddfacc35c009:0xd3e5b828ad80731e!8m2!3d43.1445614!4d24.7118112!16s%2Fg%2F11b7h_v046!19sChIJCcA1zPrdq0ARHnOArSi45dM?authuser=0&hl=tr&rclk=1",
    "website_url": "",
    "rating_text": "4,3",
    "stars": null,
    "number_of_reviews": null,
    "price_level": "",
    "open_hours": "",
    "extraction_timestamp": "2025-06-07T13:59:06.253Z",
    "source_name": "google",
    "source_query": "Irrigation Equipment",
    "source_country": "BG",
    "country": "Bulgaria",
    "state": "Lovech Province",
    "city": "Obshtina Lovech"
  },
  {
    "source_id": "ChIJfRCBT1vnq0AR4l3YFYZiNW8",
    "name": "T MARKET",
    "category": "T MARKET",
    "formatted_address": "3,8(1.013)",
    "phone_number": "+35970070171",
    "source_url": "https://www.google.com/maps/place/T+MARKET/data=!4m7!3m6!1s0x40abe75b4f81107d:0x6f35628615d85de2!8m2!3d43.1504564!4d24.716543!16s%2Fg%2F11c1tb2zpn!19sChIJfRCBT1vnq0AR4l3YFYZiNW8?authuser=0&hl=tr&rclk=1",
    "website_url": "",
    "rating_text": "3,8",
    "stars": null,
    "number_of_reviews": null,
    "price_level": "",
    "open_hours": "",
    "extraction_timestamp": "2025-06-07T13:59:06.254Z",
    "source_name": "google",
    "source_query": "Irrigation Equipment",
    "source_country": "BG",
    "country": "Bulgaria",
    "state": "Lovech Province",
    "city": "Obshtina Lovech"
  },
  {
    "source_id": "ChIJFwuagt7dq0AR8TqKmSFrxuE",
    "name": "BILLA",
    "category": "BILLA",
    "formatted_address": "3,9(1.404)",
    "phone_number": "+35968689710",
    "source_url": "https://www.google.com/maps/place/BILLA/data=!4m7!3m6!1s0x40abddde829a0b17:0xe1c66b21998a3af1!8m2!3d43.1346772!4d24.7096422!16s%2Fg%2F1th26x31!19sChIJFwuagt7dq0AR8TqKmSFrxuE?authuser=0&hl=tr&rclk=1",
    "website_url": "",
    "rating_text": "3,9",
    "stars": null,
    "number_of_reviews": null,
    "price_level": "",
    "open_hours": "",
    "extraction_timestamp": "2025-06-07T13:59:06.255Z",
    "source_name": "google",
    "source_query": "Irrigation Equipment",
    "source_country": "BG",
    "country": "Bulgaria",
    "state": "Lovech Province",
    "city": "Obshtina Lovech"
  },
  {
    "source_id": "ChIJmQ-WO-Ddq0ARdIJebjyQiL0",
    "name": "Плади компютърс ООД",
    "category": "Плади компютърс ООД",
    "formatted_address": "4,3(60)",
    "phone_number": "+35968601706",
    "source_url": "https://www.google.com/maps/place/%D0%9F%D0%BB%D0%B0%D0%B4%D0%B8+%D0%BA%D0%BE%D0%BC%D0%BF%D1%8E%D1%82%D1%8A%D1%80%D1%81+%D0%9E%D0%9E%D0%94/data=!4m7!3m6!1s0x40abdde03b960f99:0xbd88903c6e5e8274!8m2!3d43.1386808!4d24.7174138!16s%2Fg%2F1tdpq4n4!19sChIJmQ-WO-Ddq0ARdIJebjyQiL0?authuser=0&hl=tr&rclk=1",
    "website_url": "",
    "rating_text": "4,3",
    "stars": null,
    "number_of_reviews": null,
    "price_level": "",
    "open_hours": "",
    "extraction_timestamp": "2025-06-07T13:59:06.255Z",
    "source_name": "google",
    "source_query": "Irrigation Equipment",
    "source_country": "BG",
    "country": "Bulgaria",
    "state": "Lovech Province",
    "city": "Obshtina Lovech"
  },
  {
    "source_id": "ChIJGxvNDDLnq0ARhboldRG9yD4",
    "name": "Автомивка за коли и камиони 24/7",
    "category": "Автомивка за коли и камиони 24/7",
    "formatted_address": "4,6(115)",
    "phone_number": "+359877200587",
    "source_url": "https://www.google.com/maps/place/%D0%90%D0%B2%D1%82%D0%BE%D0%BC%D0%B8%D0%B2%D0%BA%D0%B0+%D0%B7%D0%B0+%D0%BA%D0%BE%D0%BB%D0%B8+%D0%B8+%D0%BA%D0%B0%D0%BC%D0%B8%D0%BE%D0%BD%D0%B8+24%2F7/data=!4m7!3m6!1s0x40abe7320ccd1b1b:0x3ec8bd117525ba85!8m2!3d43.1555016!4d24.7192733!16s%2Fg%2F11rkfbbjx0!19sChIJGxvNDDLnq0ARhboldRG9yD4?authuser=0&hl=tr&rclk=1",
    "website_url": "",
    "rating_text": "4,6",
    "stars": null,
    "number_of_reviews": null,
    "price_level": "",
    "open_hours": "",
    "extraction_timestamp": "2025-06-07T13:59:06.255Z",
    "source_name": "google",
    "source_query": "Irrigation Equipment",
    "source_country": "BG",
    "country": "Bulgaria",
    "state": "Lovech Province",
    "city": "Obshtina Lovech"
  },
  {
    "source_id": "ChIJfRCBT1vnq0ARtzgzLRgyzb4",
    "name": "Vianor",
    "category": "Vianor",
    "formatted_address": "4,3(8)",
    "phone_number": "+359888854004",
    "source_url": "https://www.google.com/maps/place/Vianor/data=!4m7!3m6!1s0x40abe75b4f81107d:0xbecd32182d3338b7!8m2!3d43.1611563!4d24.7186042!16s%2Fg%2F11cmscc6hh!19sChIJfRCBT1vnq0ARtzgzLRgyzb4?authuser=0&hl=tr&rclk=1",
    "website_url": "",
    "rating_text": "4,3",
    "stars": null,
    "number_of_reviews": null,
    "price_level": "",
    "open_hours": "",
    "extraction_timestamp": "2025-06-07T13:59:06.256Z",
    "source_name": "google",
    "source_query": "Irrigation Equipment",
    "source_country": "BG",
    "country": "Bulgaria",
    "state": "Lovech Province",
    "city": "Obshtina Lovech"
  },
  {
    "source_id": "ChIJB9touPY0qkARUAp6_qFC8DE",
    "name": "Маки и Милс ТМ ООД",
    "category": "Маки и Милс ТМ ООД",
    "formatted_address": "4,6(198)",
    "phone_number": "+359886366272",
    "source_url": "https://www.google.com/maps/place/%D0%9C%D0%B0%D0%BA%D0%B8+%D0%B8+%D0%9C%D0%B8%D0%BB%D1%81+%D0%A2%D0%9C+%D0%9E%D0%9E%D0%94/data=!4m7!3m6!1s0x40aa34f6b868db07:0x31f042a1fe7a0a50!8m2!3d42.9226871!4d24.2491803!16s%2Fg%2F11g8xgl06g!19sChIJB9touPY0qkARUAp6_qFC8DE?authuser=0&hl=tr&rclk=1",
    "website_url": "",
    "rating_text": "4,6",
    "stars": null,
    "number_of_reviews": null,
    "price_level": "",
    "open_hours": "",
    "extraction_timestamp": "2025-06-07T13:59:14.632Z",
    "source_name": "google",
    "source_query": "Irrigation Equipment",
    "source_country": "BG",
    "country": "Bulgaria",
    "state": "Lovech Province",
    "city": "Obshtina Teteven"
  },
  {
    "source_id": "ChIJo7CNisi2q0ARjPGXQOvLWuE",
    "name": "PASSATI EOOD / ПАСАТИ ЕООД",
    "category": "PASSATI EOOD / ПАСАТИ ЕООД",
    "formatted_address": "4,9(27)",
    "phone_number": "+359889635887",
    "source_url": "https://www.google.com/maps/place/PASSATI+EOOD+%2F+%D0%9F%D0%90%D0%A1%D0%90%D0%A2%D0%98+%D0%95%D0%9E%D0%9E%D0%94/data=!4m7!3m6!1s0x40abb6c88a8db0a3:0xe15acbeb4097f18c!8m2!3d43.0647926!4d24.1963043!16s%2Fg%2F11cm124018!19sChIJo7CNisi2q0ARjPGXQOvLWuE?authuser=0&hl=tr&rclk=1",
    "website_url": "",
    "rating_text": "4,9",
    "stars": null,
    "number_of_reviews": null,
    "price_level": "",
    "open_hours": "",
    "extraction_timestamp": "2025-06-07T13:59:14.633Z",
    "source_name": "google",
    "source_query": "Irrigation Equipment",
    "source_country": "BG",
    "country": "Bulgaria",
    "state": "Lovech Province",
    "city": "Obshtina Teteven"
  },
  {
    "source_id": "ChIJnYIUmyfJq0AR86xBt_5_pP0",
    "name": "Строителна Борса Добревски",
    "category": "Строителна Борса Добревски",
    "formatted_address": "4,6(19)",
    "phone_number": "+359882911218",
    "source_url": "https://www.google.com/maps/place/%D0%A1%D1%82%D1%80%D0%BE%D0%B8%D1%82%D0%B5%D0%BB%D0%BD%D0%B0+%D0%91%D0%BE%D1%80%D1%81%D0%B0+%D0%94%D0%BE%D0%B1%D1%80%D0%B5%D0%B2%D1%81%D0%BA%D0%B8/data=!4m7!3m6!1s0x40abc9279b14829d:0xfda47ffeb741acf3!8m2!3d43.0375671!4d24.2803802!16s%2Fg%2F11s9fxkcw4!19sChIJnYIUmyfJq0AR86xBt_5_pP0?authuser=0&hl=tr&rclk=1",
    "website_url": "",
    "rating_text": "4,6",
    "stars": null,
    "number_of_reviews": null,
    "price_level": "",
    "open_hours": "",
    "extraction_timestamp": "2025-06-07T13:59:14.633Z",
    "source_name": "google",
    "source_query": "Irrigation Equipment",
    "source_country": "BG",
    "country": "Bulgaria",
    "state": "Lovech Province",
    "city": "Obshtina Teteven"
  },
  {
    "source_id": "ChIJ33nIng6zq0AR6iQ7S16RL9M",
    "name": "Angro / Ангро",
    "category": "Angro / Ангро",
    "formatted_address": "4,8(49)",
    "phone_number": "",
    "source_url": "https://www.google.com/maps/place/Angro+%2F+%D0%90%D0%BD%D0%B3%D1%80%D0%BE/data=!4m7!3m6!1s0x40abb30e9ec879df:0xd32f915e4b3b24ea!8m2!3d43.0330724!4d24.0994086!16s%2Fg%2F11qh5p3q3y!19sChIJ33nIng6zq0AR6iQ7S16RL9M?authuser=0&hl=tr&rclk=1",
    "website_url": "",
    "rating_text": "4,8",
    "stars": null,
    "number_of_reviews": null,
    "price_level": "",
    "open_hours": "",
    "extraction_timestamp": "2025-06-07T13:59:14.634Z",
    "source_name": "google",
    "source_query": "Irrigation Equipment",
    "source_country": "BG",
    "country": "Bulgaria",
    "state": "Lovech Province",
    "city": "Obshtina Teteven"
  },
  {
    "source_id": "ChIJry0mUjE1qkARuol9ZcyGPtY",
    "name": "Магазин \"Лесидрен\"",
    "category": "Магазин \"Лесидрен\"",
    "formatted_address": "4,4(132)",
    "phone_number": "+359885337992",
    "source_url": "https://www.google.com/maps/place/%D0%9C%D0%B0%D0%B3%D0%B0%D0%B7%D0%B8%D0%BD+%22%D0%9B%D0%B5%D1%81%D0%B8%D0%B4%D1%80%D0%B5%D0%BD%22/data=!4m7!3m6!1s0x40aa353152262daf:0xd63e86cc657d89ba!8m2!3d42.9165961!4d24.2644104!16s%2Fg%2F11f9xqp1q6!19sChIJry0mUjE1qkARuol9ZcyGPtY?authuser=0&hl=tr&rclk=1",
    "website_url": "",
    "rating_text": "4,4",
    "stars": null,
    "number_of_reviews": null,
    "price_level": "",
    "open_hours": "",
    "extraction_timestamp": "2025-06-07T13:59:14.638Z",
    "source_name": "google",
    "source_query": "Irrigation Equipment",
    "source_country": "BG",
    "country": "Bulgaria",
    "state": "Lovech Province",
    "city": "Obshtina Teteven"
  },
  {
    "source_id": "ChIJJbrUA4k0qkARePg5I-OI4Uk",
    "name": "T MARKET",
    "category": "T MARKET",
    "formatted_address": "3,8(577)",
    "phone_number": "+35970070171",
    "source_url": "https://www.google.com/maps/place/T+MARKET/data=!4m7!3m6!1s0x40aa348903d4ba25:0x49e188e32339f878!8m2!3d42.9177749!4d24.2644112!16s%2Fg%2F11c5fy7y05!19sChIJJbrUA4k0qkARePg5I-OI4Uk?authuser=0&hl=tr&rclk=1",
    "website_url": "",
    "rating_text": "3,8",
    "stars": null,
    "number_of_reviews": null,
    "price_level": "",
    "open_hours": "",
    "extraction_timestamp": "2025-06-07T13:59:14.638Z",
    "source_name": "google",
    "source_query": "Irrigation Equipment",
    "source_country": "BG",
    "country": "Bulgaria",
    "state": "Lovech Province",
    "city": "Obshtina Teteven"
  },
  {
    "source_id": "ChIJde6LndwzqkARF2sX04Flnxg",
    "name": "СУПЕРМАРКЕТ БИЛЯНА",
    "category": "СУПЕРМАРКЕТ БИЛЯНА",
    "formatted_address": "4,4(217)",
    "phone_number": "",
    "source_url": "https://www.google.com/maps/place/%D0%A1%D0%A3%D0%9F%D0%95%D0%A0%D0%9C%D0%90%D0%A0%D0%9A%D0%95%D0%A2+%D0%91%D0%98%D0%9B%D0%AF%D0%9D%D0%90/data=!4m7!3m6!1s0x40aa33dc9d8bee75:0x189f6581d3176b17!8m2!3d42.9129286!4d24.2813514!16s%2Fg%2F11fhrz357h!19sChIJde6LndwzqkARF2sX04Flnxg?authuser=0&hl=tr&rclk=1",
    "website_url": "",
    "rating_text": "4,4",
    "stars": null,
    "number_of_reviews": null,
    "price_level": "",
    "open_hours": "",
    "extraction_timestamp": "2025-06-07T13:59:14.638Z",
    "source_name": "google",
    "source_query": "Irrigation Equipment",
    "source_country": "BG",
    "country": "Bulgaria",
    "state": "Lovech Province",
    "city": "Obshtina Teteven"
  },
  {
    "source_id": "ChIJZWMiJVFXqkARQgDFOLoABHE",
    "name": "Irrigation systems",
    "category": "Irrigation systems",
    "formatted_address": "3,0(1)",
    "phone_number": "",
    "source_url": "https://www.google.com/maps/place/Irrigation+systems/data=!4m7!3m6!1s0x40aa575125226365:0x710400ba38c50042!8m2!3d42.9101731!4d23.8037135!16s%2Fg%2F11g9f5s4_z!19sChIJZWMiJVFXqkARQgDFOLoABHE?authuser=0&hl=tr&rclk=1",
    "website_url": "",
    "rating_text": "3,0",
    "stars": null,
    "number_of_reviews": null,
    "price_level": "",
    "open_hours": "",
    "extraction_timestamp": "2025-06-07T13:59:14.639Z",
    "source_name": "google",
    "source_query": "Irrigation Equipment",
    "source_country": "BG",
    "country": "Bulgaria",
    "state": "Lovech Province",
    "city": "Obshtina Teteven"
  },
  {
    "source_id": "ChIJS_-XuJQ1qkAR9BrM3L-ZXKI",
    "name": "Туристически информационен център Тетевен",
    "category": "Туристически информационен център Тетевен",
    "formatted_address": "5,0(4)",
    "phone_number": "",
    "source_url": "https://www.google.com/maps/place/%D0%A2%D1%83%D1%80%D0%B8%D1%81%D1%82%D0%B8%D1%87%D0%B5%D1%81%D0%BA%D0%B8+%D0%B8%D0%BD%D1%84%D0%BE%D1%80%D0%BC%D0%B0%D1%86%D0%B8%D0%BE%D0%BD%D0%B5%D0%BD+%D1%86%D0%B5%D0%BD%D1%82%D1%8A%D1%80+%D0%A2%D0%B5%D1%82%D0%B5%D0%B2%D0%B5%D0%BD/data=!4m7!3m6!1s0x40aa3594b897ff4b:0xa25c99bfdccc1af4!8m2!3d42.917251!4d24.2588827!16s%2Fg%2F11rbkxj8nj!19sChIJS_-XuJQ1qkAR9BrM3L-ZXKI?authuser=0&hl=tr&rclk=1",
    "website_url": "",
    "rating_text": "5,0",
    "stars": null,
    "number_of_reviews": null,
    "price_level": "",
    "open_hours": "",
    "extraction_timestamp": "2025-06-07T13:59:14.639Z",
    "source_name": "google",
    "source_query": "Irrigation Equipment",
    "source_country": "BG",
    "country": "Bulgaria",
    "state": "Lovech Province",
    "city": "Obshtina Teteven"
  },
  {
    "source_id": "ChIJARXWec1KqkARRIXXcYTK9i4",
    "name": "Morovitsa Cave",
    "category": "Morovitsa Cave",
    "formatted_address": "4,4(106)",
    "phone_number": "",
    "source_url": "https://www.google.com/maps/place/Morovitsa+Cave/data=!4m7!3m6!1s0x40aa4acd79d61501:0x2ef6ca8471d78544!8m2!3d42.9648802!4d24.1798729!16s%2Fg%2F1214fzrg!19sChIJARXWec1KqkARRIXXcYTK9i4?authuser=0&hl=tr&rclk=1",
    "website_url": "",
    "rating_text": "4,4",
    "stars": null,
    "number_of_reviews": null,
    "price_level": "",
    "open_hours": "",
    "extraction_timestamp": "2025-06-07T13:59:14.639Z",
    "source_name": "google",
    "source_query": "Irrigation Equipment",
    "source_country": "BG",
    "country": "Bulgaria",
    "state": "Lovech Province",
    "city": "Obshtina Teteven"
  },
  {
    "source_id": "ChIJD__cvjIzqkARrFg8ITybFUE",
    "name": "Магазин \"Лесидрен\"",
    "category": "Магазин \"Лесидрен\"",
    "formatted_address": "5,0(2)",
    "phone_number": "+359885337441",
    "source_url": "https://www.google.com/maps/place/%D0%9C%D0%B0%D0%B3%D0%B0%D0%B7%D0%B8%D0%BD+%22%D0%9B%D0%B5%D1%81%D0%B8%D0%B4%D1%80%D0%B5%D0%BD%22/data=!4m7!3m6!1s0x40aa3332bedcff0f:0x41159b3c213c58ac!8m2!3d42.869633!4d24.3345366!16s%2Fg%2F11f9zz4wqx!19sChIJD__cvjIzqkARrFg8ITybFUE?authuser=0&hl=tr&rclk=1",
    "website_url": "",
    "rating_text": "5,0",
    "stars": null,
    "number_of_reviews": null,
    "price_level": "",
    "open_hours": "",
    "extraction_timestamp": "2025-06-07T13:59:14.639Z",
    "source_name": "google",
    "source_query": "Irrigation Equipment",
    "source_country": "BG",
    "country": "Bulgaria",
    "state": "Lovech Province",
    "city": "Obshtina Teteven"
  },
  {
    "source_id": "ChIJlWHHcwO1q0ARKpOP7ce7FdY",
    "name": "Магазин „Урчо“",
    "category": "Магазин „Урчо“",
    "formatted_address": "4,8(42)",
    "phone_number": "",
    "source_url": "https://www.google.com/maps/place/%D0%9C%D0%B0%D0%B3%D0%B0%D0%B7%D0%B8%D0%BD+%E2%80%9E%D0%A3%D1%80%D1%87%D0%BE%E2%80%9C/data=!4m7!3m6!1s0x40abb50373c76195:0xd615bbc7ed8f932a!8m2!3d42.9876121!4d24.1859285!16s%2Fg%2F11j84ts10k!19sChIJlWHHcwO1q0ARKpOP7ce7FdY?authuser=0&hl=tr&rclk=1",
    "website_url": "",
    "rating_text": "4,8",
    "stars": null,
    "number_of_reviews": null,
    "price_level": "",
    "open_hours": "",
    "extraction_timestamp": "2025-06-07T13:59:14.640Z",
    "source_name": "google",
    "source_query": "Irrigation Equipment",
    "source_country": "BG",
    "country": "Bulgaria",
    "state": "Lovech Province",
    "city": "Obshtina Teteven"
  },
  {
    "source_id": "ChIJ1USJ9h01qkARJYYUvf2VGC4",
    "name": "Супермаркет \"Централ\"",
    "category": "Супермаркет \"Централ\"",
    "formatted_address": "4,2(39)",
    "phone_number": "",
    "source_url": "https://www.google.com/maps/place/%D0%A1%D1%83%D0%BF%D0%B5%D1%80%D0%BC%D0%B0%D1%80%D0%BA%D0%B5%D1%82+%22%D0%A6%D0%B5%D0%BD%D1%82%D1%80%D0%B0%D0%BB%22/data=!4m7!3m6!1s0x40aa351df68944d5:0x2e1895fdbd148625!8m2!3d42.9199991!4d24.2580706!16s%2Fg%2F11gnpxxxcf!19sChIJ1USJ9h01qkARJYYUvf2VGC4?authuser=0&hl=tr&rclk=1",
    "website_url": "",
    "rating_text": "4,2",
    "stars": null,
    "number_of_reviews": null,
    "price_level": "",
    "open_hours": "",
    "extraction_timestamp": "2025-06-07T13:59:14.640Z",
    "source_name": "google",
    "source_query": "Irrigation Equipment",
    "source_country": "BG",
    "country": "Bulgaria",
    "state": "Lovech Province",
    "city": "Obshtina Teteven"
  },
  {
    "source_id": "ChIJd_MmvR_Jq0ARPe_8uDeCPUA",
    "name": "Tseziavto",
    "category": "Tseziavto",
    "formatted_address": "5,0(3)",
    "phone_number": "+359878850500",
    "source_url": "https://www.google.com/maps/place/Tseziavto/data=!4m7!3m6!1s0x40abc91fbd26f377:0x403d8237b8fcef3d!8m2!3d43.035891!4d24.2840062!16s%2Fg%2F11kk_7vhyl!19sChIJd_MmvR_Jq0ARPe_8uDeCPUA?authuser=0&hl=tr&rclk=1",
    "website_url": "",
    "rating_text": "5,0",
    "stars": null,
    "number_of_reviews": null,
    "price_level": "",
    "open_hours": "",
    "extraction_timestamp": "2025-06-07T13:59:14.640Z",
    "source_name": "google",
    "source_query": "Irrigation Equipment",
    "source_country": "BG",
    "country": "Bulgaria",
    "state": "Lovech Province",
    "city": "Obshtina Teteven"
  },
  {
    "source_id": "ChIJuUMr8O7dq0AR1ZSfc2wrs-8",
    "name": "Professional gardeners Ltd.",
    "category": "Professional gardeners Ltd.",
    "formatted_address": "4,7(56)",
    "phone_number": "+359887406992",
    "source_url": "https://www.google.com/maps/place/Professional+gardeners+Ltd./data=!4m7!3m6!1s0x40abddeef02b43b9:0xefb32b6c739f94d5!8m2!3d43.1601726!4d24.7221959!16s%2Fg%2F1tgpr36n!19sChIJuUMr8O7dq0AR1ZSfc2wrs-8?authuser=0&hl=tr&rclk=1",
    "website_url": "",
    "rating_text": "4,7",
    "stars": null,
    "number_of_reviews": null,
    "price_level": "",
    "open_hours": "",
    "extraction_timestamp": "2025-06-07T13:59:52.247Z",
    "source_name": "google",
    "source_query": "Irrigation Equipment",
    "source_country": "BG",
    "country": "Bulgaria",
    "state": "Lovech Province",
    "city": "Lovech"
  },
  {
    "source_id": "ChIJtcSgcfzdq0ARk1lYMT0M--o",
    "name": "Vodosnabdyavane I Kanalizatsiya",
    "category": "Vodosnabdyavane I Kanalizatsiya",
    "formatted_address": "3,3(84)",
    "phone_number": "+35968651112",
    "source_url": "https://www.google.com/maps/place/Vodosnabdyavane+I+Kanalizatsiya/data=!4m7!3m6!1s0x40abddfc71a0c4b5:0xeafb0c3d31585993!8m2!3d43.1457291!4d24.7176102!16s%2Fg%2F1trrbpnx!19sChIJtcSgcfzdq0ARk1lYMT0M--o?authuser=0&hl=tr&rclk=1",
    "website_url": "",
    "rating_text": "3,3",
    "stars": null,
    "number_of_reviews": null,
    "price_level": "",
    "open_hours": "",
    "extraction_timestamp": "2025-06-07T13:59:52.248Z",
    "source_name": "google",
    "source_query": "Irrigation Equipment",
    "source_country": "BG",
    "country": "Bulgaria",
    "state": "Lovech Province",
    "city": "Lovech"
  },
  {
    "source_id": "ChIJl9iAui3nq0AR7ji6epK858A",
    "name": "Пречиствателна станция за отпадни води Ловеч",
    "category": "Пречиствателна станция за отпадни води Ловеч",
    "formatted_address": "5,0(4)",
    "phone_number": "",
    "source_url": "https://www.google.com/maps/place/%D0%9F%D1%80%D0%B5%D1%87%D0%B8%D1%81%D1%82%D0%B2%D0%B0%D1%82%D0%B5%D0%BB%D0%BD%D0%B0+%D1%81%D1%82%D0%B0%D0%BD%D1%86%D0%B8%D1%8F+%D0%B7%D0%B0+%D0%BE%D1%82%D0%BF%D0%B0%D0%B4%D0%BD%D0%B8+%D0%B2%D0%BE%D0%B4%D0%B8+%D0%9B%D0%BE%D0%B2%D0%B5%D1%87/data=!4m7!3m6!1s0x40abe72dba80d897:0xc0e7bc927aba38ee!8m2!3d43.1758406!4d24.747868!16s%2Fg%2F11c1tyxck7!19sChIJl9iAui3nq0AR7ji6epK858A?authuser=0&hl=tr&rclk=1",
    "website_url": "",
    "rating_text": "5,0",
    "stars": null,
    "number_of_reviews": null,
    "price_level": "",
    "open_hours": "",
    "extraction_timestamp": "2025-06-07T13:59:52.248Z",
    "source_name": "google",
    "source_query": "Irrigation Equipment",
    "source_country": "BG",
    "country": "Bulgaria",
    "state": "Lovech Province",
    "city": "Lovech"
  },
  {
    "source_id": "ChIJg_CX1efdq0AR9TMVjmGHLtM",
    "name": "TOPLIVO - Warehouse Lovech",
    "category": "TOPLIVO - Warehouse Lovech",
    "formatted_address": "4,0(82)",
    "phone_number": "+359878802023",
    "source_url": "https://www.google.com/maps/place/TOPLIVO+-+Warehouse+Lovech/data=!4m7!3m6!1s0x40abdde7d597f083:0xd32e87618e1533f5!8m2!3d43.1388856!4d24.7039726!16s%2Fg%2F11g8xj1tqt!19sChIJg_CX1efdq0AR9TMVjmGHLtM?authuser=0&hl=tr&rclk=1",
    "website_url": "",
    "rating_text": "4,0",
    "stars": null,
    "number_of_reviews": null,
    "price_level": "",
    "open_hours": "",
    "extraction_timestamp": "2025-06-07T13:59:52.249Z",
    "source_name": "google",
    "source_query": "Irrigation Equipment",
    "source_country": "BG",
    "country": "Bulgaria",
    "state": "Lovech Province",
    "city": "Lovech"
  },
  {
    "source_id": "ChIJuQZtsOPdq0AR38sZXw1XI_k",
    "name": "BAHOV EOOD",
    "category": "BAHOV EOOD",
    "formatted_address": "4,4(125)",
    "phone_number": "+35968603388",
    "source_url": "https://www.google.com/maps/place/BAHOV+EOOD/data=!4m7!3m6!1s0x40abdde3b06d06b9:0xf923570d5f19cbdf!8m2!3d43.1362396!4d24.7069942!16s%2Fg%2F1tj94y1z!19sChIJuQZtsOPdq0AR38sZXw1XI_k?authuser=0&hl=tr&rclk=1",
    "website_url": "",
    "rating_text": "4,4",
    "stars": null,
    "number_of_reviews": null,
    "price_level": "",
    "open_hours": "",
    "extraction_timestamp": "2025-06-07T13:59:52.250Z",
    "source_name": "google",
    "source_query": "Irrigation Equipment",
    "source_country": "BG",
    "country": "Bulgaria",
    "state": "Lovech Province",
    "city": "Lovech"
  },
  {
    "source_id": "ChIJq096nPvdq0ARLyMcgfnKag0",
    "name": "KASIOPES - Lovech",
    "category": "KASIOPES - Lovech",
    "formatted_address": "5,0(1)",
    "phone_number": "+359885919457",
    "source_url": "https://www.google.com/maps/place/KASIOPES+-+Lovech/data=!4m7!3m6!1s0x40abddfb9c7a4fab:0xd6acaf9811c232f!8m2!3d43.1459606!4d24.7166685!16s%2Fg%2F11h03mjl9!19sChIJq096nPvdq0ARLyMcgfnKag0?authuser=0&hl=tr&rclk=1",
    "website_url": "",
    "rating_text": "5,0",
    "stars": null,
    "number_of_reviews": null,
    "price_level": "",
    "open_hours": "",
    "extraction_timestamp": "2025-06-07T13:59:52.250Z",
    "source_name": "google",
    "source_query": "Irrigation Equipment",
    "source_country": "BG",
    "country": "Bulgaria",
    "state": "Lovech Province",
    "city": "Lovech"
  },
  {
    "source_id": "ChIJ2T9_nufdq0ARfKMhvR6ePVs",
    "name": "Фемина Строителни Материали",
    "category": "Фемина Строителни Материали",
    "formatted_address": "4,5(14)",
    "phone_number": "+359888478652",
    "source_url": "https://www.google.com/maps/place/%D0%A4%D0%B5%D0%BC%D0%B8%D0%BD%D0%B0+%D0%A1%D1%82%D1%80%D0%BE%D0%B8%D1%82%D0%B5%D0%BB%D0%BD%D0%B8+%D0%9C%D0%B0%D1%82%D0%B5%D1%80%D0%B8%D0%B0%D0%BB%D0%B8/data=!4m7!3m6!1s0x40abdde79e7f3fd9:0x5b3d9e1ebd21a37c!8m2!3d43.1372351!4d24.7056748!16s%2Fg%2F11csb0qdqk!19sChIJ2T9_nufdq0ARfKMhvR6ePVs?authuser=0&hl=tr&rclk=1",
    "website_url": "",
    "rating_text": "4,5",
    "stars": null,
    "number_of_reviews": null,
    "price_level": "",
    "open_hours": "",
    "extraction_timestamp": "2025-06-07T13:59:52.251Z",
    "source_name": "google",
    "source_query": "Irrigation Equipment",
    "source_country": "BG",
    "country": "Bulgaria",
    "state": "Lovech Province",
    "city": "Lovech"
  },
  {
    "source_id": "ChIJOd8iXufdq0ARCMF0D7Q7ShM",
    "name": "Фемина Строителни материали",
    "category": "Фемина Строителни материали",
    "formatted_address": "4,7(24)",
    "phone_number": "+359884021053",
    "source_url": "https://www.google.com/maps/place/%D0%A4%D0%B5%D0%BC%D0%B8%D0%BD%D0%B0+%D0%A1%D1%82%D1%80%D0%BE%D0%B8%D1%82%D0%B5%D0%BB%D0%BD%D0%B8+%D0%BC%D0%B0%D1%82%D0%B5%D1%80%D0%B8%D0%B0%D0%BB%D0%B8/data=!4m7!3m6!1s0x40abdde75e22df39:0x134a3bb40f74c108!8m2!3d43.1361729!4d24.7070702!16s%2Fg%2F11cs5mqwnd!19sChIJOd8iXufdq0ARCMF0D7Q7ShM?authuser=0&hl=tr&rclk=1",
    "website_url": "",
    "rating_text": "4,7",
    "stars": null,
    "number_of_reviews": null,
    "price_level": "",
    "open_hours": "",
    "extraction_timestamp": "2025-06-07T13:59:52.251Z",
    "source_name": "google",
    "source_query": "Irrigation Equipment",
    "source_country": "BG",
    "country": "Bulgaria",
    "state": "Lovech Province",
    "city": "Lovech"
  },
  {
    "source_id": "ChIJCXpKjAreq0ARh_p22-2M-xA",
    "name": "SPORT DEPOT Ловеч",
    "category": "SPORT DEPOT Ловеч",
    "formatted_address": "4,2(169)",
    "phone_number": "+35970190009",
    "source_url": "https://www.google.com/maps/place/SPORT+DEPOT+%D0%9B%D0%BE%D0%B2%D0%B5%D1%87/data=!4m7!3m6!1s0x40abde0a8c4a7a09:0x10fb8ceddb76fa87!8m2!3d43.13563!4d24.71706!16s%2Fg%2F1tfrkvg0!19sChIJCXpKjAreq0ARh_p22-2M-xA?authuser=0&hl=tr&rclk=1",
    "website_url": "",
    "rating_text": "4,2",
    "stars": null,
    "number_of_reviews": null,
    "price_level": "",
    "open_hours": "",
    "extraction_timestamp": "2025-06-07T13:59:52.252Z",
    "source_name": "google",
    "source_query": "Irrigation Equipment",
    "source_country": "BG",
    "country": "Bulgaria",
    "state": "Lovech Province",
    "city": "Lovech"
  },
  {
    "source_id": "ChIJCQ7czfzdq0ARr9zLjwghROg",
    "name": "Obshtinski Pazari Lovech",
    "category": "Obshtinski Pazari Lovech",
    "formatted_address": "3,6(549)",
    "phone_number": "+35968603232",
    "source_url": "https://www.google.com/maps/place/Obshtinski+Pazari+Lovech/data=!4m7!3m6!1s0x40abddfccddc0e09:0xe84421088fcbdcaf!8m2!3d43.1448282!4d24.7185164!16s%2Fg%2F1tcxy9tq!19sChIJCQ7czfzdq0ARr9zLjwghROg?authuser=0&hl=tr&rclk=1",
    "website_url": "",
    "rating_text": "3,6",
    "stars": null,
    "number_of_reviews": null,
    "price_level": "",
    "open_hours": "",
    "extraction_timestamp": "2025-06-07T13:59:52.252Z",
    "source_name": "google",
    "source_query": "Irrigation Equipment",
    "source_country": "BG",
    "country": "Bulgaria",
    "state": "Lovech Province",
    "city": "Lovech"
  },
  {
    "source_id": "ChIJV5mCnczUUwgRG-I5ClV8_so",
    "name": "MSDgroup-Борба с вредители-ДДД",
    "category": "MSDgroup-Борба с вредители-ДДД",
    "formatted_address": "5,0(3)",
    "phone_number": "+359884807330",
    "source_url": "https://www.google.com/maps/place/MSDgroup-%D0%91%D0%BE%D1%80%D0%B1%D0%B0+%D1%81+%D0%B2%D1%80%D0%B5%D0%B4%D0%B8%D1%82%D0%B5%D0%BB%D0%B8-%D0%94%D0%94%D0%94/data=!4m7!3m6!1s0x853d4cc9d829957:0xcafe7c550a39e21b!8m2!3d43.1445748!4d24.7167732!16s%2Fg%2F11txmbxhdb!19sChIJV5mCnczUUwgRG-I5ClV8_so?authuser=0&hl=tr&rclk=1",
    "website_url": "",
    "rating_text": "5,0",
    "stars": null,
    "number_of_reviews": null,
    "price_level": "",
    "open_hours": "",
    "extraction_timestamp": "2025-06-07T13:59:52.253Z",
    "source_name": "google",
    "source_query": "Irrigation Equipment",
    "source_country": "BG",
    "country": "Bulgaria",
    "state": "Lovech Province",
    "city": "Lovech"
  },
  {
    "source_id": "ChIJryTLmOfdq0AR6CG7P8ymvx0",
    "name": "DIM 2 | дървен материал | над 100 кубика | склад | Гипсокартон",
    "category": "DIM 2 | дървен материал | над 100 кубика | склад | Гипсокартон",
    "formatted_address": "5,0(1)",
    "phone_number": "+359889850909",
    "source_url": "https://www.google.com/maps/place/DIM+2+%7C+%D0%B4%D1%8A%D1%80%D0%B2%D0%B5%D0%BD+%D0%BC%D0%B0%D1%82%D0%B5%D1%80%D0%B8%D0%B0%D0%BB+%7C+%D0%BD%D0%B0%D0%B4+100+%D0%BA%D1%83%D0%B1%D0%B8%D0%BA%D0%B0+%7C+%D1%81%D0%BA%D0%BB%D0%B0%D0%B4+%7C+%D0%93%D0%B8%D0%BF%D1%81%D0%BE%D0%BA%D0%B0%D1%80%D1%82%D0%BE%D0%BD/data=!4m7!3m6!1s0x40abdde798cb24af:0x1dbfa6cc3fbb21e8!8m2!3d43.1368845!4d24.706431!16s%2Fg%2F11gfpbrb1m!19sChIJryTLmOfdq0AR6CG7P8ymvx0?authuser=0&hl=tr&rclk=1",
    "website_url": "",
    "rating_text": "5,0",
    "stars": null,
    "number_of_reviews": null,
    "price_level": "",
    "open_hours": "",
    "extraction_timestamp": "2025-06-07T13:59:52.253Z",
    "source_name": "google",
    "source_query": "Irrigation Equipment",
    "source_country": "BG",
    "country": "Bulgaria",
    "state": "Lovech Province",
    "city": "Lovech"
  },
  {
    "source_id": "ChIJMW2JoOPdq0ARdBsTMF93kyk",
    "name": "Отопление и Солар ЕООД гр. Ловеч",
    "category": "Отопление и Солар ЕООД гр. Ловеч",
    "formatted_address": "3,0(2)",
    "phone_number": "+359898883085",
    "source_url": "https://www.google.com/maps/place/%D0%9E%D1%82%D0%BE%D0%BF%D0%BB%D0%B5%D0%BD%D0%B8%D0%B5+%D0%B8+%D0%A1%D0%BE%D0%BB%D0%B0%D1%80+%D0%95%D0%9E%D0%9E%D0%94+%D0%B3%D1%80.+%D0%9B%D0%BE%D0%B2%D0%B5%D1%87/data=!4m7!3m6!1s0x40abdde3a0896d31:0x2993775f30131b74!8m2!3d43.1438949!4d24.7145588!16s%2Fg%2F11hyt02tx7!19sChIJMW2JoOPdq0ARdBsTMF93kyk?authuser=0&hl=tr&rclk=1",
    "website_url": "",
    "rating_text": "3,0",
    "stars": null,
    "number_of_reviews": null,
    "price_level": "",
    "open_hours": "",
    "extraction_timestamp": "2025-06-07T13:59:52.254Z",
    "source_name": "google",
    "source_query": "Irrigation Equipment",
    "source_country": "BG",
    "country": "Bulgaria",
    "state": "Lovech Province",
    "city": "Lovech"
  },
  {
    "source_id": "ChIJIc_UnDHdq0ARehxTX2YG3wc",
    "name": "Elmiks",
    "category": "Elmiks",
    "formatted_address": "4,5(13)",
    "phone_number": "+359888969290",
    "source_url": "https://www.google.com/maps/place/Elmiks/data=!4m7!3m6!1s0x40abdd319cd4cf21:0x7df06665f531c7a!8m2!3d43.1465!4d24.7159355!16s%2Fg%2F11h27mmypm!19sChIJIc_UnDHdq0ARehxTX2YG3wc?authuser=0&hl=tr&rclk=1",
    "website_url": "",
    "rating_text": "4,5",
    "stars": null,
    "number_of_reviews": null,
    "price_level": "",
    "open_hours": "",
    "extraction_timestamp": "2025-06-07T13:59:52.254Z",
    "source_name": "google",
    "source_query": "Irrigation Equipment",
    "source_country": "BG",
    "country": "Bulgaria",
    "state": "Lovech Province",
    "city": "Lovech"
  },
  {
    "source_id": "ChIJB7RGA_vdq0ARlUhc5fqEmTQ",
    "name": "Елит Кар",
    "category": "Елит Кар",
    "formatted_address": "4,2(87)",
    "phone_number": "+35968601506",
    "source_url": "https://www.google.com/maps/place/%D0%95%D0%BB%D0%B8%D1%82+%D0%9A%D0%B0%D1%80/data=!4m7!3m6!1s0x40abddfb0346b407:0x349984fae55c4895!8m2!3d43.146224!4d24.7141255!16s%2Fg%2F11c3pwm0l_!19sChIJB7RGA_vdq0ARlUhc5fqEmTQ?authuser=0&hl=tr&rclk=1",
    "website_url": "",
    "rating_text": "4,2",
    "stars": null,
    "number_of_reviews": null,
    "price_level": "",
    "open_hours": "",
    "extraction_timestamp": "2025-06-07T13:59:52.255Z",
    "source_name": "google",
    "source_query": "Irrigation Equipment",
    "source_country": "BG",
    "country": "Bulgaria",
    "state": "Lovech Province",
    "city": "Lovech"
  },
  {
    "source_id": "ChIJ1dTzBxTdq0ARwae-oV342hA",
    "name": "Технополис Ловеч",
    "category": "Технополис Ловеч",
    "formatted_address": "4,6(19)",
    "phone_number": "+35968587111",
    "source_url": "https://www.google.com/maps/place/%D0%A2%D0%B5%D1%85%D0%BD%D0%BE%D0%BF%D0%BE%D0%BB%D0%B8%D1%81+%D0%9B%D0%BE%D0%B2%D0%B5%D1%87/data=!4m7!3m6!1s0x40abdd1407f3d4d5:0x10daf85da1bea7c1!8m2!3d43.1451878!4d24.7128201!16s%2Fg%2F11w3bnph4w!19sChIJ1dTzBxTdq0ARwae-oV342hA?authuser=0&hl=tr&rclk=1",
    "website_url": "",
    "rating_text": "4,6",
    "stars": null,
    "number_of_reviews": null,
    "price_level": "",
    "open_hours": "",
    "extraction_timestamp": "2025-06-07T13:59:52.255Z",
    "source_name": "google",
    "source_query": "Irrigation Equipment",
    "source_country": "BG",
    "country": "Bulgaria",
    "state": "Lovech Province",
    "city": "Lovech"
  },
  {
    "source_id": "ChIJHTtVrwndq0ARvDw5K_p60Ro",
    "name": "Литиум ООД",
    "category": "Литиум ООД",
    "formatted_address": "4,7(6)",
    "phone_number": "+35968520801",
    "source_url": "https://www.google.com/maps/place/%D0%9B%D0%B8%D1%82%D0%B8%D1%83%D0%BC+%D0%9E%D0%9E%D0%94/data=!4m7!3m6!1s0x40abdd09af553b1d:0x1ad17afa2b393cbc!8m2!3d43.1197875!4d24.7138125!16s%2Fg%2F11jncr0z4j!19sChIJHTtVrwndq0ARvDw5K_p60Ro?authuser=0&hl=tr&rclk=1",
    "website_url": "",
    "rating_text": "4,7",
    "stars": null,
    "number_of_reviews": null,
    "price_level": "",
    "open_hours": "",
    "extraction_timestamp": "2025-06-07T13:59:52.256Z",
    "source_name": "google",
    "source_query": "Irrigation Equipment",
    "source_country": "BG",
    "country": "Bulgaria",
    "state": "Lovech Province",
    "city": "Lovech"
  },
  {
    "source_id": "ChIJiWnCeaHfq0ARqLlZRmukFSo",
    "name": "H&S Petkoff Beershop",
    "category": "H&S Petkoff Beershop",
    "formatted_address": "4,6(103) · BGN 10–20",
    "phone_number": "+359883697979",
    "source_url": "https://www.google.com/maps/place/H%26S+Petkoff+Beershop/data=!4m7!3m6!1s0x40abdfa179c26989:0x2a15a46b4659b9a8!8m2!3d43.1337306!4d24.7167133!16s%2Fg%2F11fm_982sj!19sChIJiWnCeaHfq0ARqLlZRmukFSo?authuser=0&hl=tr&rclk=1",
    "website_url": "",
    "rating_text": "4,6",
    "stars": null,
    "number_of_reviews": null,
    "price_level": "",
    "open_hours": "",
    "extraction_timestamp": "2025-06-07T13:59:52.256Z",
    "source_name": "google",
    "source_query": "Irrigation Equipment",
    "source_country": "BG",
    "country": "Bulgaria",
    "state": "Lovech Province",
    "city": "Lovech"
  },
  {
    "source_id": "ChIJETdn7O7dq0ARjYlj-8e9gaU",
    "name": "Магазин \"Лесидрен\"",
    "category": "Магазин \"Лесидрен\"",
    "formatted_address": "4,4(106)",
    "phone_number": "+359885336661",
    "source_url": "https://www.google.com/maps/place/%D0%9C%D0%B0%D0%B3%D0%B0%D0%B7%D0%B8%D0%BD+%22%D0%9B%D0%B5%D1%81%D0%B8%D0%B4%D1%80%D0%B5%D0%BD%22/data=!4m7!3m6!1s0x40abddeeec673711:0xa581bdc7fb63898d!8m2!3d43.1438695!4d24.7150859!16s%2Fg%2F11gmcxhsp_!19sChIJETdn7O7dq0ARjYlj-8e9gaU?authuser=0&hl=tr&rclk=1",
    "website_url": "",
    "rating_text": "4,4",
    "stars": null,
    "number_of_reviews": null,
    "price_level": "",
    "open_hours": "",
    "extraction_timestamp": "2025-06-07T13:59:52.256Z",
    "source_name": "google",
    "source_query": "Irrigation Equipment",
    "source_country": "BG",
    "country": "Bulgaria",
    "state": "Lovech Province",
    "city": "Lovech"
  },
  {
    "source_id": "ChIJC59CLADdq0ARp04XFFIEcZ8",
    "name": "АЛТЕРО ЕООД",
    "category": "АЛТЕРО ЕООД",
    "formatted_address": "",
    "phone_number": "+359882345067",
    "source_url": "https://www.google.com/maps/place/%D0%90%D0%9B%D0%A2%D0%95%D0%A0%D0%9E+%D0%95%D0%9E%D0%9E%D0%94/data=!4m7!3m6!1s0x40abdd002c429f0b:0x9f71045214174ea7!8m2!3d43.1501391!4d24.7158047!16s%2Fg%2F11y48cnv63!19sChIJC59CLADdq0ARp04XFFIEcZ8?authuser=0&hl=tr&rclk=1",
    "website_url": "",
    "rating_text": "",
    "stars": null,
    "number_of_reviews": null,
    "price_level": "",
    "open_hours": "",
    "extraction_timestamp": "2025-06-07T13:59:52.257Z",
    "source_name": "google",
    "source_query": "Irrigation Equipment",
    "source_country": "BG",
    "country": "Bulgaria",
    "state": "Lovech Province",
    "city": "Lovech"
  },
  {
    "source_id": "ChIJNwuYuPzdq0AR6P-joo7U7Hg",
    "name": "Slavimes",
    "category": "Slavimes",
    "formatted_address": "4,0(134)",
    "phone_number": "+35968601080",
    "source_url": "https://www.google.com/maps/place/Slavimes/data=!4m7!3m6!1s0x40abddfcb8980b37:0x78ecd48ea2a3ffe8!8m2!3d43.1458037!4d24.7163333!16s%2Fg%2F1tdzv6hv!19sChIJNwuYuPzdq0AR6P-joo7U7Hg?authuser=0&hl=tr&rclk=1",
    "website_url": "",
    "rating_text": "4,0",
    "stars": null,
    "number_of_reviews": null,
    "price_level": "",
    "open_hours": "",
    "extraction_timestamp": "2025-06-07T13:59:52.257Z",
    "source_name": "google",
    "source_query": "Irrigation Equipment",
    "source_country": "BG",
    "country": "Bulgaria",
    "state": "Lovech Province",
    "city": "Lovech"
  },
  {
    "source_id": "ChIJY_Nr6wneq0ARk7QOe4KhATo",
    "name": "Momchil Petrov",
    "category": "Momchil Petrov",
    "formatted_address": "4,4(160)",
    "phone_number": "+35968601364",
    "source_url": "https://www.google.com/maps/place/Momchil+Petrov/data=!4m7!3m6!1s0x40abde09eb6bf363:0x3a01a1827b0eb493!8m2!3d43.140491!4d24.7025153!16s%2Fg%2F1tghbmz5!19sChIJY_Nr6wneq0ARk7QOe4KhATo?authuser=0&hl=tr&rclk=1",
    "website_url": "",
    "rating_text": "4,4",
    "stars": null,
    "number_of_reviews": null,
    "price_level": "",
    "open_hours": "",
    "extraction_timestamp": "2025-06-07T13:59:52.258Z",
    "source_name": "google",
    "source_query": "Irrigation Equipment",
    "source_country": "BG",
    "country": "Bulgaria",
    "state": "Lovech Province",
    "city": "Lovech"
  },
  {
    "source_id": "ChIJFwuagt7dq0AR8TqKmSFrxuE",
    "name": "BILLA",
    "category": "BILLA",
    "formatted_address": "3,9(1.404)",
    "phone_number": "+35968689710",
    "source_url": "https://www.google.com/maps/place/BILLA/data=!4m7!3m6!1s0x40abddde829a0b17:0xe1c66b21998a3af1!8m2!3d43.1346772!4d24.7096422!16s%2Fg%2F1th26x31!19sChIJFwuagt7dq0AR8TqKmSFrxuE?authuser=0&hl=tr&rclk=1",
    "website_url": "",
    "rating_text": "3,9",
    "stars": null,
    "number_of_reviews": null,
    "price_level": "",
    "open_hours": "",
    "extraction_timestamp": "2025-06-07T13:59:52.258Z",
    "source_name": "google",
    "source_query": "Irrigation Equipment",
    "source_country": "BG",
    "country": "Bulgaria",
    "state": "Lovech Province",
    "city": "Lovech"
  },
  {
    "source_id": "ChIJCcA1zPrdq0ARHnOArSi45dM",
    "name": "Lidl",
    "category": "Lidl",
    "formatted_address": "4,3(1.936)",
    "phone_number": "+35929066444",
    "source_url": "https://www.google.com/maps/place/Lidl/data=!4m7!3m6!1s0x40abddfacc35c009:0xd3e5b828ad80731e!8m2!3d43.1445614!4d24.7118112!16s%2Fg%2F11b7h_v046!19sChIJCcA1zPrdq0ARHnOArSi45dM?authuser=0&hl=tr&rclk=1",
    "website_url": "",
    "rating_text": "4,3",
    "stars": null,
    "number_of_reviews": null,
    "price_level": "",
    "open_hours": "",
    "extraction_timestamp": "2025-06-07T13:59:52.259Z",
    "source_name": "google",
    "source_query": "Irrigation Equipment",
    "source_country": "BG",
    "country": "Bulgaria",
    "state": "Lovech Province",
    "city": "Lovech"
  },
  {
    "source_id": "ChIJfRCBT1vnq0AR4l3YFYZiNW8",
    "name": "T MARKET",
    "category": "T MARKET",
    "formatted_address": "3,8(1.013)",
    "phone_number": "+35970070171",
    "source_url": "https://www.google.com/maps/place/T+MARKET/data=!4m7!3m6!1s0x40abe75b4f81107d:0x6f35628615d85de2!8m2!3d43.1504564!4d24.716543!16s%2Fg%2F11c1tb2zpn!19sChIJfRCBT1vnq0AR4l3YFYZiNW8?authuser=0&hl=tr&rclk=1",
    "website_url": "",
    "rating_text": "3,8",
    "stars": null,
    "number_of_reviews": null,
    "price_level": "",
    "open_hours": "",
    "extraction_timestamp": "2025-06-07T13:59:52.269Z",
    "source_name": "google",
    "source_query": "Irrigation Equipment",
    "source_country": "BG",
    "country": "Bulgaria",
    "state": "Lovech Province",
    "city": "Lovech"
  },
  {
    "source_id": "ChIJVxQuyZ_fq0ARAVd7dPZI-Uo",
    "name": "Хранителен магазин \"Вароша\"",
    "category": "Хранителен магазин \"Вароша\"",
    "formatted_address": "4,6(16)",
    "phone_number": "",
    "source_url": "https://www.google.com/maps/place/%D0%A5%D1%80%D0%B0%D0%BD%D0%B8%D1%82%D0%B5%D0%BB%D0%B5%D0%BD+%D0%BC%D0%B0%D0%B3%D0%B0%D0%B7%D0%B8%D0%BD+%22%D0%92%D0%B0%D1%80%D0%BE%D1%88%D0%B0%22/data=!4m7!3m6!1s0x40abdf9fc92e1457:0x4af948f6747b5701!8m2!3d43.1312884!4d24.7168217!16s%2Fg%2F11q3vrfb3x!19sChIJVxQuyZ_fq0ARAVd7dPZI-Uo?authuser=0&hl=tr&rclk=1",
    "website_url": "",
    "rating_text": "4,6",
    "stars": null,
    "number_of_reviews": null,
    "price_level": "",
    "open_hours": "",
    "extraction_timestamp": "2025-06-07T13:59:52.270Z",
    "source_name": "google",
    "source_query": "Irrigation Equipment",
    "source_country": "BG",
    "country": "Bulgaria",
    "state": "Lovech Province",
    "city": "Lovech"
  },
  {
    "source_id": "ChIJr6p673Teq0AR7NZ7Vwqn2mI",
    "name": "Iron Fe -26 Coffee & Friends",
    "category": "Iron Fe -26 Coffee & Friends",
    "formatted_address": "4,5(878) · BGN 10–20",
    "phone_number": "+359877131466",
    "source_url": "https://www.google.com/maps/place/Iron+Fe+-26+Coffee+%26+Friends/data=!4m7!3m6!1s0x40abde74ef7aaaaf:0x62daa70a577bd6ec!8m2!3d43.1320844!4d24.7170144!16s%2Fg%2F11g878ymrd!19sChIJr6p673Teq0AR7NZ7Vwqn2mI?authuser=0&hl=tr&rclk=1",
    "website_url": "",
    "rating_text": "4,5",
    "stars": null,
    "number_of_reviews": null,
    "price_level": "",
    "open_hours": "",
    "extraction_timestamp": "2025-06-07T13:59:52.270Z",
    "source_name": "google",
    "source_query": "Irrigation Equipment",
    "source_country": "BG",
    "country": "Bulgaria",
    "state": "Lovech Province",
    "city": "Lovech"
  },
  {
    "source_id": "ChIJ33nIng6zq0AR6iQ7S16RL9M",
    "name": "Angro / Ангро",
    "category": "Angro / Ангро",
    "formatted_address": "4,8(49)",
    "phone_number": "",
    "source_url": "https://www.google.com/maps/place/Angro+%2F+%D0%90%D0%BD%D0%B3%D1%80%D0%BE/data=!4m7!3m6!1s0x40abb30e9ec879df:0xd32f915e4b3b24ea!8m2!3d43.0330724!4d24.0994086!16s%2Fg%2F11qh5p3q3y!19sChIJ33nIng6zq0AR6iQ7S16RL9M?authuser=0&hl=tr&rclk=1",
    "website_url": "https://www.angrobg.com/",
    "rating_text": "4,8",
    "stars": null,
    "number_of_reviews": null,
    "price_level": "",
    "open_hours": "",
    "extraction_timestamp": "2025-06-07T14:00:00.820Z",
    "source_name": "google",
    "source_query": "Irrigation Equipment",
    "source_country": "BG",
    "country": "Bulgaria",
    "state": "Lovech Province",
    "city": "Yablanitsa"
  },
  {
    "source_id": "ChIJ8YL4_36zq0AR5r-06plNuJA",
    "name": "Food Store",
    "category": "Food Store",
    "formatted_address": "4,6(54)",
    "phone_number": "",
    "source_url": "https://www.google.com/maps/place/Food+Store/data=!4m7!3m6!1s0x40abb37efff882f1:0x90b84d99eab4bfe6!8m2!3d43.0211546!4d24.0970484!16s%2Fg%2F11k52tdblq!19sChIJ8YL4_36zq0AR5r-06plNuJA?authuser=0&hl=tr&rclk=1",
    "website_url": "",
    "rating_text": "4,6",
    "stars": null,
    "number_of_reviews": null,
    "price_level": "",
    "open_hours": "",
    "extraction_timestamp": "2025-06-07T14:00:00.820Z",
    "source_name": "google",
    "source_query": "Irrigation Equipment",
    "source_country": "BG",
    "country": "Bulgaria",
    "state": "Lovech Province",
    "city": "Yablanitsa"
  },
  {
    "source_id": "ChIJZWMiJVFXqkARQgDFOLoABHE",
    "name": "Irrigation systems",
    "category": "Irrigation systems",
    "formatted_address": "3,0(1)",
    "phone_number": "",
    "source_url": "https://www.google.com/maps/place/Irrigation+systems/data=!4m7!3m6!1s0x40aa575125226365:0x710400ba38c50042!8m2!3d42.9101731!4d23.8037135!16s%2Fg%2F11g9f5s4_z!19sChIJZWMiJVFXqkARQgDFOLoABHE?authuser=0&hl=tr&rclk=1",
    "website_url": "",
    "rating_text": "3,0",
    "stars": null,
    "number_of_reviews": null,
    "price_level": "",
    "open_hours": "",
    "extraction_timestamp": "2025-06-07T14:00:00.820Z",
    "source_name": "google",
    "source_query": "Irrigation Equipment",
    "source_country": "BG",
    "country": "Bulgaria",
    "state": "Lovech Province",
    "city": "Yablanitsa"
  },
  {
    "source_id": "ChIJ9Qz1mpKzq0ARnFq54IjFc6E",
    "name": "Моят магазин",
    "category": "Моят магазин",
    "formatted_address": "4,7(28)",
    "phone_number": "",
    "source_url": "https://www.google.com/maps/place/%D0%9C%D0%BE%D1%8F%D1%82+%D0%BC%D0%B0%D0%B3%D0%B0%D0%B7%D0%B8%D0%BD/data=!4m7!3m6!1s0x40abb3929af50cf5:0xa173c588e0b95a9c!8m2!3d43.0281771!4d24.1011128!16s%2Fg%2F11js90w3_f!19sChIJ9Qz1mpKzq0ARnFq54IjFc6E?authuser=0&hl=tr&rclk=1",
    "website_url": "",
    "rating_text": "4,7",
    "stars": null,
    "number_of_reviews": null,
    "price_level": "",
    "open_hours": "",
    "extraction_timestamp": "2025-06-07T14:00:00.821Z",
    "source_name": "google",
    "source_query": "Irrigation Equipment",
    "source_country": "BG",
    "country": "Bulgaria",
    "state": "Lovech Province",
    "city": "Yablanitsa"
  },
  {
    "source_id": "ChIJceqv6MuEqkAR45AXk38sGOE",
    "name": "Irrigation Systems",
    "category": "Irrigation Systems",
    "formatted_address": "4,4(10)",
    "phone_number": "+35928085001",
    "source_url": "https://www.google.com/maps/place/Irrigation+Systems/data=!4m7!3m6!1s0x40aa84cbe8afea71:0xe1182c7f931790e3!8m2!3d42.6700035!4d23.2681798!16s%2Fg%2F1thtbmsl!19sChIJceqv6MuEqkAR45AXk38sGOE?authuser=0&hl=tr&rclk=1",
    "website_url": "https://nps.bg/",
    "rating_text": "4,4",
    "stars": null,
    "number_of_reviews": null,
    "price_level": "",
    "open_hours": "",
    "extraction_timestamp": "2025-06-07T14:00:00.821Z",
    "source_name": "google",
    "source_query": "Irrigation Equipment",
    "source_country": "BG",
    "country": "Bulgaria",
    "state": "Lovech Province",
    "city": "Yablanitsa"
  }
]
