[
  {
    "source_id": "ChIJ-WIJDKM0q0ARpuapJwuD3OI",
    "name": "Полихрон ЕООД",
    "category": "Полихрон ЕООД",
    "formatted_address": "4,5(216)",
    "phone_number": "+35996300660",
    "source_url": "https://www.google.com/maps/place/%D0%9F%D0%BE%D0%BB%D0%B8%D1%85%D1%80%D0%BE%D0%BD+%D0%95%D0%9E%D0%9E%D0%94/data=!4m7!3m6!1s0x40ab34a30c0962f9:0xe2dc830b27a9e6a6!8m2!3d43.4118521!4d23.2389808!16s%2Fg%2F11c38dzs5q!19sChIJ-WIJDKM0q0ARpuapJwuD3OI?authuser=0&hl=tr&rclk=1",
    "website_url": "http://polihron.bg/",
    "rating_text": "4,5",
    "stars": null,
    "number_of_reviews": null,
    "price_level": "",
    "open_hours": "",
    "extraction_timestamp": "2025-06-07T13:39:02.287Z",
    "source_name": "google",
    "source_query": "Irrigation Equipment",
    "source_country": "BG",
    "country": "Bulgaria",
    "state": "Montana Province",
    "city": "Montana"
  },
  {
    "source_id": "ChIJQRUHz4k1q0ARVpCyR2jAGZA",
    "name": "Строймаркет Monix",
    "category": "Строймаркет Monix",
    "formatted_address": "4,2(28)",
    "phone_number": "+359876363644",
    "source_url": "https://www.google.com/maps/place/%D0%A1%D1%82%D1%80%D0%BE%D0%B9%D0%BC%D0%B0%D1%80%D0%BA%D0%B5%D1%82+Monix/data=!4m7!3m6!1s0x40ab3589cf071541:0x9019c06847b29056!8m2!3d43.4203541!4d23.2268428!16s%2Fg%2F11t_kvn5lp!19sChIJQRUHz4k1q0ARVpCyR2jAGZA?authuser=0&hl=tr&rclk=1",
    "website_url": "https://stroymarket-monix.com/",
    "rating_text": "4,2",
    "stars": null,
    "number_of_reviews": null,
    "price_level": "",
    "open_hours": "",
    "extraction_timestamp": "2025-06-07T13:39:02.289Z",
    "source_name": "google",
    "source_query": "Irrigation Equipment",
    "source_country": "BG",
    "country": "Bulgaria",
    "state": "Montana Province",
    "city": "Montana"
  },
  {
    "source_id": "ChIJ3f4Nd2Izq0ARAcebBVgSZIM",
    "name": "МАР МАГ ИТИ ЕООД",
    "category": "МАР МАГ ИТИ ЕООД",
    "formatted_address": "4,4(108)",
    "phone_number": "+359888361362",
    "source_url": "https://www.google.com/maps/place/%D0%9C%D0%90%D0%A0+%D0%9C%D0%90%D0%93+%D0%98%D0%A2%D0%98+%D0%95%D0%9E%D0%9E%D0%94/data=!4m7!3m6!1s0x40ab3362770dfedd:0x83641258059bc701!8m2!3d43.403394!4d23.2464826!16s%2Fg%2F11cndbspq2!19sChIJ3f4Nd2Izq0ARAcebBVgSZIM?authuser=0&hl=tr&rclk=1",
    "website_url": "http://www.marmag.bg/",
    "rating_text": "4,4",
    "stars": null,
    "number_of_reviews": null,
    "price_level": "",
    "open_hours": "",
    "extraction_timestamp": "2025-06-07T13:39:02.290Z",
    "source_name": "google",
    "source_query": "Irrigation Equipment",
    "source_country": "BG",
    "country": "Bulgaria",
    "state": "Montana Province",
    "city": "Montana"
  },
  {
    "source_id": "ChIJCTN80p80q0ARG0vPs57mgHk",
    "name": "TeMax Montana",
    "category": "TeMax Montana",
    "formatted_address": "4,1(996)",
    "phone_number": "+35996300058",
    "source_url": "https://www.google.com/maps/place/TeMax+Montana/data=!4m7!3m6!1s0x40ab349fd27c3309:0x7980e69eb3cf4b1b!8m2!3d43.4049858!4d23.241104!16s%2Fg%2F11f4m59y2h!19sChIJCTN80p80q0ARG0vPs57mgHk?authuser=0&hl=tr&rclk=1",
    "website_url": "http://temax.bg/",
    "rating_text": "4,1",
    "stars": null,
    "number_of_reviews": null,
    "price_level": "",
    "open_hours": "",
    "extraction_timestamp": "2025-06-07T13:39:02.291Z",
    "source_name": "google",
    "source_query": "Irrigation Equipment",
    "source_country": "BG",
    "country": "Bulgaria",
    "state": "Montana Province",
    "city": "Montana"
  },
  {
    "source_id": "ChIJN8Nz0K00q0ARaaM_5LJ7SCU",
    "name": "BALKAN HYDRO",
    "category": "BALKAN HYDRO",
    "formatted_address": "5,0(1)",
    "phone_number": "+359878470190",
    "source_url": "https://www.google.com/maps/place/BALKAN+HYDRO/data=!4m7!3m6!1s0x40ab34add073c337:0x25487bb2e43fa369!8m2!3d43.4156257!4d23.224856!16s%2Fg%2F11c54gjlp0!19sChIJN8Nz0K00q0ARaaM_5LJ7SCU?authuser=0&hl=tr&rclk=1",
    "website_url": "",
    "rating_text": "5,0",
    "stars": null,
    "number_of_reviews": null,
    "price_level": "",
    "open_hours": "",
    "extraction_timestamp": "2025-06-07T13:39:02.293Z",
    "source_name": "google",
    "source_query": "Irrigation Equipment",
    "source_country": "BG",
    "country": "Bulgaria",
    "state": "Montana Province",
    "city": "Montana"
  },
  {
    "source_id": "ChIJSzvOEq00q0ARS-vKS_3WElE",
    "name": "Husqvarna Montana",
    "category": "Husqvarna Montana",
    "formatted_address": "4,5(22)",
    "phone_number": "+35996307310",
    "source_url": "https://www.google.com/maps/place/Husqvarna+Montana/data=!4m7!3m6!1s0x40ab34ad12ce3b4b:0x5112d6fd4bcaeb4b!8m2!3d43.4168575!4d23.2220052!16s%2Fg%2F11b776c355!19sChIJSzvOEq00q0ARS-vKS_3WElE?authuser=0&hl=tr&rclk=1",
    "website_url": "",
    "rating_text": "4,5",
    "stars": null,
    "number_of_reviews": null,
    "price_level": "",
    "open_hours": "",
    "extraction_timestamp": "2025-06-07T13:39:02.197Z",
    "source_name": "google",
    "source_query": "Irrigation Equipment",
    "source_country": "BG",
    "country": "Bulgaria",
    "state": "Montana Province",
    "city": "Obshtina Montana"
  },
  {
    "source_id": "ChIJ-WIJDKM0q0ARpuapJwuD3OI",
    "name": "Полихрон ЕООД",
    "category": "Полихрон ЕООД",
    "formatted_address": "4,5(216)",
    "phone_number": "+35996300660",
    "source_url": "https://www.google.com/maps/place/%D0%9F%D0%BE%D0%BB%D0%B8%D1%85%D1%80%D0%BE%D0%BD+%D0%95%D0%9E%D0%9E%D0%94/data=!4m7!3m6!1s0x40ab34a30c0962f9:0xe2dc830b27a9e6a6!8m2!3d43.4118521!4d23.2389808!16s%2Fg%2F11c38dzs5q!19sChIJ-WIJDKM0q0ARpuapJwuD3OI?authuser=0&hl=tr&rclk=1",
    "website_url": "",
    "rating_text": "4,5",
    "stars": null,
    "number_of_reviews": null,
    "price_level": "",
    "open_hours": "",
    "extraction_timestamp": "2025-06-07T13:39:02.200Z",
    "source_name": "google",
    "source_query": "Irrigation Equipment",
    "source_country": "BG",
    "country": "Bulgaria",
    "state": "Montana Province",
    "city": "Obshtina Montana"
  },
  {
    "source_id": "ChIJyzu8eKU0q0AR2qCLWlh0Z98",
    "name": "TOPLIVO - Warehouse Montana",
    "category": "TOPLIVO - Warehouse Montana",
    "formatted_address": "4,2(61)",
    "phone_number": "+359884704979",
    "source_url": "https://www.google.com/maps/place/TOPLIVO+-+Warehouse+Montana/data=!4m7!3m6!1s0x40ab34a578bc3bcb:0xdf6774585a8ba0da!8m2!3d43.4132357!4d23.2316827!16s%2Fg%2F11g8w7w_cv!19sChIJyzu8eKU0q0AR2qCLWlh0Z98?authuser=0&hl=tr&rclk=1",
    "website_url": "",
    "rating_text": "4,2",
    "stars": null,
    "number_of_reviews": null,
    "price_level": "",
    "open_hours": "",
    "extraction_timestamp": "2025-06-07T13:39:02.202Z",
    "source_name": "google",
    "source_query": "Irrigation Equipment",
    "source_country": "BG",
    "country": "Bulgaria",
    "state": "Montana Province",
    "city": "Obshtina Montana"
  },
  {
    "source_id": "ChIJS3zrbrQ0q0ARRzLrm0zyhWM",
    "name": "Technopolis Montana",
    "category": "Technopolis Montana",
    "formatted_address": "4,4(1.113)",
    "phone_number": "+35996390666",
    "source_url": "https://www.google.com/maps/place/Technopolis+Montana/data=!4m7!3m6!1s0x40ab34b46eeb7c4b:0x6385f24c9beb3247!8m2!3d43.4219989!4d23.2286186!16s%2Fg%2F1260j_x52!19sChIJS3zrbrQ0q0ARRzLrm0zyhWM?authuser=0&hl=tr&rclk=1",
    "website_url": "",
    "rating_text": "4,4",
    "stars": null,
    "number_of_reviews": null,
    "price_level": "",
    "open_hours": "",
    "extraction_timestamp": "2025-06-07T13:39:02.206Z",
    "source_name": "google",
    "source_query": "Irrigation Equipment",
    "source_country": "BG",
    "country": "Bulgaria",
    "state": "Montana Province",
    "city": "Obshtina Montana"
  },
  {
    "source_id": "ChIJ3f4Nd2Izq0ARAcebBVgSZIM",
    "name": "МАР МАГ ИТИ ЕООД",
    "category": "МАР МАГ ИТИ ЕООД",
    "formatted_address": "4,4(108)",
    "phone_number": "+359888361362",
    "source_url": "https://www.google.com/maps/place/%D0%9C%D0%90%D0%A0+%D0%9C%D0%90%D0%93+%D0%98%D0%A2%D0%98+%D0%95%D0%9E%D0%9E%D0%94/data=!4m7!3m6!1s0x40ab3362770dfedd:0x83641258059bc701!8m2!3d43.403394!4d23.2464826!16s%2Fg%2F11cndbspq2!19sChIJ3f4Nd2Izq0ARAcebBVgSZIM?authuser=0&hl=tr&rclk=1",
    "website_url": "",
    "rating_text": "4,4",
    "stars": null,
    "number_of_reviews": null,
    "price_level": "",
    "open_hours": "",
    "extraction_timestamp": "2025-06-07T13:39:02.208Z",
    "source_name": "google",
    "source_query": "Irrigation Equipment",
    "source_country": "BG",
    "country": "Bulgaria",
    "state": "Montana Province",
    "city": "Obshtina Montana"
  },
  {
    "source_id": "ChIJVbugZmc1q0ARSq9MmU6BDts",
    "name": "INGCO Bulgaria",
    "category": "INGCO Bulgaria",
    "formatted_address": "4,8(28)",
    "phone_number": "+359887399477",
    "source_url": "https://www.google.com/maps/place/INGCO+Bulgaria/data=!4m7!3m6!1s0x40ab356766a0bb55:0xdb0e814e994caf4a!8m2!3d43.413485!4d23.2277359!16s%2Fg%2F11j024g4c0!19sChIJVbugZmc1q0ARSq9MmU6BDts?authuser=0&hl=tr&rclk=1",
    "website_url": "",
    "rating_text": "4,8",
    "stars": null,
    "number_of_reviews": null,
    "price_level": "",
    "open_hours": "",
    "extraction_timestamp": "2025-06-07T13:39:02.209Z",
    "source_name": "google",
    "source_query": "Irrigation Equipment",
    "source_country": "BG",
    "country": "Bulgaria",
    "state": "Montana Province",
    "city": "Obshtina Montana"
  },
  {
    "source_id": "ChIJCTN80p80q0ARG0vPs57mgHk",
    "name": "TeMax Montana",
    "category": "TeMax Montana",
    "formatted_address": "4,1(996)",
    "phone_number": "+35996300058",
    "source_url": "https://www.google.com/maps/place/TeMax+Montana/data=!4m7!3m6!1s0x40ab349fd27c3309:0x7980e69eb3cf4b1b!8m2!3d43.4049858!4d23.241104!16s%2Fg%2F11f4m59y2h!19sChIJCTN80p80q0ARG0vPs57mgHk?authuser=0&hl=tr&rclk=1",
    "website_url": "",
    "rating_text": "4,1",
    "stars": null,
    "number_of_reviews": null,
    "price_level": "",
    "open_hours": "",
    "extraction_timestamp": "2025-06-07T13:39:02.211Z",
    "source_name": "google",
    "source_query": "Irrigation Equipment",
    "source_country": "BG",
    "country": "Bulgaria",
    "state": "Montana Province",
    "city": "Obshtina Montana"
  },
  {
    "source_id": "ChIJW_0-ylPLVEcRQYl2Tk9T318",
    "name": "Ionimont",
    "category": "Ionimont",
    "formatted_address": "4,4(140)",
    "phone_number": "+35996307095",
    "source_url": "https://www.google.com/maps/place/Ionimont/data=!4m7!3m6!1s0x4754cb53ca3efd5b:0x5fdf534f4e768941!8m2!3d43.4170995!4d23.2141449!16s%2Fg%2F11bwp1gmr1!19sChIJW_0-ylPLVEcRQYl2Tk9T318?authuser=0&hl=tr&rclk=1",
    "website_url": "",
    "rating_text": "4,4",
    "stars": null,
    "number_of_reviews": null,
    "price_level": "",
    "open_hours": "",
    "extraction_timestamp": "2025-06-07T13:39:02.212Z",
    "source_name": "google",
    "source_query": "Irrigation Equipment",
    "source_country": "BG",
    "country": "Bulgaria",
    "state": "Montana Province",
    "city": "Obshtina Montana"
  },
  {
    "source_id": "ChIJc_W_DqQ0q0ARFykReo0aORM",
    "name": "АСМ ЕООД",
    "category": "АСМ ЕООД",
    "formatted_address": "4,4(84)",
    "phone_number": "+35996391515",
    "source_url": "https://www.google.com/maps/place/%D0%90%D0%A1%D0%9C+%D0%95%D0%9E%D0%9E%D0%94/data=!4m7!3m6!1s0x40ab34a40ebff573:0x13391a8d7a112917!8m2!3d43.4104186!4d23.2354777!16s%2Fg%2F11c31sk6v6!19sChIJc_W_DqQ0q0ARFykReo0aORM?authuser=0&hl=tr&rclk=1",
    "website_url": "",
    "rating_text": "4,4",
    "stars": null,
    "number_of_reviews": null,
    "price_level": "",
    "open_hours": "",
    "extraction_timestamp": "2025-06-07T13:39:02.213Z",
    "source_name": "google",
    "source_query": "Irrigation Equipment",
    "source_country": "BG",
    "country": "Bulgaria",
    "state": "Montana Province",
    "city": "Obshtina Montana"
  },
  {
    "source_id": "ChIJtWTqsFgzq0ARb9XfxPNSIDE",
    "name": "Gerak EOOD",
    "category": "Gerak EOOD",
    "formatted_address": "4,3(48)",
    "phone_number": "+35996307545",
    "source_url": "https://www.google.com/maps/place/Gerak+EOOD/data=!4m7!3m6!1s0x40ab3358b0ea64b5:0x312052f3c4dfd56f!8m2!3d43.4122165!4d23.2322721!16s%2Fg%2F113fbvsvs!19sChIJtWTqsFgzq0ARb9XfxPNSIDE?authuser=0&hl=tr&rclk=1",
    "website_url": "",
    "rating_text": "4,3",
    "stars": null,
    "number_of_reviews": null,
    "price_level": "",
    "open_hours": "",
    "extraction_timestamp": "2025-06-07T13:39:02.215Z",
    "source_name": "google",
    "source_query": "Irrigation Equipment",
    "source_country": "BG",
    "country": "Bulgaria",
    "state": "Montana Province",
    "city": "Obshtina Montana"
  },
  {
    "source_id": "ChIJN8Nz0K00q0ARaaM_5LJ7SCU",
    "name": "BALKAN HYDRO",
    "category": "BALKAN HYDRO",
    "formatted_address": "5,0(1)",
    "phone_number": "+359878470190",
    "source_url": "https://www.google.com/maps/place/BALKAN+HYDRO/data=!4m7!3m6!1s0x40ab34add073c337:0x25487bb2e43fa369!8m2!3d43.4156257!4d23.224856!16s%2Fg%2F11c54gjlp0!19sChIJN8Nz0K00q0ARaaM_5LJ7SCU?authuser=0&hl=tr&rclk=1",
    "website_url": "",
    "rating_text": "5,0",
    "stars": null,
    "number_of_reviews": null,
    "price_level": "",
    "open_hours": "",
    "extraction_timestamp": "2025-06-07T13:39:02.217Z",
    "source_name": "google",
    "source_query": "Irrigation Equipment",
    "source_country": "BG",
    "country": "Bulgaria",
    "state": "Montana Province",
    "city": "Obshtina Montana"
  },
  {
    "source_id": "ChIJ-WIJDKM0q0ARpuapJwuD3OI",
    "name": "Полихрон ЕООД",
    "category": "Полихрон ЕООД",
    "formatted_address": "4,5(216)",
    "phone_number": "+35996300660",
    "source_url": "https://www.google.com/maps/place/%D0%9F%D0%BE%D0%BB%D0%B8%D1%85%D1%80%D0%BE%D0%BD+%D0%95%D0%9E%D0%9E%D0%94/data=!4m7!3m6!1s0x40ab34a30c0962f9:0xe2dc830b27a9e6a6!8m2!3d43.4118521!4d23.2389808!16s%2Fg%2F11c38dzs5q!19sChIJ-WIJDKM0q0ARpuapJwuD3OI?authuser=0&hl=tr&rclk=1",
    "website_url": "http://polihron.bg/",
    "rating_text": "4,5",
    "stars": null,
    "number_of_reviews": null,
    "price_level": "",
    "open_hours": "",
    "extraction_timestamp": "2025-06-07T13:39:02.521Z",
    "source_name": "google",
    "source_query": "Irrigation Equipment",
    "source_country": "BG",
    "country": "Bulgaria",
    "state": "Montana Province",
    "city": "Boychinovtsi"
  },
  {
    "source_id": "ChIJVbugZmc1q0ARSq9MmU6BDts",
    "name": "INGCO Bulgaria",
    "category": "INGCO Bulgaria",
    "formatted_address": "4,8(28)",
    "phone_number": "+359887399477",
    "source_url": "https://www.google.com/maps/place/INGCO+Bulgaria/data=!4m7!3m6!1s0x40ab356766a0bb55:0xdb0e814e994caf4a!8m2!3d43.413485!4d23.2277359!16s%2Fg%2F11j024g4c0!19sChIJVbugZmc1q0ARSq9MmU6BDts?authuser=0&hl=tr&rclk=1",
    "website_url": "http://www.ingco.bg/",
    "rating_text": "4,8",
    "stars": null,
    "number_of_reviews": null,
    "price_level": "",
    "open_hours": "",
    "extraction_timestamp": "2025-06-07T13:39:02.523Z",
    "source_name": "google",
    "source_query": "Irrigation Equipment",
    "source_country": "BG",
    "country": "Bulgaria",
    "state": "Montana Province",
    "city": "Boychinovtsi"
  },
  {
    "source_id": "ChIJW_0-ylPLVEcRQYl2Tk9T318",
    "name": "Ionimont",
    "category": "Ionimont",
    "formatted_address": "4,4(140)",
    "phone_number": "+35996307095",
    "source_url": "https://www.google.com/maps/place/Ionimont/data=!4m7!3m6!1s0x4754cb53ca3efd5b:0x5fdf534f4e768941!8m2!3d43.4170995!4d23.2141449!16s%2Fg%2F11bwp1gmr1!19sChIJW_0-ylPLVEcRQYl2Tk9T318?authuser=0&hl=tr&rclk=1",
    "website_url": "",
    "rating_text": "4,4",
    "stars": null,
    "number_of_reviews": null,
    "price_level": "",
    "open_hours": "",
    "extraction_timestamp": "2025-06-07T13:39:02.524Z",
    "source_name": "google",
    "source_query": "Irrigation Equipment",
    "source_country": "BG",
    "country": "Bulgaria",
    "state": "Montana Province",
    "city": "Boychinovtsi"
  },
  {
    "source_id": "ChIJyzu8eKU0q0AR2qCLWlh0Z98",
    "name": "TOPLIVO - Warehouse Montana",
    "category": "TOPLIVO - Warehouse Montana",
    "formatted_address": "4,2(61)",
    "phone_number": "+359884704979",
    "source_url": "https://www.google.com/maps/place/TOPLIVO+-+Warehouse+Montana/data=!4m7!3m6!1s0x40ab34a578bc3bcb:0xdf6774585a8ba0da!8m2!3d43.4132357!4d23.2316827!16s%2Fg%2F11g8w7w_cv!19sChIJyzu8eKU0q0AR2qCLWlh0Z98?authuser=0&hl=tr&rclk=1",
    "website_url": "http://toplivo.bg/",
    "rating_text": "4,2",
    "stars": null,
    "number_of_reviews": null,
    "price_level": "",
    "open_hours": "",
    "extraction_timestamp": "2025-06-07T13:39:02.526Z",
    "source_name": "google",
    "source_query": "Irrigation Equipment",
    "source_country": "BG",
    "country": "Bulgaria",
    "state": "Montana Province",
    "city": "Boychinovtsi"
  },
  {
    "source_id": "ChIJkZ-7sKM0q0ARyy-yrPWamIo",
    "name": "ITT Bulgaria Ltd.",
    "category": "ITT Bulgaria Ltd.",
    "formatted_address": "4,4(29)",
    "phone_number": "+359887085441",
    "source_url": "https://www.google.com/maps/place/ITT+Bulgaria+Ltd./data=!4m7!3m6!1s0x40ab34a3b0bb9f91:0x8a989af5acb22fcb!8m2!3d43.4112024!4d23.238982!16s%2Fg%2F11cntm0m_0!19sChIJkZ-7sKM0q0ARyy-yrPWamIo?authuser=0&hl=tr&rclk=1",
    "website_url": "http://itt.bg/bg/",
    "rating_text": "4,4",
    "stars": null,
    "number_of_reviews": null,
    "price_level": "",
    "open_hours": "",
    "extraction_timestamp": "2025-06-07T13:39:02.551Z",
    "source_name": "google",
    "source_query": "Irrigation Equipment",
    "source_country": "BG",
    "country": "Bulgaria",
    "state": "Montana Province",
    "city": "Boychinovtsi"
  },
  {
    "source_id": "ChIJceqv6MuEqkAR45AXk38sGOE",
    "name": "Irrigation Systems",
    "category": "Irrigation Systems",
    "formatted_address": "4,4(10)",
    "phone_number": "+35928085001",
    "source_url": "https://www.google.com/maps/place/Irrigation+Systems/data=!4m7!3m6!1s0x40aa84cbe8afea71:0xe1182c7f931790e3!8m2!3d42.6700035!4d23.2681798!16s%2Fg%2F1thtbmsl!19sChIJceqv6MuEqkAR45AXk38sGOE?authuser=0&hl=tr&rclk=1",
    "website_url": "https://nps.bg/",
    "rating_text": "4,4",
    "stars": null,
    "number_of_reviews": null,
    "price_level": "",
    "open_hours": "",
    "extraction_timestamp": "2025-06-07T13:39:06.120Z",
    "source_name": "google",
    "source_query": "Irrigation Equipment",
    "source_country": "BG",
    "country": "Bulgaria",
    "state": "Montana Province",
    "city": "Chiprovtsi"
  },
  {
    "source_id": "ChIJ-WIJDKM0q0ARpuapJwuD3OI",
    "name": "Полихрон ЕООД",
    "category": "Полихрон ЕООД",
    "formatted_address": "4,5(216)",
    "phone_number": "+35996300660",
    "source_url": "https://www.google.com/maps/place/%D0%9F%D0%BE%D0%BB%D0%B8%D1%85%D1%80%D0%BE%D0%BD+%D0%95%D0%9E%D0%9E%D0%94/data=!4m7!3m6!1s0x40ab34a30c0962f9:0xe2dc830b27a9e6a6!8m2!3d43.4118521!4d23.2389808!16s%2Fg%2F11c38dzs5q!19sChIJ-WIJDKM0q0ARpuapJwuD3OI?authuser=0&hl=tr&rclk=1",
    "website_url": "http://polihron.bg/",
    "rating_text": "4,5",
    "stars": null,
    "number_of_reviews": null,
    "price_level": "",
    "open_hours": "",
    "extraction_timestamp": "2025-06-07T13:39:06.123Z",
    "source_name": "google",
    "source_query": "Irrigation Equipment",
    "source_country": "BG",
    "country": "Bulgaria",
    "state": "Montana Province",
    "city": "Chiprovtsi"
  },
  {
    "source_id": "ChIJVbugZmc1q0ARSq9MmU6BDts",
    "name": "INGCO Bulgaria",
    "category": "INGCO Bulgaria",
    "formatted_address": "4,8(28)",
    "phone_number": "+359887399477",
    "source_url": "https://www.google.com/maps/place/INGCO+Bulgaria/data=!4m7!3m6!1s0x40ab356766a0bb55:0xdb0e814e994caf4a!8m2!3d43.413485!4d23.2277359!16s%2Fg%2F11j024g4c0!19sChIJVbugZmc1q0ARSq9MmU6BDts?authuser=0&hl=tr&rclk=1",
    "website_url": "http://www.ingco.bg/",
    "rating_text": "4,8",
    "stars": null,
    "number_of_reviews": null,
    "price_level": "",
    "open_hours": "",
    "extraction_timestamp": "2025-06-07T13:39:06.127Z",
    "source_name": "google",
    "source_query": "Irrigation Equipment",
    "source_country": "BG",
    "country": "Bulgaria",
    "state": "Montana Province",
    "city": "Chiprovtsi"
  },
  {
    "source_id": "ChIJyzu8eKU0q0AR2qCLWlh0Z98",
    "name": "TOPLIVO - Warehouse Montana",
    "category": "TOPLIVO - Warehouse Montana",
    "formatted_address": "4,2(61)",
    "phone_number": "+359884704979",
    "source_url": "https://www.google.com/maps/place/TOPLIVO+-+Warehouse+Montana/data=!4m7!3m6!1s0x40ab34a578bc3bcb:0xdf6774585a8ba0da!8m2!3d43.4132357!4d23.2316827!16s%2Fg%2F11g8w7w_cv!19sChIJyzu8eKU0q0AR2qCLWlh0Z98?authuser=0&hl=tr&rclk=1",
    "website_url": "http://toplivo.bg/",
    "rating_text": "4,2",
    "stars": null,
    "number_of_reviews": null,
    "price_level": "",
    "open_hours": "",
    "extraction_timestamp": "2025-06-07T13:39:06.132Z",
    "source_name": "google",
    "source_query": "Irrigation Equipment",
    "source_country": "BG",
    "country": "Bulgaria",
    "state": "Montana Province",
    "city": "Chiprovtsi"
  },
  {
    "source_id": "ChIJKTKEMPUpq0ARsLUikjOQ9Rk",
    "name": "Козе ферма Каряна",
    "category": "Козе ферма Каряна",
    "formatted_address": "4,8(33)",
    "phone_number": "+359898777911",
    "source_url": "https://www.google.com/maps/place/%D0%9A%D0%BE%D0%B7%D0%B5+%D1%84%D0%B5%D1%80%D0%BC%D0%B0+%D0%9A%D0%B0%D1%80%D1%8F%D0%BD%D0%B0/data=!4m7!3m6!1s0x40ab29f530843229:0x19f590339222b5b0!8m2!3d43.2228648!4d23.1862097!16s%2Fg%2F11p0043zfs!19sChIJKTKEMPUpq0ARsLUikjOQ9Rk?authuser=0&hl=tr&rclk=1",
    "website_url": "http://facebook.com/%D0%92%D1%81%D0%B8%D1%87%D0%BA%D0%BE-%D0%BE%D1%82-%D0%9A%D0%BE%D0%B7%D0%B5-%D0%BC%D0%BB%D1%8F%D0%BA%D0%BE-%D0%9A%D0%BE%D0%B7%D0%B5%D1%84%D0%B5%D1%80%D0%BC%D0%B0-%D0%9A%D0%B0%D1%80%D1%8F%D0%BD%D0%B0-125489031347578/",
    "rating_text": "4,8",
    "stars": null,
    "number_of_reviews": null,
    "price_level": "",
    "open_hours": "",
    "extraction_timestamp": "2025-06-07T13:39:06.139Z",
    "source_name": "google",
    "source_query": "Irrigation Equipment",
    "source_country": "BG",
    "country": "Bulgaria",
    "state": "Montana Province",
    "city": "Chiprovtsi"
  },
  {
    "source_id": "ChIJW_0-ylPLVEcRQYl2Tk9T318",
    "name": "Ionimont",
    "category": "Ionimont",
    "formatted_address": "4,4(140)",
    "phone_number": "+35996307095",
    "source_url": "https://www.google.com/maps/place/Ionimont/data=!4m7!3m6!1s0x4754cb53ca3efd5b:0x5fdf534f4e768941!8m2!3d43.4170995!4d23.2141449!16s%2Fg%2F11bwp1gmr1!19sChIJW_0-ylPLVEcRQYl2Tk9T318?authuser=0&hl=tr&rclk=1",
    "website_url": "",
    "rating_text": "4,4",
    "stars": null,
    "number_of_reviews": null,
    "price_level": "",
    "open_hours": "",
    "extraction_timestamp": "2025-06-07T13:39:06.143Z",
    "source_name": "google",
    "source_query": "Irrigation Equipment",
    "source_country": "BG",
    "country": "Bulgaria",
    "state": "Montana Province",
    "city": "Chiprovtsi"
  },
  {
    "source_id": "ChIJaXxaHi6HqkARuV68ciRbxyA",
    "name": "Напояване",
    "category": "Напояване",
    "formatted_address": "",
    "phone_number": "+35929790881",
    "source_url": "https://www.google.com/maps/place/%D0%9D%D0%B0%D0%BF%D0%BE%D1%8F%D0%B2%D0%B0%D0%BD%D0%B5/data=!4m7!3m6!1s0x40aa872e1e5a7c69:0x20c75b2472bc5eb9!8m2!3d42.6240477!4d23.4024511!16s%2Fg%2F11j0jkgxy0!19sChIJaXxaHi6HqkARuV68ciRbxyA?authuser=0&hl=tr&rclk=1",
    "website_url": "http://xn--80aafn0bdeh9l.com/%D0%BA%D0%BE%D0%BD%D1%82%D0%B0%D0%BA%D1%82%D0%B8/",
    "rating_text": "",
    "stars": null,
    "number_of_reviews": null,
    "price_level": "",
    "open_hours": "",
    "extraction_timestamp": "2025-06-07T13:39:06.145Z",
    "source_name": "google",
    "source_query": "Irrigation Equipment",
    "source_country": "BG",
    "country": "Bulgaria",
    "state": "Montana Province",
    "city": "Chiprovtsi"
  },
  {
    "source_id": "ChIJ-WIJDKM0q0ARpuapJwuD3OI",
    "name": "Полихрон ЕООД",
    "category": "Полихрон ЕООД",
    "formatted_address": "4,5(216)",
    "phone_number": "+35996300660",
    "source_url": "https://www.google.com/maps/place/%D0%9F%D0%BE%D0%BB%D0%B8%D1%85%D1%80%D0%BE%D0%BD+%D0%95%D0%9E%D0%9E%D0%94/data=!4m7!3m6!1s0x40ab34a30c0962f9:0xe2dc830b27a9e6a6!8m2!3d43.4118521!4d23.2389808!16s%2Fg%2F11c38dzs5q!19sChIJ-WIJDKM0q0ARpuapJwuD3OI?authuser=0&hl=tr&rclk=1",
    "website_url": "",
    "rating_text": "4,5",
    "stars": null,
    "number_of_reviews": null,
    "price_level": "",
    "open_hours": "",
    "extraction_timestamp": "2025-06-07T13:39:06.453Z",
    "source_name": "google",
    "source_query": "Irrigation Equipment",
    "source_country": "BG",
    "country": "Bulgaria",
    "state": "Montana Province",
    "city": "Obshtina Valchedram"
  },
  {
    "source_id": "ChIJVbugZmc1q0ARSq9MmU6BDts",
    "name": "INGCO Bulgaria",
    "category": "INGCO Bulgaria",
    "formatted_address": "4,8(28)",
    "phone_number": "+359887399477",
    "source_url": "https://www.google.com/maps/place/INGCO+Bulgaria/data=!4m7!3m6!1s0x40ab356766a0bb55:0xdb0e814e994caf4a!8m2!3d43.413485!4d23.2277359!16s%2Fg%2F11j024g4c0!19sChIJVbugZmc1q0ARSq9MmU6BDts?authuser=0&hl=tr&rclk=1",
    "website_url": "",
    "rating_text": "4,8",
    "stars": null,
    "number_of_reviews": null,
    "price_level": "",
    "open_hours": "",
    "extraction_timestamp": "2025-06-07T13:39:06.453Z",
    "source_name": "google",
    "source_query": "Irrigation Equipment",
    "source_country": "BG",
    "country": "Bulgaria",
    "state": "Montana Province",
    "city": "Obshtina Valchedram"
  },
  {
    "source_id": "ChIJc_W_DqQ0q0ARFykReo0aORM",
    "name": "АСМ ЕООД",
    "category": "АСМ ЕООД",
    "formatted_address": "4,4(84)",
    "phone_number": "+35996391515",
    "source_url": "https://www.google.com/maps/place/%D0%90%D0%A1%D0%9C+%D0%95%D0%9E%D0%9E%D0%94/data=!4m7!3m6!1s0x40ab34a40ebff573:0x13391a8d7a112917!8m2!3d43.4104186!4d23.2354777!16s%2Fg%2F11c31sk6v6!19sChIJc_W_DqQ0q0ARFykReo0aORM?authuser=0&hl=tr&rclk=1",
    "website_url": "",
    "rating_text": "4,4",
    "stars": null,
    "number_of_reviews": null,
    "price_level": "",
    "open_hours": "",
    "extraction_timestamp": "2025-06-07T13:39:06.454Z",
    "source_name": "google",
    "source_query": "Irrigation Equipment",
    "source_country": "BG",
    "country": "Bulgaria",
    "state": "Montana Province",
    "city": "Obshtina Valchedram"
  },
  {
    "source_id": "ChIJtWTqsFgzq0ARb9XfxPNSIDE",
    "name": "Gerak EOOD",
    "category": "Gerak EOOD",
    "formatted_address": "4,3(48)",
    "phone_number": "+35996307545",
    "source_url": "https://www.google.com/maps/place/Gerak+EOOD/data=!4m7!3m6!1s0x40ab3358b0ea64b5:0x312052f3c4dfd56f!8m2!3d43.4122165!4d23.2322721!16s%2Fg%2F113fbvsvs!19sChIJtWTqsFgzq0ARb9XfxPNSIDE?authuser=0&hl=tr&rclk=1",
    "website_url": "",
    "rating_text": "4,3",
    "stars": null,
    "number_of_reviews": null,
    "price_level": "",
    "open_hours": "",
    "extraction_timestamp": "2025-06-07T13:39:06.455Z",
    "source_name": "google",
    "source_query": "Irrigation Equipment",
    "source_country": "BG",
    "country": "Bulgaria",
    "state": "Montana Province",
    "city": "Obshtina Valchedram"
  },
  {
    "source_id": "ChIJxTmqiFgzq0ARbeJzNtjWAvM",
    "name": "Plama Trading Ltd. - Hardware",
    "category": "Plama Trading Ltd. - Hardware",
    "formatted_address": "4,0(21)",
    "phone_number": "+359888887674",
    "source_url": "https://www.google.com/maps/place/Plama+Trading+Ltd.+-+Hardware/data=!4m7!3m6!1s0x40ab335888aa39c5:0xf302d6d83673e26d!8m2!3d43.4043399!4d23.2266636!16s%2Fg%2F11c70j9k09!19sChIJxTmqiFgzq0ARbeJzNtjWAvM?authuser=0&hl=tr&rclk=1",
    "website_url": "",
    "rating_text": "4,0",
    "stars": null,
    "number_of_reviews": null,
    "price_level": "",
    "open_hours": "",
    "extraction_timestamp": "2025-06-07T13:39:06.456Z",
    "source_name": "google",
    "source_query": "Irrigation Equipment",
    "source_country": "BG",
    "country": "Bulgaria",
    "state": "Montana Province",
    "city": "Obshtina Valchedram"
  },
  {
    "source_id": "ChIJyzu8eKU0q0AR2qCLWlh0Z98",
    "name": "TOPLIVO - Warehouse Montana",
    "category": "TOPLIVO - Warehouse Montana",
    "formatted_address": "4,2(61)",
    "phone_number": "+359884704979",
    "source_url": "https://www.google.com/maps/place/TOPLIVO+-+Warehouse+Montana/data=!4m7!3m6!1s0x40ab34a578bc3bcb:0xdf6774585a8ba0da!8m2!3d43.4132357!4d23.2316827!16s%2Fg%2F11g8w7w_cv!19sChIJyzu8eKU0q0AR2qCLWlh0Z98?authuser=0&hl=tr&rclk=1",
    "website_url": "",
    "rating_text": "4,2",
    "stars": null,
    "number_of_reviews": null,
    "price_level": "",
    "open_hours": "",
    "extraction_timestamp": "2025-06-07T13:39:06.456Z",
    "source_name": "google",
    "source_query": "Irrigation Equipment",
    "source_country": "BG",
    "country": "Bulgaria",
    "state": "Montana Province",
    "city": "Obshtina Valchedram"
  },
  {
    "source_id": "ChIJKTKEMPUpq0ARsLUikjOQ9Rk",
    "name": "Козе ферма Каряна",
    "category": "Козе ферма Каряна",
    "formatted_address": "4,8(33)",
    "phone_number": "+359898777911",
    "source_url": "https://www.google.com/maps/place/%D0%9A%D0%BE%D0%B7%D0%B5+%D1%84%D0%B5%D1%80%D0%BC%D0%B0+%D0%9A%D0%B0%D1%80%D1%8F%D0%BD%D0%B0/data=!4m7!3m6!1s0x40ab29f530843229:0x19f590339222b5b0!8m2!3d43.2228648!4d23.1862097!16s%2Fg%2F11p0043zfs!19sChIJKTKEMPUpq0ARsLUikjOQ9Rk?authuser=0&hl=tr&rclk=1",
    "website_url": "",
    "rating_text": "4,8",
    "stars": null,
    "number_of_reviews": null,
    "price_level": "",
    "open_hours": "",
    "extraction_timestamp": "2025-06-07T13:39:06.457Z",
    "source_name": "google",
    "source_query": "Irrigation Equipment",
    "source_country": "BG",
    "country": "Bulgaria",
    "state": "Montana Province",
    "city": "Obshtina Valchedram"
  },
  {
    "source_id": "ChIJkZ-7sKM0q0ARyy-yrPWamIo",
    "name": "ITT Bulgaria Ltd.",
    "category": "ITT Bulgaria Ltd.",
    "formatted_address": "4,4(29)",
    "phone_number": "+359887085441",
    "source_url": "https://www.google.com/maps/place/ITT+Bulgaria+Ltd./data=!4m7!3m6!1s0x40ab34a3b0bb9f91:0x8a989af5acb22fcb!8m2!3d43.4112024!4d23.238982!16s%2Fg%2F11cntm0m_0!19sChIJkZ-7sKM0q0ARyy-yrPWamIo?authuser=0&hl=tr&rclk=1",
    "website_url": "",
    "rating_text": "4,4",
    "stars": null,
    "number_of_reviews": null,
    "price_level": "",
    "open_hours": "",
    "extraction_timestamp": "2025-06-07T13:39:06.458Z",
    "source_name": "google",
    "source_query": "Irrigation Equipment",
    "source_country": "BG",
    "country": "Bulgaria",
    "state": "Montana Province",
    "city": "Obshtina Valchedram"
  },
  {
    "source_id": "ChIJsYU6OH0Or0ARC3eRUz7FIsc",
    "name": "Напоителни Системи",
    "category": "Напоителни Системи",
    "formatted_address": "",
    "phone_number": "+359895843284",
    "source_url": "https://www.google.com/maps/place/%D0%9D%D0%B0%D0%BF%D0%BE%D0%B8%D1%82%D0%B5%D0%BB%D0%BD%D0%B8+%D0%A1%D0%B8%D1%81%D1%82%D0%B5%D0%BC%D0%B8/data=!4m7!3m6!1s0x40af0e7d383a85b1:0xc722c53e5391770b!8m2!3d43.5248284!4d26.5185956!16s%2Fg%2F11hyt13jl9!19sChIJsYU6OH0Or0ARC3eRUz7FIsc?authuser=0&hl=tr&rclk=1",
    "website_url": "",
    "rating_text": "",
    "stars": null,
    "number_of_reviews": null,
    "price_level": "",
    "open_hours": "",
    "extraction_timestamp": "2025-06-07T13:39:06.459Z",
    "source_name": "google",
    "source_query": "Irrigation Equipment",
    "source_country": "BG",
    "country": "Bulgaria",
    "state": "Montana Province",
    "city": "Obshtina Valchedram"
  },
  {
    "source_id": "ChIJW_0-ylPLVEcRQYl2Tk9T318",
    "name": "Ionimont",
    "category": "Ionimont",
    "formatted_address": "4,4(140)",
    "phone_number": "+35996307095",
    "source_url": "https://www.google.com/maps/place/Ionimont/data=!4m7!3m6!1s0x4754cb53ca3efd5b:0x5fdf534f4e768941!8m2!3d43.4170995!4d23.2141449!16s%2Fg%2F11bwp1gmr1!19sChIJW_0-ylPLVEcRQYl2Tk9T318?authuser=0&hl=tr&rclk=1",
    "website_url": "",
    "rating_text": "4,4",
    "stars": null,
    "number_of_reviews": null,
    "price_level": "",
    "open_hours": "",
    "extraction_timestamp": "2025-06-07T13:39:06.459Z",
    "source_name": "google",
    "source_query": "Irrigation Equipment",
    "source_country": "BG",
    "country": "Bulgaria",
    "state": "Montana Province",
    "city": "Obshtina Valchedram"
  },
  {
    "source_id": "ChIJ3fwkmcSFqkARs7jacivGgw4",
    "name": "AGRITOP",
    "category": "AGRITOP",
    "formatted_address": "4,6(11)",
    "phone_number": "+35929712620",
    "source_url": "https://www.google.com/maps/place/AGRITOP/data=!4m7!3m6!1s0x40aa85c49924fcdd:0xe83c62b72dab8b3!8m2!3d42.6569479!4d23.3983963!16s%2Fg%2F11bwkfyffg!19sChIJ3fwkmcSFqkARs7jacivGgw4?authuser=0&hl=tr&rclk=1",
    "website_url": "",
    "rating_text": "4,6",
    "stars": null,
    "number_of_reviews": null,
    "price_level": "",
    "open_hours": "",
    "extraction_timestamp": "2025-06-07T13:39:06.460Z",
    "source_name": "google",
    "source_query": "Irrigation Equipment",
    "source_country": "BG",
    "country": "Bulgaria",
    "state": "Montana Province",
    "city": "Obshtina Valchedram"
  },
  {
    "source_id": "ChIJIVLui680q0ARHUTKZbC5qIs",
    "name": "Металстрой-2005 ООД",
    "category": "Металстрой-2005 ООД",
    "formatted_address": "4,4(81)",
    "phone_number": "+35996306950",
    "source_url": "https://www.google.com/maps/place/%D0%9C%D0%B5%D1%82%D0%B0%D0%BB%D1%81%D1%82%D1%80%D0%BE%D0%B9-2005+%D0%9E%D0%9E%D0%94/data=!4m7!3m6!1s0x40ab34af8bee5221:0x8ba8b9b065ca441d!8m2!3d43.4129084!4d23.231125!16s%2Fg%2F1z44rccrs!19sChIJIVLui680q0ARHUTKZbC5qIs?authuser=0&hl=tr&rclk=1",
    "website_url": "",
    "rating_text": "4,4",
    "stars": null,
    "number_of_reviews": null,
    "price_level": "",
    "open_hours": "",
    "extraction_timestamp": "2025-06-07T13:39:06.461Z",
    "source_name": "google",
    "source_query": "Irrigation Equipment",
    "source_country": "BG",
    "country": "Bulgaria",
    "state": "Montana Province",
    "city": "Obshtina Valchedram"
  },
  {
    "source_id": "ChIJq2N3RVgzq0ARzFtVXpDYgkA",
    "name": "Computers EOOD - \"Montiv“",
    "category": "Computers EOOD - \"Montiv“",
    "formatted_address": "4,8(688)",
    "phone_number": "+359888943304",
    "source_url": "https://www.google.com/maps/place/Computers+EOOD+-+%22Montiv%E2%80%9C/data=!4m7!3m6!1s0x40ab3358457763ab:0x4082d8905e555bcc!8m2!3d43.4057067!4d23.2267811!16s%2Fg%2F1tfgh9wv!19sChIJq2N3RVgzq0ARzFtVXpDYgkA?authuser=0&hl=tr&rclk=1",
    "website_url": "",
    "rating_text": "4,8",
    "stars": null,
    "number_of_reviews": null,
    "price_level": "",
    "open_hours": "",
    "extraction_timestamp": "2025-06-07T13:39:06.461Z",
    "source_name": "google",
    "source_query": "Irrigation Equipment",
    "source_country": "BG",
    "country": "Bulgaria",
    "state": "Montana Province",
    "city": "Obshtina Valchedram"
  },
  {
    "source_id": "ChIJcSdxQi4zqUARUAw16wYR8WM",
    "name": "Parapir Service",
    "category": "Parapir Service",
    "formatted_address": "4,9(26)",
    "phone_number": "+359884200900",
    "source_url": "https://www.google.com/maps/place/Parapir+Service/data=!4m7!3m6!1s0x40a9332e42712771:0x63f11106eb350c50!8m2!3d43.1960888!4d25.5596019!16s%2Fg%2F11glghnvft!19sChIJcSdxQi4zqUARUAw16wYR8WM?authuser=0&hl=tr&rclk=1",
    "website_url": "",
    "rating_text": "4,9",
    "stars": null,
    "number_of_reviews": null,
    "price_level": "",
    "open_hours": "",
    "extraction_timestamp": "2025-06-07T13:39:06.463Z",
    "source_name": "google",
    "source_query": "Irrigation Equipment",
    "source_country": "BG",
    "country": "Bulgaria",
    "state": "Montana Province",
    "city": "Obshtina Valchedram"
  },
  {
    "source_id": "ChIJf8gApA7RrBQRekeVZ78DiiQ",
    "name": "ИРРИДЕА",
    "category": "ИРРИДЕА",
    "formatted_address": "Çim Yağmurlama Sistemi Yüklenicisi · до хотел Чиирите, Околовръстен пъдKapalı ⋅ Açılış zamanı: Pzt 08:00 · +359 88 812 2324",
    "phone_number": "+359888122324",
    "source_url": "https://www.google.com/maps/place/%D0%98%D0%A0%D0%A0%D0%98%D0%94%D0%95%D0%90/data=!4m7!3m6!1s0x14acd10ea400c87f:0x248a03bf6795477a!8m2!3d42.114511!4d24.7326861!16s%2Fg%2F11fjvwmt83!19sChIJf8gApA7RrBQRekeVZ78DiiQ?authuser=0&hl=tr&rclk=1",
    "website_url": "",
    "rating_text": "",
    "stars": null,
    "number_of_reviews": null,
    "price_level": "",
    "open_hours": "",
    "extraction_timestamp": "2025-06-07T13:39:06.465Z",
    "source_name": "google",
    "source_query": "Irrigation Equipment",
    "source_country": "BG",
    "country": "Bulgaria",
    "state": "Montana Province",
    "city": "Obshtina Valchedram"
  },
  {
    "source_id": "ChIJ-WIJDKM0q0ARpuapJwuD3OI",
    "name": "Полихрон ЕООД",
    "category": "Полихрон ЕООД",
    "formatted_address": "4,5(216)",
    "phone_number": "+35996300660",
    "source_url": "https://www.google.com/maps/place/%D0%9F%D0%BE%D0%BB%D0%B8%D1%85%D1%80%D0%BE%D0%BD+%D0%95%D0%9E%D0%9E%D0%94/data=!4m7!3m6!1s0x40ab34a30c0962f9:0xe2dc830b27a9e6a6!8m2!3d43.4118521!4d23.2389808!16s%2Fg%2F11c38dzs5q!19sChIJ-WIJDKM0q0ARpuapJwuD3OI?authuser=0&hl=tr&rclk=1",
    "website_url": "http://polihron.bg/",
    "rating_text": "4,5",
    "stars": null,
    "number_of_reviews": null,
    "price_level": "",
    "open_hours": "",
    "extraction_timestamp": "2025-06-07T13:39:07.827Z",
    "source_name": "google",
    "source_query": "Irrigation Equipment",
    "source_country": "BG",
    "country": "Bulgaria",
    "state": "Montana Province",
    "city": "Yakimovo"
  },
  {
    "source_id": "ChIJVbugZmc1q0ARSq9MmU6BDts",
    "name": "INGCO Bulgaria",
    "category": "INGCO Bulgaria",
    "formatted_address": "4,8(28)",
    "phone_number": "+359887399477",
    "source_url": "https://www.google.com/maps/place/INGCO+Bulgaria/data=!4m7!3m6!1s0x40ab356766a0bb55:0xdb0e814e994caf4a!8m2!3d43.413485!4d23.2277359!16s%2Fg%2F11j024g4c0!19sChIJVbugZmc1q0ARSq9MmU6BDts?authuser=0&hl=tr&rclk=1",
    "website_url": "http://www.ingco.bg/",
    "rating_text": "4,8",
    "stars": null,
    "number_of_reviews": null,
    "price_level": "",
    "open_hours": "",
    "extraction_timestamp": "2025-06-07T13:39:07.829Z",
    "source_name": "google",
    "source_query": "Irrigation Equipment",
    "source_country": "BG",
    "country": "Bulgaria",
    "state": "Montana Province",
    "city": "Yakimovo"
  },
  {
    "source_id": "ChIJceqv6MuEqkAR45AXk38sGOE",
    "name": "Irrigation Systems",
    "category": "Irrigation Systems",
    "formatted_address": "4,4(10)",
    "phone_number": "+35928085001",
    "source_url": "https://www.google.com/maps/place/Irrigation+Systems/data=!4m7!3m6!1s0x40aa84cbe8afea71:0xe1182c7f931790e3!8m2!3d42.6700035!4d23.2681798!16s%2Fg%2F1thtbmsl!19sChIJceqv6MuEqkAR45AXk38sGOE?authuser=0&hl=tr&rclk=1",
    "website_url": "https://nps.bg/",
    "rating_text": "4,4",
    "stars": null,
    "number_of_reviews": null,
    "price_level": "",
    "open_hours": "",
    "extraction_timestamp": "2025-06-07T13:39:07.834Z",
    "source_name": "google",
    "source_query": "Irrigation Equipment",
    "source_country": "BG",
    "country": "Bulgaria",
    "state": "Montana Province",
    "city": "Yakimovo"
  },
  {
    "source_id": "ChIJW_0-ylPLVEcRQYl2Tk9T318",
    "name": "Ionimont",
    "category": "Ionimont",
    "formatted_address": "4,4(140)",
    "phone_number": "+35996307095",
    "source_url": "https://www.google.com/maps/place/Ionimont/data=!4m7!3m6!1s0x4754cb53ca3efd5b:0x5fdf534f4e768941!8m2!3d43.4170995!4d23.2141449!16s%2Fg%2F11bwp1gmr1!19sChIJW_0-ylPLVEcRQYl2Tk9T318?authuser=0&hl=tr&rclk=1",
    "website_url": "",
    "rating_text": "4,4",
    "stars": null,
    "number_of_reviews": null,
    "price_level": "",
    "open_hours": "",
    "extraction_timestamp": "2025-06-07T13:39:07.836Z",
    "source_name": "google",
    "source_query": "Irrigation Equipment",
    "source_country": "BG",
    "country": "Bulgaria",
    "state": "Montana Province",
    "city": "Yakimovo"
  },
  {
    "source_id": "ChIJJfBibcetVEcRP79Hg-_Rvv0",
    "name": "Магазин Якимово",
    "category": "Магазин Якимово",
    "formatted_address": "4,5(29)",
    "phone_number": "",
    "source_url": "https://www.google.com/maps/place/%D0%9C%D0%B0%D0%B3%D0%B0%D0%B7%D0%B8%D0%BD+%D0%AF%D0%BA%D0%B8%D0%BC%D0%BE%D0%B2%D0%BE/data=!4m7!3m6!1s0x4754adc76d62f025:0xfdbed1ef8347bf3f!8m2!3d43.6351781!4d23.3470289!16s%2Fg%2F11rb49jcb1!19sChIJJfBibcetVEcRP79Hg-_Rvv0?authuser=0&hl=tr&rclk=1",
    "website_url": "",
    "rating_text": "4,5",
    "stars": null,
    "number_of_reviews": null,
    "price_level": "",
    "open_hours": "",
    "extraction_timestamp": "2025-06-07T13:39:07.838Z",
    "source_name": "google",
    "source_query": "Irrigation Equipment",
    "source_country": "BG",
    "country": "Bulgaria",
    "state": "Montana Province",
    "city": "Yakimovo"
  },
  {
    "source_id": "ChIJsenBUM6tVEcR5imiPp5O6N4",
    "name": "При Ирена",
    "category": "При Ирена",
    "formatted_address": "5,0(12)",
    "phone_number": "+359896294801",
    "source_url": "https://www.google.com/maps/place/%D0%9F%D1%80%D0%B8+%D0%98%D1%80%D0%B5%D0%BD%D0%B0/data=!4m7!3m6!1s0x4754adce50c1e9b1:0xdee84e9e3ea229e6!8m2!3d43.6348374!4d23.35218!16s%2Fg%2F11t2sj_5bw!19sChIJsenBUM6tVEcR5imiPp5O6N4?authuser=0&hl=tr&rclk=1",
    "website_url": "",
    "rating_text": "5,0",
    "stars": null,
    "number_of_reviews": null,
    "price_level": "",
    "open_hours": "",
    "extraction_timestamp": "2025-06-07T13:39:07.843Z",
    "source_name": "google",
    "source_query": "Irrigation Equipment",
    "source_country": "BG",
    "country": "Bulgaria",
    "state": "Montana Province",
    "city": "Yakimovo"
  },
  {
    "source_id": "ChIJEw2OMYGDqkARxHFSeX0-D_I",
    "name": "RHINE SYSTEMS LTD Shop for irrigation systems, pumping equipment, plumbing and electrical materials",
    "category": "RHINE SYSTEMS LTD Shop for irrigation systems, pumping equipment, plumbing and electrical materials",
    "formatted_address": "RHINE SYSTEMS LTD Shop for irrigation systems, pumping equipment, plumbing and electrical materials",
    "phone_number": "+35924501010",
    "source_url": "https://www.google.com/maps/place/RHINE+SYSTEMS+LTD+Shop+for+irrigation+systems,+pumping+equipment,+plumbing+and+electrical+materials/data=!4m7!3m6!1s0x40aa8381318e0d13:0xf20f3e7d795271c4!8m2!3d42.6376675!4d23.2966491!16s%2Fg%2F11g8p3tdk_!19sChIJEw2OMYGDqkARxHFSeX0-D_I?authuser=0&hl=tr&rclk=1",
    "website_url": "http://rainsystems.eu/",
    "rating_text": "4,3",
    "stars": null,
    "number_of_reviews": null,
    "price_level": "",
    "open_hours": "",
    "extraction_timestamp": "2025-06-07T13:39:07.847Z",
    "source_name": "google",
    "source_query": "Irrigation Equipment",
    "source_country": "BG",
    "country": "Bulgaria",
    "state": "Montana Province",
    "city": "Yakimovo"
  },
  {
    "source_id": "ChIJyzu8eKU0q0AR2qCLWlh0Z98",
    "name": "TOPLIVO - Warehouse Montana",
    "category": "TOPLIVO - Warehouse Montana",
    "formatted_address": "4,2(61)",
    "phone_number": "+359884704979",
    "source_url": "https://www.google.com/maps/place/TOPLIVO+-+Warehouse+Montana/data=!4m7!3m6!1s0x40ab34a578bc3bcb:0xdf6774585a8ba0da!8m2!3d43.4132357!4d23.2316827!16s%2Fg%2F11g8w7w_cv!19sChIJyzu8eKU0q0AR2qCLWlh0Z98?authuser=0&hl=tr&rclk=1",
    "website_url": "http://toplivo.bg/",
    "rating_text": "4,2",
    "stars": null,
    "number_of_reviews": null,
    "price_level": "",
    "open_hours": "",
    "extraction_timestamp": "2025-06-07T13:39:07.851Z",
    "source_name": "google",
    "source_query": "Irrigation Equipment",
    "source_country": "BG",
    "country": "Bulgaria",
    "state": "Montana Province",
    "city": "Yakimovo"
  },
  {
    "source_id": "ChIJtWTqsFgzq0ARb9XfxPNSIDE",
    "name": "Gerak EOOD",
    "category": "Gerak EOOD",
    "formatted_address": "4,3(48)",
    "phone_number": "+35996307545",
    "source_url": "https://www.google.com/maps/place/Gerak+EOOD/data=!4m7!3m6!1s0x40ab3358b0ea64b5:0x312052f3c4dfd56f!8m2!3d43.4122165!4d23.2322721!16s%2Fg%2F113fbvsvs!19sChIJtWTqsFgzq0ARb9XfxPNSIDE?authuser=0&hl=tr&rclk=1",
    "website_url": "http://gerak.bg/",
    "rating_text": "4,3",
    "stars": null,
    "number_of_reviews": null,
    "price_level": "",
    "open_hours": "",
    "extraction_timestamp": "2025-06-07T13:39:07.853Z",
    "source_name": "google",
    "source_query": "Irrigation Equipment",
    "source_country": "BG",
    "country": "Bulgaria",
    "state": "Montana Province",
    "city": "Yakimovo"
  },
  {
    "source_id": "ChIJKTKEMPUpq0ARsLUikjOQ9Rk",
    "name": "Козе ферма Каряна",
    "category": "Козе ферма Каряна",
    "formatted_address": "4,8(33)",
    "phone_number": "+359898777911",
    "source_url": "https://www.google.com/maps/place/%D0%9A%D0%BE%D0%B7%D0%B5+%D1%84%D0%B5%D1%80%D0%BC%D0%B0+%D0%9A%D0%B0%D1%80%D1%8F%D0%BD%D0%B0/data=!4m7!3m6!1s0x40ab29f530843229:0x19f590339222b5b0!8m2!3d43.2228648!4d23.1862097!16s%2Fg%2F11p0043zfs!19sChIJKTKEMPUpq0ARsLUikjOQ9Rk?authuser=0&hl=tr&rclk=1",
    "website_url": "http://facebook.com/%D0%92%D1%81%D0%B8%D1%87%D0%BA%D0%BE-%D0%BE%D1%82-%D0%9A%D0%BE%D0%B7%D0%B5-%D0%BC%D0%BB%D1%8F%D0%BA%D0%BE-%D0%9A%D0%BE%D0%B7%D0%B5%D1%84%D0%B5%D1%80%D0%BC%D0%B0-%D0%9A%D0%B0%D1%80%D1%8F%D0%BD%D0%B0-125489031347578/",
    "rating_text": "4,8",
    "stars": null,
    "number_of_reviews": null,
    "price_level": "",
    "open_hours": "",
    "extraction_timestamp": "2025-06-07T13:39:07.855Z",
    "source_name": "google",
    "source_query": "Irrigation Equipment",
    "source_country": "BG",
    "country": "Bulgaria",
    "state": "Montana Province",
    "city": "Yakimovo"
  },
  {
    "source_id": "ChIJkZ-7sKM0q0ARyy-yrPWamIo",
    "name": "ITT Bulgaria Ltd.",
    "category": "ITT Bulgaria Ltd.",
    "formatted_address": "4,4(29)",
    "phone_number": "+359887085441",
    "source_url": "https://www.google.com/maps/place/ITT+Bulgaria+Ltd./data=!4m7!3m6!1s0x40ab34a3b0bb9f91:0x8a989af5acb22fcb!8m2!3d43.4112024!4d23.238982!16s%2Fg%2F11cntm0m_0!19sChIJkZ-7sKM0q0ARyy-yrPWamIo?authuser=0&hl=tr&rclk=1",
    "website_url": "http://itt.bg/bg/",
    "rating_text": "4,4",
    "stars": null,
    "number_of_reviews": null,
    "price_level": "",
    "open_hours": "",
    "extraction_timestamp": "2025-06-07T13:39:07.857Z",
    "source_name": "google",
    "source_query": "Irrigation Equipment",
    "source_country": "BG",
    "country": "Bulgaria",
    "state": "Montana Province",
    "city": "Yakimovo"
  },
  {
    "source_id": "ChIJ94n8nPknq0AR-F7qYAJ0fzU",
    "name": "MAXBAU 01 LTD",
    "category": "MAXBAU 01 LTD",
    "formatted_address": "4,8(18)",
    "phone_number": "+359876790868",
    "source_url": "https://www.google.com/maps/place/MAXBAU+01+LTD/data=!4m7!3m6!1s0x40ab27f99cfc89f7:0x357f740260ea5ef8!8m2!3d43.2058093!4d23.2891441!16s%2Fg%2F11n_jcqxsx!19sChIJ94n8nPknq0AR-F7qYAJ0fzU?authuser=0&hl=tr&rclk=1",
    "website_url": "",
    "rating_text": "4,8",
    "stars": null,
    "number_of_reviews": null,
    "price_level": "",
    "open_hours": "",
    "extraction_timestamp": "2025-06-07T13:39:08.287Z",
    "source_name": "google",
    "source_query": "Irrigation Equipment",
    "source_country": "BG",
    "country": "Bulgaria",
    "state": "Montana Province",
    "city": "Obshtina Varshets"
  },
  {
    "source_id": "ChIJn24eTuYYq0ARVNV2aGxbi9A",
    "name": "Irrigation Systems",
    "category": "Irrigation Systems",
    "formatted_address": "2,0(3)",
    "phone_number": "+35992653044",
    "source_url": "https://www.google.com/maps/place/Irrigation+Systems/data=!4m7!3m6!1s0x40ab18e64e1e6e9f:0xd08b5b6c6876d554!8m2!3d43.208899!4d23.5464445!16s%2Fg%2F11gz6900p!19sChIJn24eTuYYq0ARVNV2aGxbi9A?authuser=0&hl=tr&rclk=1",
    "website_url": "",
    "rating_text": "2,0",
    "stars": null,
    "number_of_reviews": null,
    "price_level": "",
    "open_hours": "",
    "extraction_timestamp": "2025-06-07T13:39:08.290Z",
    "source_name": "google",
    "source_query": "Irrigation Equipment",
    "source_country": "BG",
    "country": "Bulgaria",
    "state": "Montana Province",
    "city": "Obshtina Varshets"
  },
  {
    "source_id": "ChIJvV8j0lkzq0ARzNtNq8Rrg78",
    "name": "Water Montana",
    "category": "Water Montana",
    "formatted_address": "3,0(64)",
    "phone_number": "+35996383255",
    "source_url": "https://www.google.com/maps/place/Water+Montana/data=!4m7!3m6!1s0x40ab3359d2235fbd:0xbf836bc4ab4ddbcc!8m2!3d43.4052359!4d23.2249879!16s%2Fg%2F11cm3qlq2m!19sChIJvV8j0lkzq0ARzNtNq8Rrg78?authuser=0&hl=tr&rclk=1",
    "website_url": "",
    "rating_text": "3,0",
    "stars": null,
    "number_of_reviews": null,
    "price_level": "",
    "open_hours": "",
    "extraction_timestamp": "2025-06-07T13:39:08.293Z",
    "source_name": "google",
    "source_query": "Irrigation Equipment",
    "source_country": "BG",
    "country": "Bulgaria",
    "state": "Montana Province",
    "city": "Obshtina Varshets"
  },
  {
    "source_id": "ChIJ-WIJDKM0q0ARpuapJwuD3OI",
    "name": "Полихрон ЕООД",
    "category": "Полихрон ЕООД",
    "formatted_address": "4,5(216)",
    "phone_number": "+35996300660",
    "source_url": "https://www.google.com/maps/place/%D0%9F%D0%BE%D0%BB%D0%B8%D1%85%D1%80%D0%BE%D0%BD+%D0%95%D0%9E%D0%9E%D0%94/data=!4m7!3m6!1s0x40ab34a30c0962f9:0xe2dc830b27a9e6a6!8m2!3d43.4118521!4d23.2389808!16s%2Fg%2F11c38dzs5q!19sChIJ-WIJDKM0q0ARpuapJwuD3OI?authuser=0&hl=tr&rclk=1",
    "website_url": "",
    "rating_text": "4,5",
    "stars": null,
    "number_of_reviews": null,
    "price_level": "",
    "open_hours": "",
    "extraction_timestamp": "2025-06-07T13:39:08.295Z",
    "source_name": "google",
    "source_query": "Irrigation Equipment",
    "source_country": "BG",
    "country": "Bulgaria",
    "state": "Montana Province",
    "city": "Obshtina Varshets"
  },
  {
    "source_id": "ChIJN8Nz0K00q0ARaaM_5LJ7SCU",
    "name": "BALKAN HYDRO",
    "category": "BALKAN HYDRO",
    "formatted_address": "5,0(1)",
    "phone_number": "+359878470190",
    "source_url": "https://www.google.com/maps/place/BALKAN+HYDRO/data=!4m7!3m6!1s0x40ab34add073c337:0x25487bb2e43fa369!8m2!3d43.4156257!4d23.224856!16s%2Fg%2F11c54gjlp0!19sChIJN8Nz0K00q0ARaaM_5LJ7SCU?authuser=0&hl=tr&rclk=1",
    "website_url": "",
    "rating_text": "5,0",
    "stars": null,
    "number_of_reviews": null,
    "price_level": "",
    "open_hours": "",
    "extraction_timestamp": "2025-06-07T13:39:08.297Z",
    "source_name": "google",
    "source_query": "Irrigation Equipment",
    "source_country": "BG",
    "country": "Bulgaria",
    "state": "Montana Province",
    "city": "Obshtina Varshets"
  },
  {
    "source_id": "ChIJSzvOEq00q0ARS-vKS_3WElE",
    "name": "Husqvarna Montana",
    "category": "Husqvarna Montana",
    "formatted_address": "4,5(22)",
    "phone_number": "+35996307310",
    "source_url": "https://www.google.com/maps/place/Husqvarna+Montana/data=!4m7!3m6!1s0x40ab34ad12ce3b4b:0x5112d6fd4bcaeb4b!8m2!3d43.4168575!4d23.2220052!16s%2Fg%2F11b776c355!19sChIJSzvOEq00q0ARS-vKS_3WElE?authuser=0&hl=tr&rclk=1",
    "website_url": "",
    "rating_text": "4,5",
    "stars": null,
    "number_of_reviews": null,
    "price_level": "",
    "open_hours": "",
    "extraction_timestamp": "2025-06-07T13:39:08.301Z",
    "source_name": "google",
    "source_query": "Irrigation Equipment",
    "source_country": "BG",
    "country": "Bulgaria",
    "state": "Montana Province",
    "city": "Obshtina Varshets"
  },
  {
    "source_id": "ChIJ-_jBsLgnq0ARgvK28ieHEv4",
    "name": "Sunny Garden Spa Hotel",
    "category": "Sunny Garden Spa Hotel",
    "formatted_address": "4,6(1.198)",
    "phone_number": "+35995272480",
    "source_url": "https://www.google.com/maps/place/Sunny+Garden+Spa+Hotel/data=!4m10!3m9!1s0x40ab27b8b0c1f8fb:0xfe128727f2b6f282!5m2!4m1!1i2!8m2!3d43.1919763!4d23.2858364!16s%2Fg%2F1tlczp4b!19sChIJ-_jBsLgnq0ARgvK28ieHEv4?authuser=0&hl=tr&rclk=1",
    "website_url": "",
    "rating_text": "4,6",
    "stars": null,
    "number_of_reviews": null,
    "price_level": "",
    "open_hours": "",
    "extraction_timestamp": "2025-06-07T13:39:08.305Z",
    "source_name": "google",
    "source_query": "Irrigation Equipment",
    "source_country": "BG",
    "country": "Bulgaria",
    "state": "Montana Province",
    "city": "Obshtina Varshets"
  },
  {
    "source_id": "ChIJU2IKXJsnq0AR7MZXDWBQwak",
    "name": "Водопад \"Райски кът\"",
    "category": "Водопад \"Райски кът\"",
    "formatted_address": "4,9(346)",
    "phone_number": "",
    "source_url": "https://www.google.com/maps/place/%D0%92%D0%BE%D0%B4%D0%BE%D0%BF%D0%B0%D0%B4+%22%D0%A0%D0%B0%D0%B9%D1%81%D0%BA%D0%B8+%D0%BA%D1%8A%D1%82%22/data=!4m7!3m6!1s0x40ab279b5c0a6253:0xa9c150600d57c6ec!8m2!3d43.1768259!4d23.2924446!16s%2Fg%2F11ckqs1h40!19sChIJU2IKXJsnq0AR7MZXDWBQwak?authuser=0&hl=tr&rclk=1",
    "website_url": "",
    "rating_text": "4,9",
    "stars": null,
    "number_of_reviews": null,
    "price_level": "",
    "open_hours": "",
    "extraction_timestamp": "2025-06-07T13:39:08.307Z",
    "source_name": "google",
    "source_query": "Irrigation Equipment",
    "source_country": "BG",
    "country": "Bulgaria",
    "state": "Montana Province",
    "city": "Obshtina Varshets"
  },
  {
    "source_id": "ChIJVbugZmc1q0ARSq9MmU6BDts",
    "name": "INGCO Bulgaria",
    "category": "INGCO Bulgaria",
    "formatted_address": "4,8(28)",
    "phone_number": "+359887399477",
    "source_url": "https://www.google.com/maps/place/INGCO+Bulgaria/data=!4m7!3m6!1s0x40ab356766a0bb55:0xdb0e814e994caf4a!8m2!3d43.413485!4d23.2277359!16s%2Fg%2F11j024g4c0!19sChIJVbugZmc1q0ARSq9MmU6BDts?authuser=0&hl=tr&rclk=1",
    "website_url": "",
    "rating_text": "4,8",
    "stars": null,
    "number_of_reviews": null,
    "price_level": "",
    "open_hours": "",
    "extraction_timestamp": "2025-06-07T13:39:08.310Z",
    "source_name": "google",
    "source_query": "Irrigation Equipment",
    "source_country": "BG",
    "country": "Bulgaria",
    "state": "Montana Province",
    "city": "Obshtina Varshets"
  },
  {
    "source_id": "ChIJKTKEMPUpq0ARsLUikjOQ9Rk",
    "name": "Козе ферма Каряна",
    "category": "Козе ферма Каряна",
    "formatted_address": "4,8(33)",
    "phone_number": "+359898777911",
    "source_url": "https://www.google.com/maps/place/%D0%9A%D0%BE%D0%B7%D0%B5+%D1%84%D0%B5%D1%80%D0%BC%D0%B0+%D0%9A%D0%B0%D1%80%D1%8F%D0%BD%D0%B0/data=!4m7!3m6!1s0x40ab29f530843229:0x19f590339222b5b0!8m2!3d43.2228648!4d23.1862097!16s%2Fg%2F11p0043zfs!19sChIJKTKEMPUpq0ARsLUikjOQ9Rk?authuser=0&hl=tr&rclk=1",
    "website_url": "",
    "rating_text": "4,8",
    "stars": null,
    "number_of_reviews": null,
    "price_level": "",
    "open_hours": "",
    "extraction_timestamp": "2025-06-07T13:39:08.313Z",
    "source_name": "google",
    "source_query": "Irrigation Equipment",
    "source_country": "BG",
    "country": "Bulgaria",
    "state": "Montana Province",
    "city": "Obshtina Varshets"
  },
  {
    "source_id": "ChIJkZ-7sKM0q0ARyy-yrPWamIo",
    "name": "ITT Bulgaria Ltd.",
    "category": "ITT Bulgaria Ltd.",
    "formatted_address": "4,4(29)",
    "phone_number": "+359887085441",
    "source_url": "https://www.google.com/maps/place/ITT+Bulgaria+Ltd./data=!4m7!3m6!1s0x40ab34a3b0bb9f91:0x8a989af5acb22fcb!8m2!3d43.4112024!4d23.238982!16s%2Fg%2F11cntm0m_0!19sChIJkZ-7sKM0q0ARyy-yrPWamIo?authuser=0&hl=tr&rclk=1",
    "website_url": "",
    "rating_text": "4,4",
    "stars": null,
    "number_of_reviews": null,
    "price_level": "",
    "open_hours": "",
    "extraction_timestamp": "2025-06-07T13:39:08.317Z",
    "source_name": "google",
    "source_query": "Irrigation Equipment",
    "source_country": "BG",
    "country": "Bulgaria",
    "state": "Montana Province",
    "city": "Obshtina Varshets"
  },
  {
    "source_id": "ChIJyzu8eKU0q0AR2qCLWlh0Z98",
    "name": "TOPLIVO - Warehouse Montana",
    "category": "TOPLIVO - Warehouse Montana",
    "formatted_address": "4,2(61)",
    "phone_number": "+359884704979",
    "source_url": "https://www.google.com/maps/place/TOPLIVO+-+Warehouse+Montana/data=!4m7!3m6!1s0x40ab34a578bc3bcb:0xdf6774585a8ba0da!8m2!3d43.4132357!4d23.2316827!16s%2Fg%2F11g8w7w_cv!19sChIJyzu8eKU0q0AR2qCLWlh0Z98?authuser=0&hl=tr&rclk=1",
    "website_url": "",
    "rating_text": "4,2",
    "stars": null,
    "number_of_reviews": null,
    "price_level": "",
    "open_hours": "",
    "extraction_timestamp": "2025-06-07T13:39:08.319Z",
    "source_name": "google",
    "source_query": "Irrigation Equipment",
    "source_country": "BG",
    "country": "Bulgaria",
    "state": "Montana Province",
    "city": "Obshtina Varshets"
  },
  {
    "source_id": "ChIJA44rhVgzq0ARW01lvFDI984",
    "name": "MTeh Ltd.",
    "category": "MTeh Ltd.",
    "formatted_address": "4,0(14)",
    "phone_number": "+359888615855",
    "source_url": "https://www.google.com/maps/place/MTeh+Ltd./data=!4m7!3m6!1s0x40ab3358852b8e03:0xcef7c850bc654d5b!8m2!3d43.4068687!4d23.2291732!16s%2Fg%2F11g71dy5hz!19sChIJA44rhVgzq0ARW01lvFDI984?authuser=0&hl=tr&rclk=1",
    "website_url": "",
    "rating_text": "4,0",
    "stars": null,
    "number_of_reviews": null,
    "price_level": "",
    "open_hours": "",
    "extraction_timestamp": "2025-06-07T13:39:08.321Z",
    "source_name": "google",
    "source_query": "Irrigation Equipment",
    "source_country": "BG",
    "country": "Bulgaria",
    "state": "Montana Province",
    "city": "Obshtina Varshets"
  },
  {
    "source_id": "ChIJqW-miF8nq0ARiUGZ5QojbHA",
    "name": "Радослав Ананиев ЕТ",
    "category": "Радослав Ананиев ЕТ",
    "formatted_address": "4,5(31)",
    "phone_number": "",
    "source_url": "https://www.google.com/maps/place/%D0%A0%D0%B0%D0%B4%D0%BE%D1%81%D0%BB%D0%B0%D0%B2+%D0%90%D0%BD%D0%B0%D0%BD%D0%B8%D0%B5%D0%B2+%D0%95%D0%A2/data=!4m7!3m6!1s0x40ab275f88a66fa9:0x706c230ae5994189!8m2!3d43.1957184!4d23.2837569!16s%2Fg%2F11gy9q2c6t!19sChIJqW-miF8nq0ARiUGZ5QojbHA?authuser=0&hl=tr&rclk=1",
    "website_url": "",
    "rating_text": "4,5",
    "stars": null,
    "number_of_reviews": null,
    "price_level": "",
    "open_hours": "",
    "extraction_timestamp": "2025-06-07T13:39:08.322Z",
    "source_name": "google",
    "source_query": "Irrigation Equipment",
    "source_country": "BG",
    "country": "Bulgaria",
    "state": "Montana Province",
    "city": "Obshtina Varshets"
  },
  {
    "source_id": "ChIJ3f4Nd2Izq0ARAcebBVgSZIM",
    "name": "МАР МАГ ИТИ ЕООД",
    "category": "МАР МАГ ИТИ ЕООД",
    "formatted_address": "4,4(108)",
    "phone_number": "+359888361362",
    "source_url": "https://www.google.com/maps/place/%D0%9C%D0%90%D0%A0+%D0%9C%D0%90%D0%93+%D0%98%D0%A2%D0%98+%D0%95%D0%9E%D0%9E%D0%94/data=!4m7!3m6!1s0x40ab3362770dfedd:0x83641258059bc701!8m2!3d43.403394!4d23.2464826!16s%2Fg%2F11cndbspq2!19sChIJ3f4Nd2Izq0ARAcebBVgSZIM?authuser=0&hl=tr&rclk=1",
    "website_url": "",
    "rating_text": "4,4",
    "stars": null,
    "number_of_reviews": null,
    "price_level": "",
    "open_hours": "",
    "extraction_timestamp": "2025-06-07T13:39:08.324Z",
    "source_name": "google",
    "source_query": "Irrigation Equipment",
    "source_country": "BG",
    "country": "Bulgaria",
    "state": "Montana Province",
    "city": "Obshtina Varshets"
  },
  {
    "source_id": "ChIJtWTqsFgzq0ARb9XfxPNSIDE",
    "name": "Gerak EOOD",
    "category": "Gerak EOOD",
    "formatted_address": "4,3(48)",
    "phone_number": "+35996307545",
    "source_url": "https://www.google.com/maps/place/Gerak+EOOD/data=!4m7!3m6!1s0x40ab3358b0ea64b5:0x312052f3c4dfd56f!8m2!3d43.4122165!4d23.2322721!16s%2Fg%2F113fbvsvs!19sChIJtWTqsFgzq0ARb9XfxPNSIDE?authuser=0&hl=tr&rclk=1",
    "website_url": "",
    "rating_text": "4,3",
    "stars": null,
    "number_of_reviews": null,
    "price_level": "",
    "open_hours": "",
    "extraction_timestamp": "2025-06-07T13:39:08.327Z",
    "source_name": "google",
    "source_query": "Irrigation Equipment",
    "source_country": "BG",
    "country": "Bulgaria",
    "state": "Montana Province",
    "city": "Obshtina Varshets"
  },
  {
    "source_id": "ChIJW_0-ylPLVEcRQYl2Tk9T318",
    "name": "Ionimont",
    "category": "Ionimont",
    "formatted_address": "4,4(140)",
    "phone_number": "+35996307095",
    "source_url": "https://www.google.com/maps/place/Ionimont/data=!4m7!3m6!1s0x4754cb53ca3efd5b:0x5fdf534f4e768941!8m2!3d43.4170995!4d23.2141449!16s%2Fg%2F11bwp1gmr1!19sChIJW_0-ylPLVEcRQYl2Tk9T318?authuser=0&hl=tr&rclk=1",
    "website_url": "",
    "rating_text": "4,4",
    "stars": null,
    "number_of_reviews": null,
    "price_level": "",
    "open_hours": "",
    "extraction_timestamp": "2025-06-07T13:39:08.328Z",
    "source_name": "google",
    "source_query": "Irrigation Equipment",
    "source_country": "BG",
    "country": "Bulgaria",
    "state": "Montana Province",
    "city": "Obshtina Varshets"
  },
  {
    "source_id": "ChIJS3zrbrQ0q0ARRzLrm0zyhWM",
    "name": "Technopolis Montana",
    "category": "Technopolis Montana",
    "formatted_address": "4,4(1.113)",
    "phone_number": "+35996390666",
    "source_url": "https://www.google.com/maps/place/Technopolis+Montana/data=!4m7!3m6!1s0x40ab34b46eeb7c4b:0x6385f24c9beb3247!8m2!3d43.4219989!4d23.2286186!16s%2Fg%2F1260j_x52!19sChIJS3zrbrQ0q0ARRzLrm0zyhWM?authuser=0&hl=tr&rclk=1",
    "website_url": "",
    "rating_text": "4,4",
    "stars": null,
    "number_of_reviews": null,
    "price_level": "",
    "open_hours": "",
    "extraction_timestamp": "2025-06-07T13:39:08.335Z",
    "source_name": "google",
    "source_query": "Irrigation Equipment",
    "source_country": "BG",
    "country": "Bulgaria",
    "state": "Montana Province",
    "city": "Obshtina Varshets"
  },
  {
    "source_id": "ChIJNxv9Glwnq0ARNJHz8BqcLYM",
    "name": "Varshets",
    "category": "Varshets",
    "formatted_address": "4,3(30)",
    "phone_number": "",
    "source_url": "https://www.google.com/maps/place/Varshets/data=!4m7!3m6!1s0x40ab275c1afd1b37:0x832d9c1af0f39134!8m2!3d43.1938764!4d23.2865813!16s%2Fg%2F11vbq2xhql!19sChIJNxv9Glwnq0ARNJHz8BqcLYM?authuser=0&hl=tr&rclk=1",
    "website_url": "",
    "rating_text": "4,3",
    "stars": null,
    "number_of_reviews": null,
    "price_level": "",
    "open_hours": "",
    "extraction_timestamp": "2025-06-07T13:39:08.337Z",
    "source_name": "google",
    "source_query": "Irrigation Equipment",
    "source_country": "BG",
    "country": "Bulgaria",
    "state": "Montana Province",
    "city": "Obshtina Varshets"
  },
  {
    "source_id": "ChIJn6KBuFoZq0ARnppIwt9eoQ4",
    "name": "Нелбо АД гр. Враца",
    "category": "Нелбо АД гр. Враца",
    "formatted_address": "4,8(25)",
    "phone_number": "+359882925832",
    "source_url": "https://www.google.com/maps/place/%D0%9D%D0%B5%D0%BB%D0%B1%D0%BE+%D0%90%D0%94+%D0%B3%D1%80.+%D0%92%D1%80%D0%B0%D1%86%D0%B0/data=!4m7!3m6!1s0x40ab195ab881a29f:0xea15edfc2489a9e!8m2!3d43.2035763!4d23.5550292!16s%2Fg%2F11pylk4bwc!19sChIJn6KBuFoZq0ARnppIwt9eoQ4?authuser=0&hl=tr&rclk=1",
    "website_url": "",
    "rating_text": "4,8",
    "stars": null,
    "number_of_reviews": null,
    "price_level": "",
    "open_hours": "",
    "extraction_timestamp": "2025-06-07T13:39:08.338Z",
    "source_name": "google",
    "source_query": "Irrigation Equipment",
    "source_country": "BG",
    "country": "Bulgaria",
    "state": "Montana Province",
    "city": "Obshtina Varshets"
  },
  {
    "source_id": "ChIJ-WIJDKM0q0ARpuapJwuD3OI",
    "name": "Полихрон ЕООД",
    "category": "Полихрон ЕООД",
    "formatted_address": "4,5(216)",
    "phone_number": "+35996300660",
    "source_url": "https://www.google.com/maps/place/%D0%9F%D0%BE%D0%BB%D0%B8%D1%85%D1%80%D0%BE%D0%BD+%D0%95%D0%9E%D0%9E%D0%94/data=!4m7!3m6!1s0x40ab34a30c0962f9:0xe2dc830b27a9e6a6!8m2!3d43.4118521!4d23.2389808!16s%2Fg%2F11c38dzs5q!19sChIJ-WIJDKM0q0ARpuapJwuD3OI?authuser=0&hl=tr&rclk=1",
    "website_url": "http://polihron.bg/",
    "rating_text": "4,5",
    "stars": null,
    "number_of_reviews": null,
    "price_level": "",
    "open_hours": "",
    "extraction_timestamp": "2025-06-07T13:39:26.275Z",
    "source_name": "google",
    "source_query": "Irrigation Equipment",
    "source_country": "BG",
    "country": "Bulgaria",
    "state": "Montana Province",
    "city": "Obshtina Boychinovtsi"
  },
  {
    "source_id": "ChIJVbugZmc1q0ARSq9MmU6BDts",
    "name": "INGCO Bulgaria",
    "category": "INGCO Bulgaria",
    "formatted_address": "4,8(28)",
    "phone_number": "+359887399477",
    "source_url": "https://www.google.com/maps/place/INGCO+Bulgaria/data=!4m7!3m6!1s0x40ab356766a0bb55:0xdb0e814e994caf4a!8m2!3d43.413485!4d23.2277359!16s%2Fg%2F11j024g4c0!19sChIJVbugZmc1q0ARSq9MmU6BDts?authuser=0&hl=tr&rclk=1",
    "website_url": "http://www.ingco.bg/",
    "rating_text": "4,8",
    "stars": null,
    "number_of_reviews": null,
    "price_level": "",
    "open_hours": "",
    "extraction_timestamp": "2025-06-07T13:39:26.280Z",
    "source_name": "google",
    "source_query": "Irrigation Equipment",
    "source_country": "BG",
    "country": "Bulgaria",
    "state": "Montana Province",
    "city": "Obshtina Boychinovtsi"
  },
  {
    "source_id": "ChIJN8Nz0K00q0ARaaM_5LJ7SCU",
    "name": "BALKAN HYDRO",
    "category": "BALKAN HYDRO",
    "formatted_address": "5,0(1)",
    "phone_number": "+359878470190",
    "source_url": "https://www.google.com/maps/place/BALKAN+HYDRO/data=!4m7!3m6!1s0x40ab34add073c337:0x25487bb2e43fa369!8m2!3d43.4156257!4d23.224856!16s%2Fg%2F11c54gjlp0!19sChIJN8Nz0K00q0ARaaM_5LJ7SCU?authuser=0&hl=tr&rclk=1",
    "website_url": "",
    "rating_text": "5,0",
    "stars": null,
    "number_of_reviews": null,
    "price_level": "",
    "open_hours": "",
    "extraction_timestamp": "2025-06-07T13:39:26.284Z",
    "source_name": "google",
    "source_query": "Irrigation Equipment",
    "source_country": "BG",
    "country": "Bulgaria",
    "state": "Montana Province",
    "city": "Obshtina Boychinovtsi"
  },
  {
    "source_id": "ChIJ-WIJDKM0q0ARpuapJwuD3OI",
    "name": "Полихрон ЕООД",
    "category": "Полихрон ЕООД",
    "formatted_address": "4,5(216)",
    "phone_number": "+35996300660",
    "source_url": "https://www.google.com/maps/place/%D0%9F%D0%BE%D0%BB%D0%B8%D1%85%D1%80%D0%BE%D0%BD+%D0%95%D0%9E%D0%9E%D0%94/data=!4m7!3m6!1s0x40ab34a30c0962f9:0xe2dc830b27a9e6a6!8m2!3d43.4118521!4d23.2389808!16s%2Fg%2F11c38dzs5q!19sChIJ-WIJDKM0q0ARpuapJwuD3OI?authuser=0&hl=tr&rclk=1",
    "website_url": "http://polihron.bg/",
    "rating_text": "4,5",
    "stars": null,
    "number_of_reviews": null,
    "price_level": "",
    "open_hours": "",
    "extraction_timestamp": "2025-06-07T13:39:35.118Z",
    "source_name": "google",
    "source_query": "Irrigation Equipment",
    "source_country": "BG",
    "country": "Bulgaria",
    "state": "Montana Province",
    "city": "Obshtina Chiprovtsi"
  },
  {
    "source_id": "ChIJceqv6MuEqkAR45AXk38sGOE",
    "name": "Irrigation Systems",
    "category": "Irrigation Systems",
    "formatted_address": "4,4(10)",
    "phone_number": "+35928085001",
    "source_url": "https://www.google.com/maps/place/Irrigation+Systems/data=!4m7!3m6!1s0x40aa84cbe8afea71:0xe1182c7f931790e3!8m2!3d42.6700035!4d23.2681798!16s%2Fg%2F1thtbmsl!19sChIJceqv6MuEqkAR45AXk38sGOE?authuser=0&hl=tr&rclk=1",
    "website_url": "https://nps.bg/",
    "rating_text": "4,4",
    "stars": null,
    "number_of_reviews": null,
    "price_level": "",
    "open_hours": "",
    "extraction_timestamp": "2025-06-07T13:39:35.120Z",
    "source_name": "google",
    "source_query": "Irrigation Equipment",
    "source_country": "BG",
    "country": "Bulgaria",
    "state": "Montana Province",
    "city": "Obshtina Chiprovtsi"
  },
  {
    "source_id": "ChIJVbugZmc1q0ARSq9MmU6BDts",
    "name": "INGCO Bulgaria",
    "category": "INGCO Bulgaria",
    "formatted_address": "4,8(28)",
    "phone_number": "+359887399477",
    "source_url": "https://www.google.com/maps/place/INGCO+Bulgaria/data=!4m7!3m6!1s0x40ab356766a0bb55:0xdb0e814e994caf4a!8m2!3d43.413485!4d23.2277359!16s%2Fg%2F11j024g4c0!19sChIJVbugZmc1q0ARSq9MmU6BDts?authuser=0&hl=tr&rclk=1",
    "website_url": "http://www.ingco.bg/",
    "rating_text": "4,8",
    "stars": null,
    "number_of_reviews": null,
    "price_level": "",
    "open_hours": "",
    "extraction_timestamp": "2025-06-07T13:39:35.122Z",
    "source_name": "google",
    "source_query": "Irrigation Equipment",
    "source_country": "BG",
    "country": "Bulgaria",
    "state": "Montana Province",
    "city": "Obshtina Chiprovtsi"
  },
  {
    "source_id": "ChIJyzu8eKU0q0AR2qCLWlh0Z98",
    "name": "TOPLIVO - Warehouse Montana",
    "category": "TOPLIVO - Warehouse Montana",
    "formatted_address": "4,2(61)",
    "phone_number": "+359884704979",
    "source_url": "https://www.google.com/maps/place/TOPLIVO+-+Warehouse+Montana/data=!4m7!3m6!1s0x40ab34a578bc3bcb:0xdf6774585a8ba0da!8m2!3d43.4132357!4d23.2316827!16s%2Fg%2F11g8w7w_cv!19sChIJyzu8eKU0q0AR2qCLWlh0Z98?authuser=0&hl=tr&rclk=1",
    "website_url": "http://toplivo.bg/",
    "rating_text": "4,2",
    "stars": null,
    "number_of_reviews": null,
    "price_level": "",
    "open_hours": "",
    "extraction_timestamp": "2025-06-07T13:39:35.140Z",
    "source_name": "google",
    "source_query": "Irrigation Equipment",
    "source_country": "BG",
    "country": "Bulgaria",
    "state": "Montana Province",
    "city": "Obshtina Chiprovtsi"
  },
  {
    "source_id": "ChIJKTKEMPUpq0ARsLUikjOQ9Rk",
    "name": "Козе ферма Каряна",
    "category": "Козе ферма Каряна",
    "formatted_address": "4,8(33)",
    "phone_number": "+359898777911",
    "source_url": "https://www.google.com/maps/place/%D0%9A%D0%BE%D0%B7%D0%B5+%D1%84%D0%B5%D1%80%D0%BC%D0%B0+%D0%9A%D0%B0%D1%80%D1%8F%D0%BD%D0%B0/data=!4m7!3m6!1s0x40ab29f530843229:0x19f590339222b5b0!8m2!3d43.2228648!4d23.1862097!16s%2Fg%2F11p0043zfs!19sChIJKTKEMPUpq0ARsLUikjOQ9Rk?authuser=0&hl=tr&rclk=1",
    "website_url": "http://facebook.com/%D0%92%D1%81%D0%B8%D1%87%D0%BA%D0%BE-%D0%BE%D1%82-%D0%9A%D0%BE%D0%B7%D0%B5-%D0%BC%D0%BB%D1%8F%D0%BA%D0%BE-%D0%9A%D0%BE%D0%B7%D0%B5%D1%84%D0%B5%D1%80%D0%BC%D0%B0-%D0%9A%D0%B0%D1%80%D1%8F%D0%BD%D0%B0-125489031347578/",
    "rating_text": "4,8",
    "stars": null,
    "number_of_reviews": null,
    "price_level": "",
    "open_hours": "",
    "extraction_timestamp": "2025-06-07T13:39:35.141Z",
    "source_name": "google",
    "source_query": "Irrigation Equipment",
    "source_country": "BG",
    "country": "Bulgaria",
    "state": "Montana Province",
    "city": "Obshtina Chiprovtsi"
  },
  {
    "source_id": "ChIJaXxaHi6HqkARuV68ciRbxyA",
    "name": "Напояване",
    "category": "Напояване",
    "formatted_address": "",
    "phone_number": "+35929790881",
    "source_url": "https://www.google.com/maps/place/%D0%9D%D0%B0%D0%BF%D0%BE%D1%8F%D0%B2%D0%B0%D0%BD%D0%B5/data=!4m7!3m6!1s0x40aa872e1e5a7c69:0x20c75b2472bc5eb9!8m2!3d42.6240477!4d23.4024511!16s%2Fg%2F11j0jkgxy0!19sChIJaXxaHi6HqkARuV68ciRbxyA?authuser=0&hl=tr&rclk=1",
    "website_url": "http://xn--80aafn0bdeh9l.com/%D0%BA%D0%BE%D0%BD%D1%82%D0%B0%D0%BA%D1%82%D0%B8/",
    "rating_text": "",
    "stars": null,
    "number_of_reviews": null,
    "price_level": "",
    "open_hours": "",
    "extraction_timestamp": "2025-06-07T13:39:35.144Z",
    "source_name": "google",
    "source_query": "Irrigation Equipment",
    "source_country": "BG",
    "country": "Bulgaria",
    "state": "Montana Province",
    "city": "Obshtina Chiprovtsi"
  },
  {
    "source_id": "ChIJx-GLLKyrVEcR1CGAU30EYVw",
    "name": "Железария , Строителни материали",
    "category": "Железария , Строителни материали",
    "formatted_address": "Железария , Строителни материали",
    "phone_number": "+359896812156",
    "source_url": "https://www.google.com/maps/place/%D0%96%D0%B5%D0%BB%D0%B5%D0%B7%D0%B0%D1%80%D0%B8%D1%8F+,+%D0%A1%D1%82%D1%80%D0%BE%D0%B8%D1%82%D0%B5%D0%BB%D0%BD%D0%B8+%D0%BC%D0%B0%D1%82%D0%B5%D1%80%D0%B8%D0%B0%D0%BB%D0%B8/data=!4m7!3m6!1s0x4754abac2c8be1c7:0x5c61047d538021d4!8m2!3d43.6943038!4d23.4451122!16s%2Fg%2F11fjxxfgjz!19sChIJx-GLLKyrVEcR1CGAU30EYVw?authuser=0&hl=tr&rclk=1",
    "website_url": "",
    "rating_text": "4,6",
    "stars": null,
    "number_of_reviews": null,
    "price_level": "",
    "open_hours": "",
    "extraction_timestamp": "2025-06-07T13:39:37.285Z",
    "source_name": "google",
    "source_query": "Irrigation Equipment",
    "source_country": "BG",
    "country": "Bulgaria",
    "state": "Montana Province",
    "city": "Valchedram"
  },
  {
    "source_id": "ChIJc_W_DqQ0q0ARFykReo0aORM",
    "name": "АСМ ЕООД",
    "category": "АСМ ЕООД",
    "formatted_address": "4,4(84)",
    "phone_number": "+35996391515",
    "source_url": "https://www.google.com/maps/place/%D0%90%D0%A1%D0%9C+%D0%95%D0%9E%D0%9E%D0%94/data=!4m7!3m6!1s0x40ab34a40ebff573:0x13391a8d7a112917!8m2!3d43.4104186!4d23.2354777!16s%2Fg%2F11c31sk6v6!19sChIJc_W_DqQ0q0ARFykReo0aORM?authuser=0&hl=tr&rclk=1",
    "website_url": "https://www.acm-montana.com/",
    "rating_text": "4,4",
    "stars": null,
    "number_of_reviews": null,
    "price_level": "",
    "open_hours": "",
    "extraction_timestamp": "2025-06-07T13:39:37.286Z",
    "source_name": "google",
    "source_query": "Irrigation Equipment",
    "source_country": "BG",
    "country": "Bulgaria",
    "state": "Montana Province",
    "city": "Valchedram"
  },
  {
    "source_id": "ChIJ9eAcVMyrVEcRXeMMIXhm47M",
    "name": "Valchedram",
    "category": "Valchedram",
    "formatted_address": "4,2(25)",
    "phone_number": "",
    "source_url": "https://www.google.com/maps/place/Valchedram/data=!4m7!3m6!1s0x4754abcc541ce0f5:0xb3e36678210ce35d!8m2!3d43.6968704!4d23.4454596!16s%2Fg%2F11t03npb9f!19sChIJ9eAcVMyrVEcRXeMMIXhm47M?authuser=0&hl=tr&rclk=1",
    "website_url": "",
    "rating_text": "4,2",
    "stars": null,
    "number_of_reviews": null,
    "price_level": "",
    "open_hours": "",
    "extraction_timestamp": "2025-06-07T13:39:37.287Z",
    "source_name": "google",
    "source_query": "Irrigation Equipment",
    "source_country": "BG",
    "country": "Bulgaria",
    "state": "Montana Province",
    "city": "Valchedram"
  },
  {
    "source_id": "ChIJRZJ47i-rVEcROUA4dYnkk9c",
    "name": "My gourmet shop",
    "category": "My gourmet shop",
    "formatted_address": "4,2(79)",
    "phone_number": "+35997443474",
    "source_url": "https://www.google.com/maps/place/My+gourmet+shop/data=!4m7!3m6!1s0x4754ab2fee789245:0xd793e48975384039!8m2!3d43.6944195!4d23.4458775!16s%2Fg%2F11g8bbs8c4!19sChIJRZJ47i-rVEcROUA4dYnkk9c?authuser=0&hl=tr&rclk=1",
    "website_url": "https://www.facebook.com/GastronomValchedram/",
    "rating_text": "4,2",
    "stars": null,
    "number_of_reviews": null,
    "price_level": "",
    "open_hours": "",
    "extraction_timestamp": "2025-06-07T13:39:37.289Z",
    "source_name": "google",
    "source_query": "Irrigation Equipment",
    "source_country": "BG",
    "country": "Bulgaria",
    "state": "Montana Province",
    "city": "Valchedram"
  },
  {
    "source_id": "ChIJKTKEMPUpq0ARsLUikjOQ9Rk",
    "name": "Козе ферма Каряна",
    "category": "Козе ферма Каряна",
    "formatted_address": "4,8(33)",
    "phone_number": "+359898777911",
    "source_url": "https://www.google.com/maps/place/%D0%9A%D0%BE%D0%B7%D0%B5+%D1%84%D0%B5%D1%80%D0%BC%D0%B0+%D0%9A%D0%B0%D1%80%D1%8F%D0%BD%D0%B0/data=!4m7!3m6!1s0x40ab29f530843229:0x19f590339222b5b0!8m2!3d43.2228648!4d23.1862097!16s%2Fg%2F11p0043zfs!19sChIJKTKEMPUpq0ARsLUikjOQ9Rk?authuser=0&hl=tr&rclk=1",
    "website_url": "http://facebook.com/%D0%92%D1%81%D0%B8%D1%87%D0%BA%D0%BE-%D0%BE%D1%82-%D0%9A%D0%BE%D0%B7%D0%B5-%D0%BC%D0%BB%D1%8F%D0%BA%D0%BE-%D0%9A%D0%BE%D0%B7%D0%B5%D1%84%D0%B5%D1%80%D0%BC%D0%B0-%D0%9A%D0%B0%D1%80%D1%8F%D0%BD%D0%B0-125489031347578/",
    "rating_text": "4,8",
    "stars": null,
    "number_of_reviews": null,
    "price_level": "",
    "open_hours": "",
    "extraction_timestamp": "2025-06-07T13:39:37.746Z",
    "source_name": "google",
    "source_query": "Irrigation Equipment",
    "source_country": "BG",
    "country": "Bulgaria",
    "state": "Montana Province",
    "city": "Berkovitsa"
  },
  {
    "source_id": "ChIJewx5alQqq0ARTUVPy9LX7hY",
    "name": "Water Story",
    "category": "Water Story",
    "formatted_address": "3,8(4)",
    "phone_number": "+359897448418",
    "source_url": "https://www.google.com/maps/place/Water+Story/data=!4m7!3m6!1s0x40ab2a546a790c7b:0x16eed7d2cb4f454d!8m2!3d43.2361987!4d23.1273843!16s%2Fg%2F11fxwbgw5s!19sChIJewx5alQqq0ARTUVPy9LX7hY?authuser=0&hl=tr&rclk=1",
    "website_url": "",
    "rating_text": "3,8",
    "stars": null,
    "number_of_reviews": null,
    "price_level": "",
    "open_hours": "",
    "extraction_timestamp": "2025-06-07T13:39:37.747Z",
    "source_name": "google",
    "source_query": "Irrigation Equipment",
    "source_country": "BG",
    "country": "Bulgaria",
    "state": "Montana Province",
    "city": "Berkovitsa"
  },
  {
    "source_id": "ChIJKTKEMPUpq0ARsLUikjOQ9Rk",
    "name": "Козе ферма Каряна",
    "category": "Козе ферма Каряна",
    "formatted_address": "4,8(33)",
    "phone_number": "+359898777911",
    "source_url": "https://www.google.com/maps/place/%D0%9A%D0%BE%D0%B7%D0%B5+%D1%84%D0%B5%D1%80%D0%BC%D0%B0+%D0%9A%D0%B0%D1%80%D1%8F%D0%BD%D0%B0/data=!4m7!3m6!1s0x40ab29f530843229:0x19f590339222b5b0!8m2!3d43.2228648!4d23.1862097!16s%2Fg%2F11p0043zfs!19sChIJKTKEMPUpq0ARsLUikjOQ9Rk?authuser=0&hl=tr&rclk=1",
    "website_url": "http://facebook.com/%D0%92%D1%81%D0%B8%D1%87%D0%BA%D0%BE-%D0%BE%D1%82-%D0%9A%D0%BE%D0%B7%D0%B5-%D0%BC%D0%BB%D1%8F%D0%BA%D0%BE-%D0%9A%D0%BE%D0%B7%D0%B5%D1%84%D0%B5%D1%80%D0%BC%D0%B0-%D0%9A%D0%B0%D1%80%D1%8F%D0%BD%D0%B0-125489031347578/",
    "rating_text": "4,8",
    "stars": null,
    "number_of_reviews": null,
    "price_level": "",
    "open_hours": "",
    "extraction_timestamp": "2025-06-07T13:39:37.865Z",
    "source_name": "google",
    "source_query": "Irrigation Equipment",
    "source_country": "BG",
    "country": "Bulgaria",
    "state": "Montana Province",
    "city": "Obshtina Georgi Damyanovo"
  },
  {
    "source_id": "ChIJceqv6MuEqkAR45AXk38sGOE",
    "name": "Irrigation Systems",
    "category": "Irrigation Systems",
    "formatted_address": "4,4(10)",
    "phone_number": "+35928085001",
    "source_url": "https://www.google.com/maps/place/Irrigation+Systems/data=!4m7!3m6!1s0x40aa84cbe8afea71:0xe1182c7f931790e3!8m2!3d42.6700035!4d23.2681798!16s%2Fg%2F1thtbmsl!19sChIJceqv6MuEqkAR45AXk38sGOE?authuser=0&hl=tr&rclk=1",
    "website_url": "https://nps.bg/",
    "rating_text": "4,4",
    "stars": null,
    "number_of_reviews": null,
    "price_level": "",
    "open_hours": "",
    "extraction_timestamp": "2025-06-07T13:39:37.868Z",
    "source_name": "google",
    "source_query": "Irrigation Equipment",
    "source_country": "BG",
    "country": "Bulgaria",
    "state": "Montana Province",
    "city": "Obshtina Georgi Damyanovo"
  },
  {
    "source_id": "ChIJx-GLLKyrVEcR1CGAU30EYVw",
    "name": "Железария , Строителни материали",
    "category": "Железария , Строителни материали",
    "formatted_address": "Железария , Строителни материали",
    "phone_number": "+359896812156",
    "source_url": "https://www.google.com/maps/place/%D0%96%D0%B5%D0%BB%D0%B5%D0%B7%D0%B0%D1%80%D0%B8%D1%8F+,+%D0%A1%D1%82%D1%80%D0%BE%D0%B8%D1%82%D0%B5%D0%BB%D0%BD%D0%B8+%D0%BC%D0%B0%D1%82%D0%B5%D1%80%D0%B8%D0%B0%D0%BB%D0%B8/data=!4m7!3m6!1s0x4754abac2c8be1c7:0x5c61047d538021d4!8m2!3d43.6943038!4d23.4451122!16s%2Fg%2F11fjxxfgjz!19sChIJx-GLLKyrVEcR1CGAU30EYVw?authuser=0&hl=tr&rclk=1",
    "website_url": "",
    "rating_text": "4,6",
    "stars": null,
    "number_of_reviews": null,
    "price_level": "",
    "open_hours": "",
    "extraction_timestamp": "2025-06-07T13:39:38.977Z",
    "source_name": "google",
    "source_query": "Irrigation Equipment",
    "source_country": "BG",
    "country": "Bulgaria",
    "state": "Montana Province",
    "city": "Obshtina Yakimovo"
  },
  {
    "source_id": "ChIJ-WIJDKM0q0ARpuapJwuD3OI",
    "name": "Полихрон ЕООД",
    "category": "Полихрон ЕООД",
    "formatted_address": "4,5(216)",
    "phone_number": "+35996300660",
    "source_url": "https://www.google.com/maps/place/%D0%9F%D0%BE%D0%BB%D0%B8%D1%85%D1%80%D0%BE%D0%BD+%D0%95%D0%9E%D0%9E%D0%94/data=!4m7!3m6!1s0x40ab34a30c0962f9:0xe2dc830b27a9e6a6!8m2!3d43.4118521!4d23.2389808!16s%2Fg%2F11c38dzs5q!19sChIJ-WIJDKM0q0ARpuapJwuD3OI?authuser=0&hl=tr&rclk=1",
    "website_url": "http://polihron.bg/",
    "rating_text": "4,5",
    "stars": null,
    "number_of_reviews": null,
    "price_level": "",
    "open_hours": "",
    "extraction_timestamp": "2025-06-07T13:39:38.978Z",
    "source_name": "google",
    "source_query": "Irrigation Equipment",
    "source_country": "BG",
    "country": "Bulgaria",
    "state": "Montana Province",
    "city": "Obshtina Yakimovo"
  },
  {
    "source_id": "ChIJVbugZmc1q0ARSq9MmU6BDts",
    "name": "INGCO Bulgaria",
    "category": "INGCO Bulgaria",
    "formatted_address": "4,8(28)",
    "phone_number": "+359887399477",
    "source_url": "https://www.google.com/maps/place/INGCO+Bulgaria/data=!4m7!3m6!1s0x40ab356766a0bb55:0xdb0e814e994caf4a!8m2!3d43.413485!4d23.2277359!16s%2Fg%2F11j024g4c0!19sChIJVbugZmc1q0ARSq9MmU6BDts?authuser=0&hl=tr&rclk=1",
    "website_url": "http://www.ingco.bg/",
    "rating_text": "4,8",
    "stars": null,
    "number_of_reviews": null,
    "price_level": "",
    "open_hours": "",
    "extraction_timestamp": "2025-06-07T13:39:38.978Z",
    "source_name": "google",
    "source_query": "Irrigation Equipment",
    "source_country": "BG",
    "country": "Bulgaria",
    "state": "Montana Province",
    "city": "Obshtina Yakimovo"
  },
  {
    "source_id": "ChIJHd8apBhLq0AReFZKCeAdCNQ",
    "name": "Агро КГ",
    "category": "Агро КГ",
    "formatted_address": "4,6(16)",
    "phone_number": "+359885357239",
    "source_url": "https://www.google.com/maps/place/%D0%90%D0%B3%D1%80%D0%BE+%D0%9A%D0%93/data=!4m7!3m6!1s0x40ab4b18a41adf1d:0xd4081de0094a5678!8m2!3d43.4703201!4d23.3349974!16s%2Fg%2F11h6xdvd5n!19sChIJHd8apBhLq0AReFZKCeAdCNQ?authuser=0&hl=tr&rclk=1",
    "website_url": "http://agrokg.bg/",
    "rating_text": "4,6",
    "stars": null,
    "number_of_reviews": null,
    "price_level": "",
    "open_hours": "",
    "extraction_timestamp": "2025-06-07T13:39:38.979Z",
    "source_name": "google",
    "source_query": "Irrigation Equipment",
    "source_country": "BG",
    "country": "Bulgaria",
    "state": "Montana Province",
    "city": "Obshtina Yakimovo"
  },
  {
    "source_id": "ChIJW_0-ylPLVEcRQYl2Tk9T318",
    "name": "Ionimont",
    "category": "Ionimont",
    "formatted_address": "4,4(140)",
    "phone_number": "+35996307095",
    "source_url": "https://www.google.com/maps/place/Ionimont/data=!4m7!3m6!1s0x4754cb53ca3efd5b:0x5fdf534f4e768941!8m2!3d43.4170995!4d23.2141449!16s%2Fg%2F11bwp1gmr1!19sChIJW_0-ylPLVEcRQYl2Tk9T318?authuser=0&hl=tr&rclk=1",
    "website_url": "",
    "rating_text": "4,4",
    "stars": null,
    "number_of_reviews": null,
    "price_level": "",
    "open_hours": "",
    "extraction_timestamp": "2025-06-07T13:39:38.979Z",
    "source_name": "google",
    "source_query": "Irrigation Equipment",
    "source_country": "BG",
    "country": "Bulgaria",
    "state": "Montana Province",
    "city": "Obshtina Yakimovo"
  },
  {
    "source_id": "ChIJJfBibcetVEcRP79Hg-_Rvv0",
    "name": "Магазин Якимово",
    "category": "Магазин Якимово",
    "formatted_address": "4,5(29)",
    "phone_number": "",
    "source_url": "https://www.google.com/maps/place/%D0%9C%D0%B0%D0%B3%D0%B0%D0%B7%D0%B8%D0%BD+%D0%AF%D0%BA%D0%B8%D0%BC%D0%BE%D0%B2%D0%BE/data=!4m7!3m6!1s0x4754adc76d62f025:0xfdbed1ef8347bf3f!8m2!3d43.6351781!4d23.3470289!16s%2Fg%2F11rb49jcb1!19sChIJJfBibcetVEcRP79Hg-_Rvv0?authuser=0&hl=tr&rclk=1",
    "website_url": "",
    "rating_text": "4,5",
    "stars": null,
    "number_of_reviews": null,
    "price_level": "",
    "open_hours": "",
    "extraction_timestamp": "2025-06-07T13:39:38.980Z",
    "source_name": "google",
    "source_query": "Irrigation Equipment",
    "source_country": "BG",
    "country": "Bulgaria",
    "state": "Montana Province",
    "city": "Obshtina Yakimovo"
  },
  {
    "source_id": "ChIJceqv6MuEqkAR45AXk38sGOE",
    "name": "Irrigation Systems",
    "category": "Irrigation Systems",
    "formatted_address": "4,4(10)",
    "phone_number": "+35928085001",
    "source_url": "https://www.google.com/maps/place/Irrigation+Systems/data=!4m7!3m6!1s0x40aa84cbe8afea71:0xe1182c7f931790e3!8m2!3d42.6700035!4d23.2681798!16s%2Fg%2F1thtbmsl!19sChIJceqv6MuEqkAR45AXk38sGOE?authuser=0&hl=tr&rclk=1",
    "website_url": "https://nps.bg/",
    "rating_text": "4,4",
    "stars": null,
    "number_of_reviews": null,
    "price_level": "",
    "open_hours": "",
    "extraction_timestamp": "2025-06-07T13:39:38.980Z",
    "source_name": "google",
    "source_query": "Irrigation Equipment",
    "source_country": "BG",
    "country": "Bulgaria",
    "state": "Montana Province",
    "city": "Obshtina Yakimovo"
  },
  {
    "source_id": "ChIJyzu8eKU0q0AR2qCLWlh0Z98",
    "name": "TOPLIVO - Warehouse Montana",
    "category": "TOPLIVO - Warehouse Montana",
    "formatted_address": "4,2(61)",
    "phone_number": "+359884704979",
    "source_url": "https://www.google.com/maps/place/TOPLIVO+-+Warehouse+Montana/data=!4m7!3m6!1s0x40ab34a578bc3bcb:0xdf6774585a8ba0da!8m2!3d43.4132357!4d23.2316827!16s%2Fg%2F11g8w7w_cv!19sChIJyzu8eKU0q0AR2qCLWlh0Z98?authuser=0&hl=tr&rclk=1",
    "website_url": "http://toplivo.bg/",
    "rating_text": "4,2",
    "stars": null,
    "number_of_reviews": null,
    "price_level": "",
    "open_hours": "",
    "extraction_timestamp": "2025-06-07T13:39:38.981Z",
    "source_name": "google",
    "source_query": "Irrigation Equipment",
    "source_country": "BG",
    "country": "Bulgaria",
    "state": "Montana Province",
    "city": "Obshtina Yakimovo"
  },
  {
    "source_id": "ChIJsenBUM6tVEcR5imiPp5O6N4",
    "name": "При Ирена",
    "category": "При Ирена",
    "formatted_address": "5,0(12)",
    "phone_number": "+359896294801",
    "source_url": "https://www.google.com/maps/place/%D0%9F%D1%80%D0%B8+%D0%98%D1%80%D0%B5%D0%BD%D0%B0/data=!4m7!3m6!1s0x4754adce50c1e9b1:0xdee84e9e3ea229e6!8m2!3d43.6348374!4d23.35218!16s%2Fg%2F11t2sj_5bw!19sChIJsenBUM6tVEcR5imiPp5O6N4?authuser=0&hl=tr&rclk=1",
    "website_url": "",
    "rating_text": "5,0",
    "stars": null,
    "number_of_reviews": null,
    "price_level": "",
    "open_hours": "",
    "extraction_timestamp": "2025-06-07T13:39:38.981Z",
    "source_name": "google",
    "source_query": "Irrigation Equipment",
    "source_country": "BG",
    "country": "Bulgaria",
    "state": "Montana Province",
    "city": "Obshtina Yakimovo"
  },
  {
    "source_id": "ChIJtWTqsFgzq0ARb9XfxPNSIDE",
    "name": "Gerak EOOD",
    "category": "Gerak EOOD",
    "formatted_address": "4,3(48)",
    "phone_number": "+35996307545",
    "source_url": "https://www.google.com/maps/place/Gerak+EOOD/data=!4m7!3m6!1s0x40ab3358b0ea64b5:0x312052f3c4dfd56f!8m2!3d43.4122165!4d23.2322721!16s%2Fg%2F113fbvsvs!19sChIJtWTqsFgzq0ARb9XfxPNSIDE?authuser=0&hl=tr&rclk=1",
    "website_url": "http://gerak.bg/",
    "rating_text": "4,3",
    "stars": null,
    "number_of_reviews": null,
    "price_level": "",
    "open_hours": "",
    "extraction_timestamp": "2025-06-07T13:39:38.982Z",
    "source_name": "google",
    "source_query": "Irrigation Equipment",
    "source_country": "BG",
    "country": "Bulgaria",
    "state": "Montana Province",
    "city": "Obshtina Yakimovo"
  },
  {
    "source_id": "ChIJkZ-7sKM0q0ARyy-yrPWamIo",
    "name": "ITT Bulgaria Ltd.",
    "category": "ITT Bulgaria Ltd.",
    "formatted_address": "4,4(29)",
    "phone_number": "+359887085441",
    "source_url": "https://www.google.com/maps/place/ITT+Bulgaria+Ltd./data=!4m7!3m6!1s0x40ab34a3b0bb9f91:0x8a989af5acb22fcb!8m2!3d43.4112024!4d23.238982!16s%2Fg%2F11cntm0m_0!19sChIJkZ-7sKM0q0ARyy-yrPWamIo?authuser=0&hl=tr&rclk=1",
    "website_url": "http://itt.bg/bg/",
    "rating_text": "4,4",
    "stars": null,
    "number_of_reviews": null,
    "price_level": "",
    "open_hours": "",
    "extraction_timestamp": "2025-06-07T13:39:38.983Z",
    "source_name": "google",
    "source_query": "Irrigation Equipment",
    "source_country": "BG",
    "country": "Bulgaria",
    "state": "Montana Province",
    "city": "Obshtina Yakimovo"
  },
  {
    "source_id": "ChIJxTmqiFgzq0ARbeJzNtjWAvM",
    "name": "Plama Trading Ltd. - Hardware",
    "category": "Plama Trading Ltd. - Hardware",
    "formatted_address": "4,0(21)",
    "phone_number": "+359888887674",
    "source_url": "https://www.google.com/maps/place/Plama+Trading+Ltd.+-+Hardware/data=!4m7!3m6!1s0x40ab335888aa39c5:0xf302d6d83673e26d!8m2!3d43.4043399!4d23.2266636!16s%2Fg%2F11c70j9k09!19sChIJxTmqiFgzq0ARbeJzNtjWAvM?authuser=0&hl=tr&rclk=1",
    "website_url": "",
    "rating_text": "4,0",
    "stars": null,
    "number_of_reviews": null,
    "price_level": "",
    "open_hours": "",
    "extraction_timestamp": "2025-06-07T13:39:38.983Z",
    "source_name": "google",
    "source_query": "Irrigation Equipment",
    "source_country": "BG",
    "country": "Bulgaria",
    "state": "Montana Province",
    "city": "Obshtina Yakimovo"
  },
  {
    "source_id": "ChIJKTKEMPUpq0ARsLUikjOQ9Rk",
    "name": "Козе ферма Каряна",
    "category": "Козе ферма Каряна",
    "formatted_address": "4,8(33)",
    "phone_number": "+359898777911",
    "source_url": "https://www.google.com/maps/place/%D0%9A%D0%BE%D0%B7%D0%B5+%D1%84%D0%B5%D1%80%D0%BC%D0%B0+%D0%9A%D0%B0%D1%80%D1%8F%D0%BD%D0%B0/data=!4m7!3m6!1s0x40ab29f530843229:0x19f590339222b5b0!8m2!3d43.2228648!4d23.1862097!16s%2Fg%2F11p0043zfs!19sChIJKTKEMPUpq0ARsLUikjOQ9Rk?authuser=0&hl=tr&rclk=1",
    "website_url": "http://facebook.com/%D0%92%D1%81%D0%B8%D1%87%D0%BA%D0%BE-%D0%BE%D1%82-%D0%9A%D0%BE%D0%B7%D0%B5-%D0%BC%D0%BB%D1%8F%D0%BA%D0%BE-%D0%9A%D0%BE%D0%B7%D0%B5%D1%84%D0%B5%D1%80%D0%BC%D0%B0-%D0%9A%D0%B0%D1%80%D1%8F%D0%BD%D0%B0-125489031347578/",
    "rating_text": "4,8",
    "stars": null,
    "number_of_reviews": null,
    "price_level": "",
    "open_hours": "",
    "extraction_timestamp": "2025-06-07T13:39:38.984Z",
    "source_name": "google",
    "source_query": "Irrigation Equipment",
    "source_country": "BG",
    "country": "Bulgaria",
    "state": "Montana Province",
    "city": "Obshtina Yakimovo"
  },
  {
    "source_id": "ChIJIerRQAZXU0cRwrUBqK9UuM8",
    "name": "Моят магазин",
    "category": "Моят магазин",
    "formatted_address": "4,3(89)",
    "phone_number": "",
    "source_url": "https://www.google.com/maps/place/%D0%9C%D0%BE%D1%8F%D1%82+%D0%BC%D0%B0%D0%B3%D0%B0%D0%B7%D0%B8%D0%BD/data=!4m7!3m6!1s0x4753570640d1ea21:0xcfb854afa801b5c2!8m2!3d43.8006058!4d23.3638624!16s%2Fg%2F11dfqy_m9w!19sChIJIerRQAZXU0cRwrUBqK9UuM8?authuser=0&hl=tr&rclk=1",
    "website_url": "",
    "rating_text": "4,3",
    "stars": null,
    "number_of_reviews": null,
    "price_level": "",
    "open_hours": "",
    "extraction_timestamp": "2025-06-07T13:39:38.984Z",
    "source_name": "google",
    "source_query": "Irrigation Equipment",
    "source_country": "BG",
    "country": "Bulgaria",
    "state": "Montana Province",
    "city": "Obshtina Yakimovo"
  },
  {
    "source_id": "ChIJPyD78edXU0cR3wIxigcnTZI",
    "name": "ЖЕЛЕЗАРИЯ",
    "category": "ЖЕЛЕЗАРИЯ",
    "formatted_address": "1,0(1)",
    "phone_number": "+359878869598",
    "source_url": "https://www.google.com/maps/place/%D0%96%D0%95%D0%9B%D0%95%D0%97%D0%90%D0%A0%D0%98%D0%AF/data=!4m7!3m6!1s0x475357e7f1fb203f:0x924d27078a3102df!8m2!3d43.8015549!4d23.3548457!16s%2Fg%2F11vzxr2vj0!19sChIJPyD78edXU0cR3wIxigcnTZI?authuser=0&hl=tr&rclk=1",
    "website_url": "https://climaseverozapad.bg/",
    "rating_text": "1,0",
    "stars": null,
    "number_of_reviews": null,
    "price_level": "",
    "open_hours": "",
    "extraction_timestamp": "2025-06-07T13:39:38.984Z",
    "source_name": "google",
    "source_query": "Irrigation Equipment",
    "source_country": "BG",
    "country": "Bulgaria",
    "state": "Montana Province",
    "city": "Obshtina Yakimovo"
  },
  {
    "source_id": "ChIJew8NjnNZU0cR6rEo4UUIbQc",
    "name": "ЕТ\" ТАНЯ ИВАНОВА\"",
    "category": "ЕТ\" ТАНЯ ИВАНОВА\"",
    "formatted_address": "4,3(85)",
    "phone_number": "+359886552618",
    "source_url": "https://www.google.com/maps/place/%D0%95%D0%A2%22+%D0%A2%D0%90%D0%9D%D0%AF+%D0%98%D0%92%D0%90%D0%9D%D0%9E%D0%92%D0%90%22/data=!4m7!3m6!1s0x475359738e0d0f7b:0x76d0845e128b1ea!8m2!3d43.8214653!4d23.2352444!16s%2Fg%2F11fkptfnfd!19sChIJew8NjnNZU0cR6rEo4UUIbQc?authuser=0&hl=tr&rclk=1",
    "website_url": "",
    "rating_text": "4,3",
    "stars": null,
    "number_of_reviews": null,
    "price_level": "",
    "open_hours": "",
    "extraction_timestamp": "2025-06-07T13:39:42.888Z",
    "source_name": "google",
    "source_query": "Irrigation Equipment",
    "source_country": "BG",
    "country": "Bulgaria",
    "state": "Montana Province",
    "city": "Obshtina Lom"
  },
  {
    "source_id": "ChIJlYz6bcNZU0cRcygHc0MR56c",
    "name": "\"Orbita\" Hardware Store",
    "category": "\"Orbita\" Hardware Store",
    "formatted_address": "4,4(94)",
    "phone_number": "+359899103488",
    "source_url": "https://www.google.com/maps/place/%22Orbita%22+Hardware+Store/data=!4m7!3m6!1s0x475359c36dfa8c95:0xa7e7114373072873!8m2!3d43.8170411!4d23.2388866!16s%2Fg%2F11gj4gx3s7!19sChIJlYz6bcNZU0cRcygHc0MR56c?authuser=0&hl=tr&rclk=1",
    "website_url": "",
    "rating_text": "4,4",
    "stars": null,
    "number_of_reviews": null,
    "price_level": "",
    "open_hours": "",
    "extraction_timestamp": "2025-06-07T13:39:42.888Z",
    "source_name": "google",
    "source_query": "Irrigation Equipment",
    "source_country": "BG",
    "country": "Bulgaria",
    "state": "Montana Province",
    "city": "Obshtina Lom"
  },
  {
    "source_id": "ChIJx9SH88JYU0cR_bJs8kEu5JA",
    "name": "\"Аглая и Бан\" ЕООД гр. Лом",
    "category": "\"Аглая и Бан\" ЕООД гр. Лом",
    "formatted_address": "4,0(131)",
    "phone_number": "",
    "source_url": "https://www.google.com/maps/place/%22%D0%90%D0%B3%D0%BB%D0%B0%D1%8F+%D0%B8+%D0%91%D0%B0%D0%BD%22+%D0%95%D0%9E%D0%9E%D0%94+%D0%B3%D1%80.+%D0%9B%D0%BE%D0%BC/data=!4m7!3m6!1s0x475358c2f387d4c7:0x90e42e41f26cb2fd!8m2!3d43.8125099!4d23.2389224!16s%2Fg%2F11dfqy2lb5!19sChIJx9SH88JYU0cR_bJs8kEu5JA?authuser=0&hl=tr&rclk=1",
    "website_url": "",
    "rating_text": "4,0",
    "stars": null,
    "number_of_reviews": null,
    "price_level": "",
    "open_hours": "",
    "extraction_timestamp": "2025-06-07T13:39:42.888Z",
    "source_name": "google",
    "source_query": "Irrigation Equipment",
    "source_country": "BG",
    "country": "Bulgaria",
    "state": "Montana Province",
    "city": "Obshtina Lom"
  },
  {
    "source_id": "ChIJ-WIJDKM0q0ARpuapJwuD3OI",
    "name": "Полихрон ЕООД",
    "category": "Полихрон ЕООД",
    "formatted_address": "4,5(216)",
    "phone_number": "+35996300660",
    "source_url": "https://www.google.com/maps/place/%D0%9F%D0%BE%D0%BB%D0%B8%D1%85%D1%80%D0%BE%D0%BD+%D0%95%D0%9E%D0%9E%D0%94/data=!4m7!3m6!1s0x40ab34a30c0962f9:0xe2dc830b27a9e6a6!8m2!3d43.4118521!4d23.2389808!16s%2Fg%2F11c38dzs5q!19sChIJ-WIJDKM0q0ARpuapJwuD3OI?authuser=0&hl=tr&rclk=1",
    "website_url": "",
    "rating_text": "4,5",
    "stars": null,
    "number_of_reviews": null,
    "price_level": "",
    "open_hours": "",
    "extraction_timestamp": "2025-06-07T13:39:42.888Z",
    "source_name": "google",
    "source_query": "Irrigation Equipment",
    "source_country": "BG",
    "country": "Bulgaria",
    "state": "Montana Province",
    "city": "Obshtina Lom"
  },
  {
    "source_id": "ChIJhRJ7F_tZU0cRSK2Ul8Hm1_c",
    "name": "Строймаркет Орбита",
    "category": "Строймаркет Орбита",
    "formatted_address": "4,7(6)",
    "phone_number": "+359899103688",
    "source_url": "https://www.google.com/maps/place/%D0%A1%D1%82%D1%80%D0%BE%D0%B9%D0%BC%D0%B0%D1%80%D0%BA%D0%B5%D1%82+%D0%9E%D1%80%D0%B1%D0%B8%D1%82%D0%B0/data=!4m7!3m6!1s0x475359fb177b1285:0xf7d7e6c19794ad48!8m2!3d43.8220325!4d23.2410603!16s%2Fg%2F11s7fs4_b_!19sChIJhRJ7F_tZU0cRSK2Ul8Hm1_c?authuser=0&hl=tr&rclk=1",
    "website_url": "",
    "rating_text": "4,7",
    "stars": null,
    "number_of_reviews": null,
    "price_level": "",
    "open_hours": "",
    "extraction_timestamp": "2025-06-07T13:39:42.889Z",
    "source_name": "google",
    "source_query": "Irrigation Equipment",
    "source_country": "BG",
    "country": "Bulgaria",
    "state": "Montana Province",
    "city": "Obshtina Lom"
  },
  {
    "source_id": "ChIJVbugZmc1q0ARSq9MmU6BDts",
    "name": "INGCO Bulgaria",
    "category": "INGCO Bulgaria",
    "formatted_address": "4,8(28)",
    "phone_number": "+359887399477",
    "source_url": "https://www.google.com/maps/place/INGCO+Bulgaria/data=!4m7!3m6!1s0x40ab356766a0bb55:0xdb0e814e994caf4a!8m2!3d43.413485!4d23.2277359!16s%2Fg%2F11j024g4c0!19sChIJVbugZmc1q0ARSq9MmU6BDts?authuser=0&hl=tr&rclk=1",
    "website_url": "",
    "rating_text": "4,8",
    "stars": null,
    "number_of_reviews": null,
    "price_level": "",
    "open_hours": "",
    "extraction_timestamp": "2025-06-07T13:39:42.889Z",
    "source_name": "google",
    "source_query": "Irrigation Equipment",
    "source_country": "BG",
    "country": "Bulgaria",
    "state": "Montana Province",
    "city": "Obshtina Lom"
  },
  {
    "source_id": "ChIJN1vn16ZZU0cRJIQcc_AnXvM",
    "name": "Червения магазин на ТПК Георгица",
    "category": "Червения магазин на ТПК Георгица",
    "formatted_address": "4,4(49)",
    "phone_number": "",
    "source_url": "https://www.google.com/maps/place/%D0%A7%D0%B5%D1%80%D0%B2%D0%B5%D0%BD%D0%B8%D1%8F+%D0%BC%D0%B0%D0%B3%D0%B0%D0%B7%D0%B8%D0%BD+%D0%BD%D0%B0+%D0%A2%D0%9F%D0%9A+%D0%93%D0%B5%D0%BE%D1%80%D0%B3%D0%B8%D1%86%D0%B0/data=!4m7!3m6!1s0x475359a6d7e75b37:0xf35e27f0731c8424!8m2!3d43.8194084!4d23.2394504!16s%2Fg%2F11smnz53gk!19sChIJN1vn16ZZU0cRJIQcc_AnXvM?authuser=0&hl=tr&rclk=1",
    "website_url": "",
    "rating_text": "4,4",
    "stars": null,
    "number_of_reviews": null,
    "price_level": "",
    "open_hours": "",
    "extraction_timestamp": "2025-06-07T13:39:42.889Z",
    "source_name": "google",
    "source_query": "Irrigation Equipment",
    "source_country": "BG",
    "country": "Bulgaria",
    "state": "Montana Province",
    "city": "Obshtina Lom"
  },
  {
    "source_id": "ChIJa96b3cJYU0cRQ9O6_TnHdTM",
    "name": "My Shop",
    "category": "My Shop",
    "formatted_address": "4,1(58)",
    "phone_number": "",
    "source_url": "https://www.google.com/maps/place/My+Shop/data=!4m7!3m6!1s0x475358c2dd9bde6b:0x3375c739fdbad343!8m2!3d43.8144054!4d23.238881!16s%2Fg%2F11dy1ky_4q!19sChIJa96b3cJYU0cRQ9O6_TnHdTM?authuser=0&hl=tr&rclk=1",
    "website_url": "",
    "rating_text": "4,1",
    "stars": null,
    "number_of_reviews": null,
    "price_level": "",
    "open_hours": "",
    "extraction_timestamp": "2025-06-07T13:39:42.889Z",
    "source_name": "google",
    "source_query": "Irrigation Equipment",
    "source_country": "BG",
    "country": "Bulgaria",
    "state": "Montana Province",
    "city": "Obshtina Lom"
  },
  {
    "source_id": "ChIJs0kzGHxZU0cR-bUwIMf5dPo",
    "name": "Dilema",
    "category": "Dilema",
    "formatted_address": "5,0(6)",
    "phone_number": "",
    "source_url": "https://www.google.com/maps/place/Dilema/data=!4m7!3m6!1s0x4753597c183349b3:0xfa74f9c72030b5f9!8m2!3d43.8297917!4d23.2343794!16s%2Fg%2F11q97d32q_!19sChIJs0kzGHxZU0cR-bUwIMf5dPo?authuser=0&hl=tr&rclk=1",
    "website_url": "",
    "rating_text": "5,0",
    "stars": null,
    "number_of_reviews": null,
    "price_level": "",
    "open_hours": "",
    "extraction_timestamp": "2025-06-07T13:39:42.889Z",
    "source_name": "google",
    "source_query": "Irrigation Equipment",
    "source_country": "BG",
    "country": "Bulgaria",
    "state": "Montana Province",
    "city": "Obshtina Lom"
  },
  {
    "source_id": "ChIJceqv6MuEqkAR45AXk38sGOE",
    "name": "Irrigation Systems",
    "category": "Irrigation Systems",
    "formatted_address": "4,4(10)",
    "phone_number": "+35928085001",
    "source_url": "https://www.google.com/maps/place/Irrigation+Systems/data=!4m7!3m6!1s0x40aa84cbe8afea71:0xe1182c7f931790e3!8m2!3d42.6700035!4d23.2681798!16s%2Fg%2F1thtbmsl!19sChIJceqv6MuEqkAR45AXk38sGOE?authuser=0&hl=tr&rclk=1",
    "website_url": "",
    "rating_text": "4,4",
    "stars": null,
    "number_of_reviews": null,
    "price_level": "",
    "open_hours": "",
    "extraction_timestamp": "2025-06-07T13:39:42.890Z",
    "source_name": "google",
    "source_query": "Irrigation Equipment",
    "source_country": "BG",
    "country": "Bulgaria",
    "state": "Montana Province",
    "city": "Obshtina Lom"
  },
  {
    "source_id": "ChIJeT_9MwBZU0cRl256zPJFFC8",
    "name": "Жизел Лом",
    "category": "Жизел Лом",
    "formatted_address": "5,0(1)",
    "phone_number": "",
    "source_url": "https://www.google.com/maps/place/%D0%96%D0%B8%D0%B7%D0%B5%D0%BB+%D0%9B%D0%BE%D0%BC/data=!4m7!3m6!1s0x4753590033fd3f79:0x2f1445f2cc7a6e97!8m2!3d43.8182723!4d23.2413112!16s%2Fg%2F11ycfqv81f!19sChIJeT_9MwBZU0cRl256zPJFFC8?authuser=0&hl=tr&rclk=1",
    "website_url": "",
    "rating_text": "5,0",
    "stars": null,
    "number_of_reviews": null,
    "price_level": "",
    "open_hours": "",
    "extraction_timestamp": "2025-06-07T13:39:42.890Z",
    "source_name": "google",
    "source_query": "Irrigation Equipment",
    "source_country": "BG",
    "country": "Bulgaria",
    "state": "Montana Province",
    "city": "Obshtina Lom"
  },
  {
    "source_id": "ChIJY1nNHDdZU0cRy2FkmQE0PLw",
    "name": "Brezata",
    "category": "Brezata",
    "formatted_address": "5,0(2)",
    "phone_number": "",
    "source_url": "https://www.google.com/maps/place/Brezata/data=!4m7!3m6!1s0x475359371ccd5963:0xbc3c3401996461cb!8m2!3d43.8105361!4d23.2360653!16s%2Fg%2F11fd51j7r8!19sChIJY1nNHDdZU0cRy2FkmQE0PLw?authuser=0&hl=tr&rclk=1",
    "website_url": "",
    "rating_text": "5,0",
    "stars": null,
    "number_of_reviews": null,
    "price_level": "",
    "open_hours": "",
    "extraction_timestamp": "2025-06-07T13:39:42.890Z",
    "source_name": "google",
    "source_query": "Irrigation Equipment",
    "source_country": "BG",
    "country": "Bulgaria",
    "state": "Montana Province",
    "city": "Obshtina Lom"
  },
  {
    "source_id": "ChIJifPBoXGGqkARA5U1ZnLt0t4",
    "name": "Ямато ЕООД Поливни системи",
    "category": "Ямато ЕООД Поливни системи",
    "formatted_address": "5,0(4)",
    "phone_number": "+359899535964",
    "source_url": "https://www.google.com/maps/place/%D0%AF%D0%BC%D0%B0%D1%82%D0%BE+%D0%95%D0%9E%D0%9E%D0%94+%D0%9F%D0%BE%D0%BB%D0%B8%D0%B2%D0%BD%D0%B8+%D1%81%D0%B8%D1%81%D1%82%D0%B5%D0%BC%D0%B8/data=!4m7!3m6!1s0x40aa8671a1c1f389:0xded2ed7266359503!8m2!3d42.6714845!4d23.3871234!16s%2Fg%2F11f1s58kx5!19sChIJifPBoXGGqkARA5U1ZnLt0t4?authuser=0&hl=tr&rclk=1",
    "website_url": "",
    "rating_text": "5,0",
    "stars": null,
    "number_of_reviews": null,
    "price_level": "",
    "open_hours": "",
    "extraction_timestamp": "2025-06-07T13:39:42.890Z",
    "source_name": "google",
    "source_query": "Irrigation Equipment",
    "source_country": "BG",
    "country": "Bulgaria",
    "state": "Montana Province",
    "city": "Obshtina Lom"
  },
  {
    "source_id": "ChIJxTmqiFgzq0ARbeJzNtjWAvM",
    "name": "Plama Trading Ltd. - Hardware",
    "category": "Plama Trading Ltd. - Hardware",
    "formatted_address": "4,0(21)",
    "phone_number": "+359888887674",
    "source_url": "https://www.google.com/maps/place/Plama+Trading+Ltd.+-+Hardware/data=!4m7!3m6!1s0x40ab335888aa39c5:0xf302d6d83673e26d!8m2!3d43.4043399!4d23.2266636!16s%2Fg%2F11c70j9k09!19sChIJxTmqiFgzq0ARbeJzNtjWAvM?authuser=0&hl=tr&rclk=1",
    "website_url": "",
    "rating_text": "4,0",
    "stars": null,
    "number_of_reviews": null,
    "price_level": "",
    "open_hours": "",
    "extraction_timestamp": "2025-06-07T13:39:42.890Z",
    "source_name": "google",
    "source_query": "Irrigation Equipment",
    "source_country": "BG",
    "country": "Bulgaria",
    "state": "Montana Province",
    "city": "Obshtina Lom"
  },
  {
    "source_id": "ChIJg4gG19hYU0cRdb_tYbuXLFE",
    "name": "Сладкарска къща \"Алф\"",
    "category": "Сладкарска къща \"Алф\"",
    "formatted_address": "4,4(157)",
    "phone_number": "+359896085818",
    "source_url": "https://www.google.com/maps/place/%D0%A1%D0%BB%D0%B0%D0%B4%D0%BA%D0%B0%D1%80%D1%81%D0%BA%D0%B0+%D0%BA%D1%8A%D1%89%D0%B0+%22%D0%90%D0%BB%D1%84%22/data=!4m7!3m6!1s0x475358d8d7068883:0x512c97bb61edbf75!8m2!3d43.8219266!4d23.2408311!16s%2Fg%2F11fy4ns8gt!19sChIJg4gG19hYU0cRdb_tYbuXLFE?authuser=0&hl=tr&rclk=1",
    "website_url": "",
    "rating_text": "4,4",
    "stars": null,
    "number_of_reviews": null,
    "price_level": "",
    "open_hours": "",
    "extraction_timestamp": "2025-06-07T13:39:42.891Z",
    "source_name": "google",
    "source_query": "Irrigation Equipment",
    "source_country": "BG",
    "country": "Bulgaria",
    "state": "Montana Province",
    "city": "Obshtina Lom"
  },
  {
    "source_id": "ChIJW_0-ylPLVEcRQYl2Tk9T318",
    "name": "Ionimont",
    "category": "Ionimont",
    "formatted_address": "4,4(140)",
    "phone_number": "+35996307095",
    "source_url": "https://www.google.com/maps/place/Ionimont/data=!4m7!3m6!1s0x4754cb53ca3efd5b:0x5fdf534f4e768941!8m2!3d43.4170995!4d23.2141449!16s%2Fg%2F11bwp1gmr1!19sChIJW_0-ylPLVEcRQYl2Tk9T318?authuser=0&hl=tr&rclk=1",
    "website_url": "",
    "rating_text": "4,4",
    "stars": null,
    "number_of_reviews": null,
    "price_level": "",
    "open_hours": "",
    "extraction_timestamp": "2025-06-07T13:39:42.891Z",
    "source_name": "google",
    "source_query": "Irrigation Equipment",
    "source_country": "BG",
    "country": "Bulgaria",
    "state": "Montana Province",
    "city": "Obshtina Lom"
  },
  {
    "source_id": "ChIJyzu8eKU0q0AR2qCLWlh0Z98",
    "name": "TOPLIVO - Warehouse Montana",
    "category": "TOPLIVO - Warehouse Montana",
    "formatted_address": "4,2(61)",
    "phone_number": "+359884704979",
    "source_url": "https://www.google.com/maps/place/TOPLIVO+-+Warehouse+Montana/data=!4m7!3m6!1s0x40ab34a578bc3bcb:0xdf6774585a8ba0da!8m2!3d43.4132357!4d23.2316827!16s%2Fg%2F11g8w7w_cv!19sChIJyzu8eKU0q0AR2qCLWlh0Z98?authuser=0&hl=tr&rclk=1",
    "website_url": "",
    "rating_text": "4,2",
    "stars": null,
    "number_of_reviews": null,
    "price_level": "",
    "open_hours": "",
    "extraction_timestamp": "2025-06-07T13:39:42.891Z",
    "source_name": "google",
    "source_query": "Irrigation Equipment",
    "source_country": "BG",
    "country": "Bulgaria",
    "state": "Montana Province",
    "city": "Obshtina Lom"
  },
  {
    "source_id": "ChIJR6ROegJZU0cRHWzQrUJv6r8",
    "name": "Магазин Дочо",
    "category": "Магазин Дочо",
    "formatted_address": "5,0(1)",
    "phone_number": "",
    "source_url": "https://www.google.com/maps/place/%D0%9C%D0%B0%D0%B3%D0%B0%D0%B7%D0%B8%D0%BD+%D0%94%D0%BE%D1%87%D0%BE/data=!4m7!3m6!1s0x475359027a4ea447:0xbfea6f42add06c1d!8m2!3d43.8067554!4d23.2586247!16s%2Fg%2F11rvfyhgp7!19sChIJR6ROegJZU0cRHWzQrUJv6r8?authuser=0&hl=tr&rclk=1",
    "website_url": "",
    "rating_text": "5,0",
    "stars": null,
    "number_of_reviews": null,
    "price_level": "",
    "open_hours": "",
    "extraction_timestamp": "2025-06-07T13:39:42.892Z",
    "source_name": "google",
    "source_query": "Irrigation Equipment",
    "source_country": "BG",
    "country": "Bulgaria",
    "state": "Montana Province",
    "city": "Obshtina Lom"
  },
  {
    "source_id": "ChIJ94n8nPknq0AR-F7qYAJ0fzU",
    "name": "MAXBAU 01 LTD",
    "category": "MAXBAU 01 LTD",
    "formatted_address": "4,8(18)",
    "phone_number": "+359876790868",
    "source_url": "https://www.google.com/maps/place/MAXBAU+01+LTD/data=!4m7!3m6!1s0x40ab27f99cfc89f7:0x357f740260ea5ef8!8m2!3d43.2058093!4d23.2891441!16s%2Fg%2F11n_jcqxsx!19sChIJ94n8nPknq0AR-F7qYAJ0fzU?authuser=0&hl=tr&rclk=1",
    "website_url": "",
    "rating_text": "4,8",
    "stars": null,
    "number_of_reviews": null,
    "price_level": "",
    "open_hours": "",
    "extraction_timestamp": "2025-06-07T13:39:42.892Z",
    "source_name": "google",
    "source_query": "Irrigation Equipment",
    "source_country": "BG",
    "country": "Bulgaria",
    "state": "Montana Province",
    "city": "Obshtina Lom"
  },
  {
    "source_id": "ChIJQWfMDLotVEcRNzNNmiW_am4",
    "name": "AGROMEHATRONIKA HYDRO DOO",
    "category": "AGROMEHATRONIKA HYDRO DOO",
    "formatted_address": "4,5(33)",
    "phone_number": "+38118882963",
    "source_url": "https://www.google.com/maps/place/AGROMEHATRONIKA+HYDRO+DOO/data=!4m7!3m6!1s0x47542dba0ccc6741:0x6e6abf259a4d3337!8m2!3d43.5479293!4d21.693304!16s%2Fg%2F11gfhb04ww!19sChIJQWfMDLotVEcRNzNNmiW_am4?authuser=0&hl=tr&rclk=1",
    "website_url": "",
    "rating_text": "4,5",
    "stars": null,
    "number_of_reviews": null,
    "price_level": "",
    "open_hours": "",
    "extraction_timestamp": "2025-06-07T13:39:42.892Z",
    "source_name": "google",
    "source_query": "Irrigation Equipment",
    "source_country": "BG",
    "country": "Bulgaria",
    "state": "Montana Province",
    "city": "Obshtina Lom"
  },
  {
    "source_id": "ChIJ_TgoPu8nq0ARiZRNphAXrTY",
    "name": "Супермаркет Богат-беден",
    "category": "Супермаркет Богат-беден",
    "formatted_address": "4,1(134)",
    "phone_number": "",
    "source_url": "https://www.google.com/maps/place/%D0%A1%D1%83%D0%BF%D0%B5%D1%80%D0%BC%D0%B0%D1%80%D0%BA%D0%B5%D1%82+%D0%91%D0%BE%D0%B3%D0%B0%D1%82-%D0%B1%D0%B5%D0%B4%D0%B5%D0%BD/data=!4m7!3m6!1s0x40ab27ef3e2838fd:0x36ad1710a64d9489!8m2!3d43.1976515!4d23.2896142!16s%2Fg%2F11t6fzyfq3!19sChIJ_TgoPu8nq0ARiZRNphAXrTY?authuser=0&hl=tr&rclk=1",
    "website_url": "",
    "rating_text": "4,1",
    "stars": null,
    "number_of_reviews": null,
    "price_level": "",
    "open_hours": "",
    "extraction_timestamp": "2025-06-07T13:39:42.892Z",
    "source_name": "google",
    "source_query": "Irrigation Equipment",
    "source_country": "BG",
    "country": "Bulgaria",
    "state": "Montana Province",
    "city": "Obshtina Lom"
  },
  {
    "source_id": "ChIJQRUHz4k1q0ARVpCyR2jAGZA",
    "name": "Строймаркет Monix",
    "category": "Строймаркет Monix",
    "formatted_address": "4,2(28)",
    "phone_number": "+359876363644",
    "source_url": "https://www.google.com/maps/place/%D0%A1%D1%82%D1%80%D0%BE%D0%B9%D0%BC%D0%B0%D1%80%D0%BA%D0%B5%D1%82+Monix/data=!4m7!3m6!1s0x40ab3589cf071541:0x9019c06847b29056!8m2!3d43.4203541!4d23.2268428!16s%2Fg%2F11t_kvn5lp!19sChIJQRUHz4k1q0ARVpCyR2jAGZA?authuser=0&hl=tr&rclk=1",
    "website_url": "",
    "rating_text": "4,2",
    "stars": null,
    "number_of_reviews": null,
    "price_level": "",
    "open_hours": "",
    "extraction_timestamp": "2025-06-07T13:39:42.893Z",
    "source_name": "google",
    "source_query": "Irrigation Equipment",
    "source_country": "BG",
    "country": "Bulgaria",
    "state": "Montana Province",
    "city": "Obshtina Lom"
  },
  {
    "source_id": "ChIJHcqIrrpnU0cRUQkDrCzUSj4",
    "name": "Pescar-Amator",
    "category": "Pescar-Amator",
    "formatted_address": "4,6(13)",
    "phone_number": "+40730069121",
    "source_url": "https://www.google.com/maps/place/Pescar-Amator/data=!4m7!3m6!1s0x475367baae88ca1d:0x3e4ad42cac030951!8m2!3d43.9164386!4d23.07698!16s%2Fg%2F11fwvrssxq!19sChIJHcqIrrpnU0cRUQkDrCzUSj4?authuser=0&hl=tr&rclk=1",
    "website_url": "",
    "rating_text": "4,6",
    "stars": null,
    "number_of_reviews": null,
    "price_level": "",
    "open_hours": "",
    "extraction_timestamp": "2025-06-07T13:39:42.893Z",
    "source_name": "google",
    "source_query": "Irrigation Equipment",
    "source_country": "BG",
    "country": "Bulgaria",
    "state": "Montana Province",
    "city": "Obshtina Lom"
  },
  {
    "source_id": "ChIJc2QrQpORqkARBWYG5Puxcr8",
    "name": "NAC-3 Services with Aerial, Bobcat, Mini Excavators, Dumpers and more.",
    "category": "NAC-3 Services with Aerial, Bobcat, Mini Excavators, Dumpers and more.",
    "formatted_address": "NAC-3 Services with Aerial, Bobcat, Mini Excavators, Dumpers and more.",
    "phone_number": "+359895577667",
    "source_url": "https://www.google.com/maps/place/NAC-3+Services+with+Aerial,+Bobcat,+Mini+Excavators,+Dumpers+and+more./data=!4m7!3m6!1s0x40aa9193422b6473:0xbf72b1fbe4066605!8m2!3d42.7719272!4d23.3198097!16s%2Fg%2F11f3ssn42p!19sChIJc2QrQpORqkARBWYG5Puxcr8?authuser=0&hl=tr&rclk=1",
    "website_url": "",
    "rating_text": "4,9",
    "stars": null,
    "number_of_reviews": null,
    "price_level": "",
    "open_hours": "",
    "extraction_timestamp": "2025-06-07T13:39:42.893Z",
    "source_name": "google",
    "source_query": "Irrigation Equipment",
    "source_country": "BG",
    "country": "Bulgaria",
    "state": "Montana Province",
    "city": "Obshtina Lom"
  },
  {
    "source_id": "ChIJH9KtQ_jHqhQRjm3Z1cHP9lM",
    "name": "Декоративен разсадник и градински център - Терралес ЕООД",
    "category": "Декоративен разсадник и градински център - Терралес ЕООД",
    "formatted_address": "4,2(33)",
    "phone_number": "+359898505908",
    "source_url": "https://www.google.com/maps/place/%D0%94%D0%B5%D0%BA%D0%BE%D1%80%D0%B0%D1%82%D0%B8%D0%B2%D0%B5%D0%BD+%D1%80%D0%B0%D0%B7%D1%81%D0%B0%D0%B4%D0%BD%D0%B8%D0%BA+%D0%B8+%D0%B3%D1%80%D0%B0%D0%B4%D0%B8%D0%BD%D1%81%D0%BA%D0%B8+%D1%86%D0%B5%D0%BD%D1%82%D1%8A%D1%80+-+%D0%A2%D0%B5%D1%80%D1%80%D0%B0%D0%BB%D0%B5%D1%81+%D0%95%D0%9E%D0%9E%D0%94/data=!4m7!3m6!1s0x14aac7f843add21f:0x53f6cfc1d5d96d8e!8m2!3d42.472452!4d23.002895!16s%2Fg%2F11c3s93stq!19sChIJH9KtQ_jHqhQRjm3Z1cHP9lM?authuser=0&hl=tr&rclk=1",
    "website_url": "",
    "rating_text": "4,2",
    "stars": null,
    "number_of_reviews": null,
    "price_level": "",
    "open_hours": "",
    "extraction_timestamp": "2025-06-07T13:39:42.894Z",
    "source_name": "google",
    "source_query": "Irrigation Equipment",
    "source_country": "BG",
    "country": "Bulgaria",
    "state": "Montana Province",
    "city": "Obshtina Lom"
  },
  {
    "source_id": "ChIJrU8V8j0nq0ARdpyi-ZQqTz8",
    "name": "Provance Craft Cakes & Restaurant",
    "category": "Provance Craft Cakes & Restaurant",
    "formatted_address": "4,8(93) · BGN 10–20",
    "phone_number": "+359876917186",
    "source_url": "https://www.google.com/maps/place/Provance+Craft+Cakes+%26+Restaurant/data=!4m7!3m6!1s0x40ab273df2154fad:0x3f4f2a94f9a29c76!8m2!3d43.1865839!4d23.2816752!16s%2Fg%2F11k2z9vwry!19sChIJrU8V8j0nq0ARdpyi-ZQqTz8?authuser=0&hl=tr&rclk=1",
    "website_url": "",
    "rating_text": "4,8",
    "stars": null,
    "number_of_reviews": null,
    "price_level": "",
    "open_hours": "",
    "extraction_timestamp": "2025-06-07T13:39:42.894Z",
    "source_name": "google",
    "source_query": "Irrigation Equipment",
    "source_country": "BG",
    "country": "Bulgaria",
    "state": "Montana Province",
    "city": "Obshtina Lom"
  },
  {
    "source_id": "ChIJ1xUYryudqkARaiUuMyTi9BE",
    "name": "Авариен Ремонт Строй ЕООД",
    "category": "Авариен Ремонт Строй ЕООД",
    "formatted_address": "5,0(2)",
    "phone_number": "+359889068554",
    "source_url": "https://www.google.com/maps/place/%D0%90%D0%B2%D0%B0%D1%80%D0%B8%D0%B5%D0%BD+%D0%A0%D0%B5%D0%BC%D0%BE%D0%BD%D1%82+%D0%A1%D1%82%D1%80%D0%BE%D0%B9+%D0%95%D0%9E%D0%9E%D0%94/data=!4m7!3m6!1s0x40aa9d2baf1815d7:0x11f4e224332e256a!8m2!3d42.6291759!4d23.2015194!16s%2Fg%2F11pc5w57bj!19sChIJ1xUYryudqkARaiUuMyTi9BE?authuser=0&hl=tr&rclk=1",
    "website_url": "",
    "rating_text": "5,0",
    "stars": null,
    "number_of_reviews": null,
    "price_level": "",
    "open_hours": "",
    "extraction_timestamp": "2025-06-07T13:39:42.894Z",
    "source_name": "google",
    "source_query": "Irrigation Equipment",
    "source_country": "BG",
    "country": "Bulgaria",
    "state": "Montana Province",
    "city": "Obshtina Lom"
  },
  {
    "source_id": "ChIJ-91ZJFQ5q0ARHBjpRxnlaZs",
    "name": "Склад-Магазин строителни материали \"ПЕТРОВИ ИНТЕРНЕШЪНЪЛ\"",
    "category": "Склад-Магазин строителни материали \"ПЕТРОВИ ИНТЕРНЕШЪНЪЛ\"",
    "formatted_address": "5,0(1)",
    "phone_number": "+359886609252",
    "source_url": "https://www.google.com/maps/place/%D0%A1%D0%BA%D0%BB%D0%B0%D0%B4-%D0%9C%D0%B0%D0%B3%D0%B0%D0%B7%D0%B8%D0%BD+%D1%81%D1%82%D1%80%D0%BE%D0%B8%D1%82%D0%B5%D0%BB%D0%BD%D0%B8+%D0%BC%D0%B0%D1%82%D0%B5%D1%80%D0%B8%D0%B0%D0%BB%D0%B8+%22%D0%9F%D0%95%D0%A2%D0%A0%D0%9E%D0%92%D0%98+%D0%98%D0%9D%D0%A2%D0%95%D0%A0%D0%9D%D0%95%D0%A8%D0%AA%D0%9D%D0%AA%D0%9B%22/data=!4m7!3m6!1s0x40ab39542459ddfb:0x9b69e51947e9181c!8m2!3d43.3680638!4d23.4748536!16s%2Fg%2F11vbp4p8fm!19sChIJ-91ZJFQ5q0ARHBjpRxnlaZs?authuser=0&hl=tr&rclk=1",
    "website_url": "",
    "rating_text": "5,0",
    "stars": null,
    "number_of_reviews": null,
    "price_level": "",
    "open_hours": "",
    "extraction_timestamp": "2025-06-07T13:39:42.895Z",
    "source_name": "google",
    "source_query": "Irrigation Equipment",
    "source_country": "BG",
    "country": "Bulgaria",
    "state": "Montana Province",
    "city": "Obshtina Lom"
  },
  {
    "source_id": "ChIJxabQBIArq0AR0ycgYp2wtMc",
    "name": "Senzo Pastelería",
    "category": "Senzo Pastelería",
    "formatted_address": "4,9(66)",
    "phone_number": "+359877674224",
    "source_url": "https://www.google.com/maps/place/Senzo+Pasteler%C3%ADa/data=!4m7!3m6!1s0x40ab2b8004d0a6c5:0xc7b4b09d622027d3!8m2!3d43.236705!4d23.1266787!16s%2Fg%2F11lvpnctkr!19sChIJxabQBIArq0AR0ycgYp2wtMc?authuser=0&hl=tr&rclk=1",
    "website_url": "",
    "rating_text": "4,9",
    "stars": null,
    "number_of_reviews": null,
    "price_level": "",
    "open_hours": "",
    "extraction_timestamp": "2025-06-07T13:39:42.895Z",
    "source_name": "google",
    "source_query": "Irrigation Equipment",
    "source_country": "BG",
    "country": "Bulgaria",
    "state": "Montana Province",
    "city": "Obshtina Lom"
  }
]
