[
  {
    "source_id": "ChIJkV1ssPdDrkARO720aO6k47U",
    "name": "KM GROUP - IRRIGATION SYSTEMS",
    "category": "KM GROUP - IRRIGATION SYSTEMS",
    "formatted_address": "4,8(8)",
    "phone_number": "+35981789701",
    "source_url": "https://www.google.com/maps/place/KM+GROUP+-+IRRIGATION+SYSTEMS/data=!4m7!3m6!1s0x40ae43f7b06c5d91:0xb5e3a4ee68b4bd3b!8m2!3d43.943756!4d26.2045157!16s%2Fg%2F1v2jbd_j!19sChIJkV1ssPdDrkARO720aO6k47U?authuser=0&hl=tr&rclk=1",
    "website_url": "",
    "rating_text": "4,8",
    "stars": null,
    "number_of_reviews": null,
    "price_level": "",
    "open_hours": "",
    "extraction_timestamp": "2025-06-07T13:50:19.338Z",
    "source_name": "google",
    "source_query": "Irrigation Equipment",
    "source_country": "BG",
    "country": "Bulgaria",
    "state": "Ruse Province",
    "city": "Obshtina Slivo Pole"
  },
  {
    "source_id": "ChIJly0pKrdgrkARoJZC1lgKWoY",
    "name": "ПОЛИВНИ СИСТЕМИ ЕООД",
    "category": "ПОЛИВНИ СИСТЕМИ ЕООД",
    "formatted_address": "4,7(11)",
    "phone_number": "+359887424020",
    "source_url": "https://www.google.com/maps/place/%D0%9F%D0%9E%D0%9B%D0%98%D0%92%D0%9D%D0%98+%D0%A1%D0%98%D0%A1%D0%A2%D0%95%D0%9C%D0%98+%D0%95%D0%9E%D0%9E%D0%94/data=!4m7!3m6!1s0x40ae60b72a292d97:0x865a0a58d64296a0!8m2!3d43.8355713!4d25.9656554!16s%2Fg%2F1hc2rnssk!19sChIJly0pKrdgrkARoJZC1lgKWoY?authuser=0&hl=tr&rclk=1",
    "website_url": "",
    "rating_text": "4,7",
    "stars": null,
    "number_of_reviews": null,
    "price_level": "",
    "open_hours": "",
    "extraction_timestamp": "2025-06-07T13:50:19.338Z",
    "source_name": "google",
    "source_query": "Irrigation Equipment",
    "source_country": "BG",
    "country": "Bulgaria",
    "state": "Ruse Province",
    "city": "Obshtina Slivo Pole"
  },
  {
    "source_id": "ChIJD1ndUABDrkAR_fgDd0hDELY",
    "name": "AQUA&CLEAN",
    "category": "AQUA&CLEAN",
    "formatted_address": "5,0(8)",
    "phone_number": "+359898924901",
    "source_url": "https://www.google.com/maps/place/AQUA%26CLEAN/data=!4m7!3m6!1s0x40ae430050dd590f:0xb61043487703f8fd!8m2!3d43.9423849!4d26.2058362!16s%2Fg%2F11wvbdhyv_!19sChIJD1ndUABDrkAR_fgDd0hDELY?authuser=0&hl=tr&rclk=1",
    "website_url": "",
    "rating_text": "5,0",
    "stars": null,
    "number_of_reviews": null,
    "price_level": "",
    "open_hours": "",
    "extraction_timestamp": "2025-06-07T13:50:19.339Z",
    "source_name": "google",
    "source_query": "Irrigation Equipment",
    "source_country": "BG",
    "country": "Bulgaria",
    "state": "Ruse Province",
    "city": "Obshtina Slivo Pole"
  },
  {
    "source_id": "ChIJJbg5rIVDrkAR6kJK7k9TwGI",
    "name": "Профимакс ООД",
    "category": "Профимакс ООД",
    "formatted_address": "5,0(20)",
    "phone_number": "+359894368695",
    "source_url": "https://www.google.com/maps/place/%D0%9F%D1%80%D0%BE%D1%84%D0%B8%D0%BC%D0%B0%D0%BA%D1%81+%D0%9E%D0%9E%D0%94/data=!4m7!3m6!1s0x40ae4385ac39b825:0x62c0534fee4a42ea!8m2!3d43.9443496!4d26.2059307!16s%2Fg%2F11t9dnxd5k!19sChIJJbg5rIVDrkAR6kJK7k9TwGI?authuser=0&hl=tr&rclk=1",
    "website_url": "",
    "rating_text": "5,0",
    "stars": null,
    "number_of_reviews": null,
    "price_level": "",
    "open_hours": "",
    "extraction_timestamp": "2025-06-07T13:50:19.339Z",
    "source_name": "google",
    "source_query": "Irrigation Equipment",
    "source_country": "BG",
    "country": "Bulgaria",
    "state": "Ruse Province",
    "city": "Obshtina Slivo Pole"
  },
  {
    "source_id": "ChIJfe2p_7ZDrkARf3KbVgVSnDQ",
    "name": "Строителна Борса ДАНЧЕВ КОМЕРС ООД",
    "category": "Строителна Борса ДАНЧЕВ КОМЕРС ООД",
    "formatted_address": "4,6(116)",
    "phone_number": "+359889824556",
    "source_url": "https://www.google.com/maps/place/%D0%A1%D1%82%D1%80%D0%BE%D0%B8%D1%82%D0%B5%D0%BB%D0%BD%D0%B0+%D0%91%D0%BE%D1%80%D1%81%D0%B0+%D0%94%D0%90%D0%9D%D0%A7%D0%95%D0%92+%D0%9A%D0%9E%D0%9C%D0%95%D0%A0%D0%A1+%D0%9E%D0%9E%D0%94/data=!4m7!3m6!1s0x40ae43b6ffa9ed7d:0x349c5205569b727f!8m2!3d43.9394841!4d26.1954151!16s%2Fg%2F11gjhp1n1h!19sChIJfe2p_7ZDrkARf3KbVgVSnDQ?authuser=0&hl=tr&rclk=1",
    "website_url": "",
    "rating_text": "4,6",
    "stars": null,
    "number_of_reviews": null,
    "price_level": "",
    "open_hours": "",
    "extraction_timestamp": "2025-06-07T13:50:19.340Z",
    "source_name": "google",
    "source_query": "Irrigation Equipment",
    "source_country": "BG",
    "country": "Bulgaria",
    "state": "Ruse Province",
    "city": "Obshtina Slivo Pole"
  },
  {
    "source_id": "ChIJi0XAba9HrkARC0jOHJuDjlM",
    "name": "Магазин За Месо",
    "category": "Магазин За Месо",
    "formatted_address": "4,3(93)",
    "phone_number": "+359889592795",
    "source_url": "https://www.google.com/maps/place/%D0%9C%D0%B0%D0%B3%D0%B0%D0%B7%D0%B8%D0%BD+%D0%97%D0%B0+%D0%9C%D0%B5%D1%81%D0%BE/data=!4m7!3m6!1s0x40ae47af6dc0458b:0x538e839b1cce480b!8m2!3d43.974678!4d26.3121636!16s%2Fg%2F11c0rkwcq1!19sChIJi0XAba9HrkARC0jOHJuDjlM?authuser=0&hl=tr&rclk=1",
    "website_url": "",
    "rating_text": "4,3",
    "stars": null,
    "number_of_reviews": null,
    "price_level": "",
    "open_hours": "",
    "extraction_timestamp": "2025-06-07T13:50:19.341Z",
    "source_name": "google",
    "source_query": "Irrigation Equipment",
    "source_country": "BG",
    "country": "Bulgaria",
    "state": "Ruse Province",
    "city": "Obshtina Slivo Pole"
  },
  {
    "source_id": "ChIJHyMrSvFCrkARNqEebb69CrU",
    "name": "МАГАЗИНЪТ НА ИРКА",
    "category": "МАГАЗИНЪТ НА ИРКА",
    "formatted_address": "4,6(47)",
    "phone_number": "+359895431507",
    "source_url": "https://www.google.com/maps/place/%D0%9C%D0%90%D0%93%D0%90%D0%97%D0%98%D0%9D%D0%AA%D0%A2+%D0%9D%D0%90+%D0%98%D0%A0%D0%9A%D0%90/data=!4m7!3m6!1s0x40ae42f14a2b231f:0xb50abdbe6d1ea136!8m2!3d43.9314573!4d26.1141271!16s%2Fg%2F11cnb7q__y!19sChIJHyMrSvFCrkARNqEebb69CrU?authuser=0&hl=tr&rclk=1",
    "website_url": "",
    "rating_text": "4,6",
    "stars": null,
    "number_of_reviews": null,
    "price_level": "",
    "open_hours": "",
    "extraction_timestamp": "2025-06-07T13:50:19.341Z",
    "source_name": "google",
    "source_query": "Irrigation Equipment",
    "source_country": "BG",
    "country": "Bulgaria",
    "state": "Ruse Province",
    "city": "Obshtina Slivo Pole"
  },
  {
    "source_id": "ChIJE1MN-1xhrkARKqEyHI07MCo",
    "name": "OGRADKI BG",
    "category": "OGRADKI BG",
    "formatted_address": "4,3(6)",
    "phone_number": "+359895675832",
    "source_url": "https://www.google.com/maps/place/OGRADKI+BG/data=!4m7!3m6!1s0x40ae615cfb0d5313:0x2a303b8d1c32a12a!8m2!3d43.8539914!4d25.9913739!16s%2Fg%2F11jgf0rqh4!19sChIJE1MN-1xhrkARKqEyHI07MCo?authuser=0&hl=tr&rclk=1",
    "website_url": "",
    "rating_text": "4,3",
    "stars": null,
    "number_of_reviews": null,
    "price_level": "",
    "open_hours": "",
    "extraction_timestamp": "2025-06-07T13:50:19.341Z",
    "source_name": "google",
    "source_query": "Irrigation Equipment",
    "source_country": "BG",
    "country": "Bulgaria",
    "state": "Ruse Province",
    "city": "Obshtina Slivo Pole"
  },
  {
    "source_id": "ChIJGanA7J5drkARzFnpS53YuTA",
    "name": "Clio Commerce Ruse",
    "category": "Clio Commerce Ruse",
    "formatted_address": "4,2(44)",
    "phone_number": "+359893606881",
    "source_url": "https://www.google.com/maps/place/Clio+Commerce+Ruse/data=!4m7!3m6!1s0x40ae5d9eecc0a919:0x30b9d89d4be959cc!8m2!3d43.8732948!4d26.0414295!16s%2Fg%2F11csrz1t_7!19sChIJGanA7J5drkARzFnpS53YuTA?authuser=0&hl=tr&rclk=1",
    "website_url": "",
    "rating_text": "4,2",
    "stars": null,
    "number_of_reviews": null,
    "price_level": "",
    "open_hours": "",
    "extraction_timestamp": "2025-06-07T13:50:19.342Z",
    "source_name": "google",
    "source_query": "Irrigation Equipment",
    "source_country": "BG",
    "country": "Bulgaria",
    "state": "Ruse Province",
    "city": "Obshtina Slivo Pole"
  },
  {
    "source_id": "ChIJkV1ssPdDrkARpHJeFUNKtII",
    "name": "Kiril Danchev",
    "category": "Kiril Danchev",
    "formatted_address": "4,6(7)",
    "phone_number": "+35981312143",
    "source_url": "https://www.google.com/maps/place/Kiril+Danchev/data=!4m7!3m6!1s0x40ae43f7b06c5d91:0x82b44a43155e72a4!8m2!3d43.94178!4d26.2046099!16s%2Fg%2F1thlll0v!19sChIJkV1ssPdDrkARpHJeFUNKtII?authuser=0&hl=tr&rclk=1",
    "website_url": "",
    "rating_text": "4,6",
    "stars": null,
    "number_of_reviews": null,
    "price_level": "",
    "open_hours": "",
    "extraction_timestamp": "2025-06-07T13:50:19.342Z",
    "source_name": "google",
    "source_query": "Irrigation Equipment",
    "source_country": "BG",
    "country": "Bulgaria",
    "state": "Ruse Province",
    "city": "Obshtina Slivo Pole"
  },
  {
    "source_id": "ChIJaUNtpJtdrkAR5R3z6wjctVw",
    "name": "Radans",
    "category": "Radans",
    "formatted_address": "4,4(133)",
    "phone_number": "+359899987337",
    "source_url": "https://www.google.com/maps/place/Radans/data=!4m7!3m6!1s0x40ae5d9ba46d4369:0x5cb5dc08ebf31de5!8m2!3d43.8722554!4d26.0361619!16s%2Fg%2F11cjj9vp2s!19sChIJaUNtpJtdrkAR5R3z6wjctVw?authuser=0&hl=tr&rclk=1",
    "website_url": "",
    "rating_text": "4,4",
    "stars": null,
    "number_of_reviews": null,
    "price_level": "",
    "open_hours": "",
    "extraction_timestamp": "2025-06-07T13:50:19.343Z",
    "source_name": "google",
    "source_query": "Irrigation Equipment",
    "source_country": "BG",
    "country": "Bulgaria",
    "state": "Ruse Province",
    "city": "Obshtina Slivo Pole"
  },
  {
    "source_id": "ChIJtcLQl51grkAR9a5Y_RyZsMI",
    "name": "Bul Drip",
    "category": "Bul Drip",
    "formatted_address": "",
    "phone_number": "+359887424020",
    "source_url": "https://www.google.com/maps/place/Bul+Drip/data=!4m7!3m6!1s0x40ae609d97d0c2b5:0xc2b0991cfd58aef5!8m2!3d43.8287244!4d25.9716352!16s%2Fg%2F1vljdv97!19sChIJtcLQl51grkAR9a5Y_RyZsMI?authuser=0&hl=tr&rclk=1",
    "website_url": "",
    "rating_text": "",
    "stars": null,
    "number_of_reviews": null,
    "price_level": "",
    "open_hours": "",
    "extraction_timestamp": "2025-06-07T13:50:19.343Z",
    "source_name": "google",
    "source_query": "Irrigation Equipment",
    "source_country": "BG",
    "country": "Bulgaria",
    "state": "Ruse Province",
    "city": "Obshtina Slivo Pole"
  },
  {
    "source_id": "ChIJkV1ssPdDrkARO720aO6k47U",
    "name": "KM GROUP - IRRIGATION SYSTEMS",
    "category": "KM GROUP - IRRIGATION SYSTEMS",
    "formatted_address": "4,8(8)",
    "phone_number": "+35981789701",
    "source_url": "https://www.google.com/maps/place/KM+GROUP+-+IRRIGATION+SYSTEMS/data=!4m7!3m6!1s0x40ae43f7b06c5d91:0xb5e3a4ee68b4bd3b!8m2!3d43.943756!4d26.2045157!16s%2Fg%2F1v2jbd_j!19sChIJkV1ssPdDrkARO720aO6k47U?authuser=0&hl=tr&rclk=1",
    "website_url": "http://catalog.bg/company.php?company=47393",
    "rating_text": "4,8",
    "stars": null,
    "number_of_reviews": null,
    "price_level": "",
    "open_hours": "",
    "extraction_timestamp": "2025-06-07T13:50:19.388Z",
    "source_name": "google",
    "source_query": "Irrigation Equipment",
    "source_country": "BG",
    "country": "Bulgaria",
    "state": "Ruse Province",
    "city": "Slivo Pole"
  },
  {
    "source_id": "ChIJly0pKrdgrkARoJZC1lgKWoY",
    "name": "ПОЛИВНИ СИСТЕМИ ЕООД",
    "category": "ПОЛИВНИ СИСТЕМИ ЕООД",
    "formatted_address": "4,7(11)",
    "phone_number": "+359887424020",
    "source_url": "https://www.google.com/maps/place/%D0%9F%D0%9E%D0%9B%D0%98%D0%92%D0%9D%D0%98+%D0%A1%D0%98%D0%A1%D0%A2%D0%95%D0%9C%D0%98+%D0%95%D0%9E%D0%9E%D0%94/data=!4m7!3m6!1s0x40ae60b72a292d97:0x865a0a58d64296a0!8m2!3d43.8355713!4d25.9656554!16s%2Fg%2F1hc2rnssk!19sChIJly0pKrdgrkARoJZC1lgKWoY?authuser=0&hl=tr&rclk=1",
    "website_url": "",
    "rating_text": "4,7",
    "stars": null,
    "number_of_reviews": null,
    "price_level": "",
    "open_hours": "",
    "extraction_timestamp": "2025-06-07T13:50:19.389Z",
    "source_name": "google",
    "source_query": "Irrigation Equipment",
    "source_country": "BG",
    "country": "Bulgaria",
    "state": "Ruse Province",
    "city": "Slivo Pole"
  },
  {
    "source_id": "ChIJJbg5rIVDrkAR6kJK7k9TwGI",
    "name": "Профимакс ООД",
    "category": "Профимакс ООД",
    "formatted_address": "5,0(20)",
    "phone_number": "+359894368695",
    "source_url": "https://www.google.com/maps/place/%D0%9F%D1%80%D0%BE%D1%84%D0%B8%D0%BC%D0%B0%D0%BA%D1%81+%D0%9E%D0%9E%D0%94/data=!4m7!3m6!1s0x40ae4385ac39b825:0x62c0534fee4a42ea!8m2!3d43.9443496!4d26.2059307!16s%2Fg%2F11t9dnxd5k!19sChIJJbg5rIVDrkAR6kJK7k9TwGI?authuser=0&hl=tr&rclk=1",
    "website_url": "",
    "rating_text": "5,0",
    "stars": null,
    "number_of_reviews": null,
    "price_level": "",
    "open_hours": "",
    "extraction_timestamp": "2025-06-07T13:50:19.389Z",
    "source_name": "google",
    "source_query": "Irrigation Equipment",
    "source_country": "BG",
    "country": "Bulgaria",
    "state": "Ruse Province",
    "city": "Slivo Pole"
  },
  {
    "source_id": "ChIJD1ndUABDrkAR_fgDd0hDELY",
    "name": "AQUA&CLEAN",
    "category": "AQUA&CLEAN",
    "formatted_address": "5,0(8)",
    "phone_number": "+359898924901",
    "source_url": "https://www.google.com/maps/place/AQUA%26CLEAN/data=!4m7!3m6!1s0x40ae430050dd590f:0xb61043487703f8fd!8m2!3d43.9423849!4d26.2058362!16s%2Fg%2F11wvbdhyv_!19sChIJD1ndUABDrkAR_fgDd0hDELY?authuser=0&hl=tr&rclk=1",
    "website_url": "http://www.aquaandclean.com/",
    "rating_text": "5,0",
    "stars": null,
    "number_of_reviews": null,
    "price_level": "",
    "open_hours": "",
    "extraction_timestamp": "2025-06-07T13:50:19.390Z",
    "source_name": "google",
    "source_query": "Irrigation Equipment",
    "source_country": "BG",
    "country": "Bulgaria",
    "state": "Ruse Province",
    "city": "Slivo Pole"
  },
  {
    "source_id": "ChIJfe2p_7ZDrkARf3KbVgVSnDQ",
    "name": "Строителна Борса ДАНЧЕВ КОМЕРС ООД",
    "category": "Строителна Борса ДАНЧЕВ КОМЕРС ООД",
    "formatted_address": "4,6(116)",
    "phone_number": "+359889824556",
    "source_url": "https://www.google.com/maps/place/%D0%A1%D1%82%D1%80%D0%BE%D0%B8%D1%82%D0%B5%D0%BB%D0%BD%D0%B0+%D0%91%D0%BE%D1%80%D1%81%D0%B0+%D0%94%D0%90%D0%9D%D0%A7%D0%95%D0%92+%D0%9A%D0%9E%D0%9C%D0%95%D0%A0%D0%A1+%D0%9E%D0%9E%D0%94/data=!4m7!3m6!1s0x40ae43b6ffa9ed7d:0x349c5205569b727f!8m2!3d43.9394841!4d26.1954151!16s%2Fg%2F11gjhp1n1h!19sChIJfe2p_7ZDrkARf3KbVgVSnDQ?authuser=0&hl=tr&rclk=1",
    "website_url": "https://www.business.bg/f-47111/danchev-komers.html",
    "rating_text": "4,6",
    "stars": null,
    "number_of_reviews": null,
    "price_level": "",
    "open_hours": "",
    "extraction_timestamp": "2025-06-07T13:50:19.392Z",
    "source_name": "google",
    "source_query": "Irrigation Equipment",
    "source_country": "BG",
    "country": "Bulgaria",
    "state": "Ruse Province",
    "city": "Slivo Pole"
  },
  {
    "source_id": "ChIJE1MN-1xhrkARKqEyHI07MCo",
    "name": "OGRADKI BG",
    "category": "OGRADKI BG",
    "formatted_address": "4,3(6)",
    "phone_number": "+359895675832",
    "source_url": "https://www.google.com/maps/place/OGRADKI+BG/data=!4m7!3m6!1s0x40ae615cfb0d5313:0x2a303b8d1c32a12a!8m2!3d43.8539914!4d25.9913739!16s%2Fg%2F11jgf0rqh4!19sChIJE1MN-1xhrkARKqEyHI07MCo?authuser=0&hl=tr&rclk=1",
    "website_url": "http://www.ogradki.bg/",
    "rating_text": "4,3",
    "stars": null,
    "number_of_reviews": null,
    "price_level": "",
    "open_hours": "",
    "extraction_timestamp": "2025-06-07T13:50:19.393Z",
    "source_name": "google",
    "source_query": "Irrigation Equipment",
    "source_country": "BG",
    "country": "Bulgaria",
    "state": "Ruse Province",
    "city": "Slivo Pole"
  },
  {
    "source_id": "ChIJkV1ssPdDrkARpHJeFUNKtII",
    "name": "Kiril Danchev",
    "category": "Kiril Danchev",
    "formatted_address": "4,6(7)",
    "phone_number": "+35981312143",
    "source_url": "https://www.google.com/maps/place/Kiril+Danchev/data=!4m7!3m6!1s0x40ae43f7b06c5d91:0x82b44a43155e72a4!8m2!3d43.94178!4d26.2046099!16s%2Fg%2F1thlll0v!19sChIJkV1ssPdDrkARpHJeFUNKtII?authuser=0&hl=tr&rclk=1",
    "website_url": "",
    "rating_text": "4,6",
    "stars": null,
    "number_of_reviews": null,
    "price_level": "",
    "open_hours": "",
    "extraction_timestamp": "2025-06-07T13:50:19.393Z",
    "source_name": "google",
    "source_query": "Irrigation Equipment",
    "source_country": "BG",
    "country": "Bulgaria",
    "state": "Ruse Province",
    "city": "Slivo Pole"
  },
  {
    "source_id": "ChIJtcLQl51grkAR9a5Y_RyZsMI",
    "name": "Bul Drip",
    "category": "Bul Drip",
    "formatted_address": "",
    "phone_number": "+359887424020",
    "source_url": "https://www.google.com/maps/place/Bul+Drip/data=!4m7!3m6!1s0x40ae609d97d0c2b5:0xc2b0991cfd58aef5!8m2!3d43.8287244!4d25.9716352!16s%2Fg%2F1vljdv97!19sChIJtcLQl51grkAR9a5Y_RyZsMI?authuser=0&hl=tr&rclk=1",
    "website_url": "",
    "rating_text": "",
    "stars": null,
    "number_of_reviews": null,
    "price_level": "",
    "open_hours": "",
    "extraction_timestamp": "2025-06-07T13:50:19.393Z",
    "source_name": "google",
    "source_query": "Irrigation Equipment",
    "source_country": "BG",
    "country": "Bulgaria",
    "state": "Ruse Province",
    "city": "Slivo Pole"
  },
  {
    "source_id": "ChIJly0pKrdgrkARoJZC1lgKWoY",
    "name": "ПОЛИВНИ СИСТЕМИ ЕООД",
    "category": "ПОЛИВНИ СИСТЕМИ ЕООД",
    "formatted_address": "4,7(11)",
    "phone_number": "+359887424020",
    "source_url": "https://www.google.com/maps/place/%D0%9F%D0%9E%D0%9B%D0%98%D0%92%D0%9D%D0%98+%D0%A1%D0%98%D0%A1%D0%A2%D0%95%D0%9C%D0%98+%D0%95%D0%9E%D0%9E%D0%94/data=!4m7!3m6!1s0x40ae60b72a292d97:0x865a0a58d64296a0!8m2!3d43.8355713!4d25.9656554!16s%2Fg%2F1hc2rnssk!19sChIJly0pKrdgrkARoJZC1lgKWoY?authuser=0&hl=tr&rclk=1",
    "website_url": "",
    "rating_text": "4,7",
    "stars": null,
    "number_of_reviews": null,
    "price_level": "",
    "open_hours": "",
    "extraction_timestamp": "2025-06-07T13:50:19.421Z",
    "source_name": "google",
    "source_query": "Irrigation Equipment",
    "source_country": "BG",
    "country": "Bulgaria",
    "state": "Ruse Province",
    "city": "Vetovo"
  },
  {
    "source_id": "ChIJNRpA9JNVrkARpOTrOqc3xIg",
    "name": "Самико 87 ЕООД",
    "category": "Самико 87 ЕООД",
    "formatted_address": "5,0(5)",
    "phone_number": "",
    "source_url": "https://www.google.com/maps/place/%D0%A1%D0%B0%D0%BC%D0%B8%D0%BA%D0%BE+87+%D0%95%D0%9E%D0%9E%D0%94/data=!4m7!3m6!1s0x40ae5593f4401a35:0x88c437a73aebe4a4!8m2!3d43.706496!4d26.2663566!16s%2Fg%2F11rrqdgt_s!19sChIJNRpA9JNVrkARpOTrOqc3xIg?authuser=0&hl=tr&rclk=1",
    "website_url": "",
    "rating_text": "5,0",
    "stars": null,
    "number_of_reviews": null,
    "price_level": "",
    "open_hours": "",
    "extraction_timestamp": "2025-06-07T13:50:19.422Z",
    "source_name": "google",
    "source_query": "Irrigation Equipment",
    "source_country": "BG",
    "country": "Bulgaria",
    "state": "Ruse Province",
    "city": "Vetovo"
  },
  {
    "source_id": "ChIJsYU6OH0Or0ARC3eRUz7FIsc",
    "name": "Напоителни Системи",
    "category": "Напоителни Системи",
    "formatted_address": "",
    "phone_number": "+359895843284",
    "source_url": "https://www.google.com/maps/place/%D0%9D%D0%B0%D0%BF%D0%BE%D0%B8%D1%82%D0%B5%D0%BB%D0%BD%D0%B8+%D0%A1%D0%B8%D1%81%D1%82%D0%B5%D0%BC%D0%B8/data=!4m7!3m6!1s0x40af0e7d383a85b1:0xc722c53e5391770b!8m2!3d43.5248284!4d26.5185956!16s%2Fg%2F11hyt13jl9!19sChIJsYU6OH0Or0ARC3eRUz7FIsc?authuser=0&hl=tr&rclk=1",
    "website_url": "http://www.napoitelnisystemi.eu/kontakti",
    "rating_text": "",
    "stars": null,
    "number_of_reviews": null,
    "price_level": "",
    "open_hours": "",
    "extraction_timestamp": "2025-06-07T13:50:19.423Z",
    "source_name": "google",
    "source_query": "Irrigation Equipment",
    "source_country": "BG",
    "country": "Bulgaria",
    "state": "Ruse Province",
    "city": "Vetovo"
  },
  {
    "source_id": "ChIJQ_NZlZL_rkARl2dMJ6cBFFY",
    "name": "Sedat'ın yeri",
    "category": "Sedat'ın yeri",
    "formatted_address": "5,0(1)",
    "phone_number": "",
    "source_url": "https://www.google.com/maps/place/Sedat%27%C4%B1n+yeri/data=!4m7!3m6!1s0x40aeff929559f343:0x561401a7274c6797!8m2!3d43.7029723!4d26.2616806!16s%2Fg%2F11tff89f4g!19sChIJQ_NZlZL_rkARl2dMJ6cBFFY?authuser=0&hl=tr&rclk=1",
    "website_url": "",
    "rating_text": "5,0",
    "stars": null,
    "number_of_reviews": null,
    "price_level": "",
    "open_hours": "",
    "extraction_timestamp": "2025-06-07T13:50:19.423Z",
    "source_name": "google",
    "source_query": "Irrigation Equipment",
    "source_country": "BG",
    "country": "Bulgaria",
    "state": "Ruse Province",
    "city": "Vetovo"
  },
  {
    "source_id": "ChIJtcLQl51grkAR9a5Y_RyZsMI",
    "name": "Bul Drip",
    "category": "Bul Drip",
    "formatted_address": "",
    "phone_number": "+359887424020",
    "source_url": "https://www.google.com/maps/place/Bul+Drip/data=!4m7!3m6!1s0x40ae609d97d0c2b5:0xc2b0991cfd58aef5!8m2!3d43.8287244!4d25.9716352!16s%2Fg%2F1vljdv97!19sChIJtcLQl51grkAR9a5Y_RyZsMI?authuser=0&hl=tr&rclk=1",
    "website_url": "",
    "rating_text": "",
    "stars": null,
    "number_of_reviews": null,
    "price_level": "",
    "open_hours": "",
    "extraction_timestamp": "2025-06-07T13:50:19.424Z",
    "source_name": "google",
    "source_query": "Irrigation Equipment",
    "source_country": "BG",
    "country": "Bulgaria",
    "state": "Ruse Province",
    "city": "Vetovo"
  },
  {
    "source_id": "ChIJly0pKrdgrkARoJZC1lgKWoY",
    "name": "ПОЛИВНИ СИСТЕМИ ЕООД",
    "category": "ПОЛИВНИ СИСТЕМИ ЕООД",
    "formatted_address": "4,7(11)",
    "phone_number": "+359887424020",
    "source_url": "https://www.google.com/maps/place/%D0%9F%D0%9E%D0%9B%D0%98%D0%92%D0%9D%D0%98+%D0%A1%D0%98%D0%A1%D0%A2%D0%95%D0%9C%D0%98+%D0%95%D0%9E%D0%9E%D0%94/data=!4m7!3m6!1s0x40ae60b72a292d97:0x865a0a58d64296a0!8m2!3d43.8355713!4d25.9656554!16s%2Fg%2F1hc2rnssk!19sChIJly0pKrdgrkARoJZC1lgKWoY?authuser=0&hl=tr&rclk=1",
    "website_url": "",
    "rating_text": "4,7",
    "stars": null,
    "number_of_reviews": null,
    "price_level": "",
    "open_hours": "",
    "extraction_timestamp": "2025-06-07T13:50:19.685Z",
    "source_name": "google",
    "source_query": "Irrigation Equipment",
    "source_country": "BG",
    "country": "Bulgaria",
    "state": "Ruse Province",
    "city": "Tsenovo"
  },
  {
    "source_id": "ChIJsYU6OH0Or0ARC3eRUz7FIsc",
    "name": "Напоителни Системи",
    "category": "Напоителни Системи",
    "formatted_address": "",
    "phone_number": "+359895843284",
    "source_url": "https://www.google.com/maps/place/%D0%9D%D0%B0%D0%BF%D0%BE%D0%B8%D1%82%D0%B5%D0%BB%D0%BD%D0%B8+%D0%A1%D0%B8%D1%81%D1%82%D0%B5%D0%BC%D0%B8/data=!4m7!3m6!1s0x40af0e7d383a85b1:0xc722c53e5391770b!8m2!3d43.5248284!4d26.5185956!16s%2Fg%2F11hyt13jl9!19sChIJsYU6OH0Or0ARC3eRUz7FIsc?authuser=0&hl=tr&rclk=1",
    "website_url": "http://www.napoitelnisystemi.eu/kontakti",
    "rating_text": "",
    "stars": null,
    "number_of_reviews": null,
    "price_level": "",
    "open_hours": "",
    "extraction_timestamp": "2025-06-07T13:50:19.686Z",
    "source_name": "google",
    "source_query": "Irrigation Equipment",
    "source_country": "BG",
    "country": "Bulgaria",
    "state": "Ruse Province",
    "city": "Tsenovo"
  },
  {
    "source_id": "ChIJ4cb9DsFgrkARH1nrvdfpgQo",
    "name": "Кей Ви Ел ЕООД",
    "category": "Кей Ви Ел ЕООД",
    "formatted_address": "",
    "phone_number": "+35982507370",
    "source_url": "https://www.google.com/maps/place/%D0%9A%D0%B5%D0%B9+%D0%92%D0%B8+%D0%95%D0%BB+%D0%95%D0%9E%D0%9E%D0%94/data=!4m7!3m6!1s0x40ae60c10efdc6e1:0xa81e9d7bdeb591f!8m2!3d43.8214999!4d25.9247541!16s%2Fg%2F11j0jl790d!19sChIJ4cb9DsFgrkARH1nrvdfpgQo?authuser=0&hl=tr&rclk=1",
    "website_url": "http://kvl.bg/%D0%BA%D0%BE%D0%BD%D1%82%D0%B0%D0%BA%D1%82%D0%B8/",
    "rating_text": "",
    "stars": null,
    "number_of_reviews": null,
    "price_level": "",
    "open_hours": "",
    "extraction_timestamp": "2025-06-07T13:50:19.687Z",
    "source_name": "google",
    "source_query": "Irrigation Equipment",
    "source_country": "BG",
    "country": "Bulgaria",
    "state": "Ruse Province",
    "city": "Tsenovo"
  },
  {
    "source_id": "ChIJtcLQl51grkAR9a5Y_RyZsMI",
    "name": "Bul Drip",
    "category": "Bul Drip",
    "formatted_address": "",
    "phone_number": "+359887424020",
    "source_url": "https://www.google.com/maps/place/Bul+Drip/data=!4m7!3m6!1s0x40ae609d97d0c2b5:0xc2b0991cfd58aef5!8m2!3d43.8287244!4d25.9716352!16s%2Fg%2F1vljdv97!19sChIJtcLQl51grkAR9a5Y_RyZsMI?authuser=0&hl=tr&rclk=1",
    "website_url": "",
    "rating_text": "",
    "stars": null,
    "number_of_reviews": null,
    "price_level": "",
    "open_hours": "",
    "extraction_timestamp": "2025-06-07T13:50:19.687Z",
    "source_name": "google",
    "source_query": "Irrigation Equipment",
    "source_country": "BG",
    "country": "Bulgaria",
    "state": "Ruse Province",
    "city": "Tsenovo"
  },
  {
    "source_id": "ChIJly0pKrdgrkARoJZC1lgKWoY",
    "name": "ПОЛИВНИ СИСТЕМИ ЕООД",
    "category": "ПОЛИВНИ СИСТЕМИ ЕООД",
    "formatted_address": "4,7(11)",
    "phone_number": "+359887424020",
    "source_url": "https://www.google.com/maps/place/%D0%9F%D0%9E%D0%9B%D0%98%D0%92%D0%9D%D0%98+%D0%A1%D0%98%D0%A1%D0%A2%D0%95%D0%9C%D0%98+%D0%95%D0%9E%D0%9E%D0%94/data=!4m7!3m6!1s0x40ae60b72a292d97:0x865a0a58d64296a0!8m2!3d43.8355713!4d25.9656554!16s%2Fg%2F1hc2rnssk!19sChIJly0pKrdgrkARoJZC1lgKWoY?authuser=0&hl=tr&rclk=1",
    "website_url": "",
    "rating_text": "4,7",
    "stars": null,
    "number_of_reviews": null,
    "price_level": "",
    "open_hours": "",
    "extraction_timestamp": "2025-06-07T13:50:19.982Z",
    "source_name": "google",
    "source_query": "Irrigation Equipment",
    "source_country": "BG",
    "country": "Bulgaria",
    "state": "Ruse Province",
    "city": "Ruse"
  },
  {
    "source_id": "ChIJKcKJa05nrkARIkDmtycNem4",
    "name": "Филипчев и Ко ООД",
    "category": "Филипчев и Ко ООД",
    "formatted_address": "4,6(100)",
    "phone_number": "+359897843924",
    "source_url": "https://www.google.com/maps/place/%D0%A4%D0%B8%D0%BB%D0%B8%D0%BF%D1%87%D0%B5%D0%B2+%D0%B8+%D0%9A%D0%BE+%D0%9E%D0%9E%D0%94/data=!4m7!3m6!1s0x40ae674e6b89c229:0x6e7a0d27b7e64022!8m2!3d43.8551825!4d25.9854165!16s%2Fg%2F11b76kr81g!19sChIJKcKJa05nrkARIkDmtycNem4?authuser=0&hl=tr&rclk=1",
    "website_url": "",
    "rating_text": "4,6",
    "stars": null,
    "number_of_reviews": null,
    "price_level": "",
    "open_hours": "",
    "extraction_timestamp": "2025-06-07T13:50:19.982Z",
    "source_name": "google",
    "source_query": "Irrigation Equipment",
    "source_country": "BG",
    "country": "Bulgaria",
    "state": "Ruse Province",
    "city": "Ruse"
  },
  {
    "source_id": "ChIJlVUWisBgrkAR_9GDqyMSnjE",
    "name": "Irrigation Systems",
    "category": "Irrigation Systems",
    "formatted_address": "1,0(2)",
    "phone_number": "+35982825748",
    "source_url": "https://www.google.com/maps/place/Irrigation+Systems/data=!4m7!3m6!1s0x40ae60c08a165595:0x319e1223ab83d1ff!8m2!3d43.8419922!4d25.9542701!16s%2Fg%2F11h1lh6ml!19sChIJlVUWisBgrkAR_9GDqyMSnjE?authuser=0&hl=tr&rclk=1",
    "website_url": "",
    "rating_text": "1,0",
    "stars": null,
    "number_of_reviews": null,
    "price_level": "",
    "open_hours": "",
    "extraction_timestamp": "2025-06-07T13:50:19.983Z",
    "source_name": "google",
    "source_query": "Irrigation Equipment",
    "source_country": "BG",
    "country": "Bulgaria",
    "state": "Ruse Province",
    "city": "Ruse"
  },
  {
    "source_id": "ChIJGax_BlBdrkAR7fx-k2gj4lQ",
    "name": "Construction Tools EOOD, Husqvarna",
    "category": "Construction Tools EOOD, Husqvarna",
    "formatted_address": "Construction Tools EOOD, Husqvarna",
    "phone_number": "+35982810555",
    "source_url": "https://www.google.com/maps/place/Construction+Tools+EOOD,+Husqvarna/data=!4m7!3m6!1s0x40ae5d50067fac19:0x54e22368937efced!8m2!3d43.9015648!4d26.05922!16s%2Fg%2F11cs2c0p0j!19sChIJGax_BlBdrkAR7fx-k2gj4lQ?authuser=0&hl=tr&rclk=1",
    "website_url": "http://www.husqvarnacp.com/int/",
    "rating_text": "4,5",
    "stars": null,
    "number_of_reviews": null,
    "price_level": "",
    "open_hours": "",
    "extraction_timestamp": "2025-06-07T13:50:19.984Z",
    "source_name": "google",
    "source_query": "Irrigation Equipment",
    "source_country": "BG",
    "country": "Bulgaria",
    "state": "Ruse Province",
    "city": "Ruse"
  },
  {
    "source_id": "ChIJmU7e525hrkAR4RDHt16KqpU",
    "name": "My Water BG",
    "category": "My Water BG",
    "formatted_address": "4,9(7)",
    "phone_number": "+359877799499",
    "source_url": "https://www.google.com/maps/place/My+Water+BG/data=!4m7!3m6!1s0x40ae616ee7de4e99:0x95aa8a5eb7c710e1!8m2!3d43.8418027!4d25.9589377!16s%2Fg%2F11jbnm25dz!19sChIJmU7e525hrkAR4RDHt16KqpU?authuser=0&hl=tr&rclk=1",
    "website_url": "http://mywater.bg/",
    "rating_text": "4,9",
    "stars": null,
    "number_of_reviews": null,
    "price_level": "",
    "open_hours": "",
    "extraction_timestamp": "2025-06-07T13:50:19.984Z",
    "source_name": "google",
    "source_query": "Irrigation Equipment",
    "source_country": "BG",
    "country": "Bulgaria",
    "state": "Ruse Province",
    "city": "Ruse"
  },
  {
    "source_id": "ChIJaR5wldhhrkAR2UEopH9G7YY",
    "name": "\"Водопроводни Решения Русе\"- професионални вик услуги,vik uslugi",
    "category": "\"Водопроводни Решения Русе\"- професионални вик услуги,vik uslugi",
    "formatted_address": "\"Водопроводни Решения Русе\"- професионални вик услуги,vik uslugi",
    "phone_number": "+359893967820",
    "source_url": "https://www.google.com/maps/place/%22%D0%92%D0%BE%D0%B4%D0%BE%D0%BF%D1%80%D0%BE%D0%B2%D0%BE%D0%B4%D0%BD%D0%B8+%D0%A0%D0%B5%D1%88%D0%B5%D0%BD%D0%B8%D1%8F+%D0%A0%D1%83%D1%81%D0%B5%22-+%D0%BF%D1%80%D0%BE%D1%84%D0%B5%D1%81%D0%B8%D0%BE%D0%BD%D0%B0%D0%BB%D0%BD%D0%B8+%D0%B2%D0%B8%D0%BA+%D1%83%D1%81%D0%BB%D1%83%D0%B3%D0%B8,vik+uslugi/data=!4m7!3m6!1s0x40ae61d895701e69:0x86ed467fa42841d9!8m2!3d43.8456948!4d25.9561749!16s%2Fg%2F11t1rl1b_s!19sChIJaR5wldhhrkAR2UEopH9G7YY?authuser=0&hl=tr&rclk=1",
    "website_url": "",
    "rating_text": "5,0",
    "stars": null,
    "number_of_reviews": null,
    "price_level": "",
    "open_hours": "",
    "extraction_timestamp": "2025-06-07T13:50:19.985Z",
    "source_name": "google",
    "source_query": "Irrigation Equipment",
    "source_country": "BG",
    "country": "Bulgaria",
    "state": "Ruse Province",
    "city": "Ruse"
  },
  {
    "source_id": "ChIJBYl0l8BgrkARoib0bs3raXE",
    "name": "Stanimir Petrikov",
    "category": "Stanimir Petrikov",
    "formatted_address": "4,1(124)",
    "phone_number": "+35982834605",
    "source_url": "https://www.google.com/maps/place/Stanimir+Petrikov/data=!4m7!3m6!1s0x40ae60c097748905:0x7169ebcd6ef426a2!8m2!3d43.8424721!4d25.9615535!16s%2Fg%2F1tcz6tx1!19sChIJBYl0l8BgrkARoib0bs3raXE?authuser=0&hl=tr&rclk=1",
    "website_url": "http://www.petrikov-bg.com/",
    "rating_text": "4,1",
    "stars": null,
    "number_of_reviews": null,
    "price_level": "",
    "open_hours": "",
    "extraction_timestamp": "2025-06-07T13:50:19.985Z",
    "source_name": "google",
    "source_query": "Irrigation Equipment",
    "source_country": "BG",
    "country": "Bulgaria",
    "state": "Ruse Province",
    "city": "Ruse"
  },
  {
    "source_id": "ChIJN8oHJ7FgrkARARGuEsDS1KI",
    "name": "Praktiker Ruse",
    "category": "Praktiker Ruse",
    "formatted_address": "4,4(1.382)",
    "phone_number": "+35982887120",
    "source_url": "https://www.google.com/maps/place/Praktiker+Ruse/data=!4m7!3m6!1s0x40ae60b12707ca37:0xa2d4d2c012ae1101!8m2!3d43.8468434!4d25.967147!16s%2Fg%2F1z44rc7q3!19sChIJN8oHJ7FgrkARARGuEsDS1KI?authuser=0&hl=tr&rclk=1",
    "website_url": "http://www.praktiker.bg/",
    "rating_text": "4,4",
    "stars": null,
    "number_of_reviews": null,
    "price_level": "",
    "open_hours": "",
    "extraction_timestamp": "2025-06-07T13:50:19.987Z",
    "source_name": "google",
    "source_query": "Irrigation Equipment",
    "source_country": "BG",
    "country": "Bulgaria",
    "state": "Ruse Province",
    "city": "Ruse"
  },
  {
    "source_id": "ChIJS3lmda1grkARzs_G0M7VPxk",
    "name": "Agroteh-Rosata",
    "category": "Agroteh-Rosata",
    "formatted_address": "4,8(17)",
    "phone_number": "+359878844349",
    "source_url": "https://www.google.com/maps/place/Agroteh-Rosata/data=!4m7!3m6!1s0x40ae60ad7566794b:0x193fd5ced0c6cfce!8m2!3d43.8691356!4d26.0072057!16s%2Fg%2F1tdg1qfz!19sChIJS3lmda1grkARzs_G0M7VPxk?authuser=0&hl=tr&rclk=1",
    "website_url": "http://www.agrotech-rosata.com/",
    "rating_text": "4,8",
    "stars": null,
    "number_of_reviews": null,
    "price_level": "",
    "open_hours": "",
    "extraction_timestamp": "2025-06-07T13:50:19.988Z",
    "source_name": "google",
    "source_query": "Irrigation Equipment",
    "source_country": "BG",
    "country": "Bulgaria",
    "state": "Ruse Province",
    "city": "Ruse"
  },
  {
    "source_id": "ChIJP6zqkPNdrkARsjEy-DLe_T0",
    "name": "INTERAGRI Bulgaria AD | Agricenter Ruse",
    "category": "INTERAGRI Bulgaria AD | Agricenter Ruse",
    "formatted_address": "4,2(40)",
    "phone_number": "+359879646413",
    "source_url": "https://www.google.com/maps/place/INTERAGRI+Bulgaria+AD+%7C+Agricenter+Ruse/data=!4m7!3m6!1s0x40ae5df390eaac3f:0x3dfdde32f83231b2!8m2!3d43.8608852!4d26.0139972!16s%2Fg%2F11c54frdkl!19sChIJP6zqkPNdrkARsjEy-DLe_T0?authuser=0&hl=tr&rclk=1",
    "website_url": "http://interagri.bg/",
    "rating_text": "4,2",
    "stars": null,
    "number_of_reviews": null,
    "price_level": "",
    "open_hours": "",
    "extraction_timestamp": "2025-06-07T13:50:19.989Z",
    "source_name": "google",
    "source_query": "Irrigation Equipment",
    "source_country": "BG",
    "country": "Bulgaria",
    "state": "Ruse Province",
    "city": "Ruse"
  },
  {
    "source_id": "ChIJl9iX1blgrkAR1f5qhknIeFY",
    "name": "Mr.Bricolage Ruse",
    "category": "Mr.Bricolage Ruse",
    "formatted_address": "4,3(2.585)",
    "phone_number": "+359882292869",
    "source_url": "https://www.google.com/maps/place/Mr.Bricolage+Ruse/data=!4m7!3m6!1s0x40ae60b9d597d897:0x5678c849866afed5!8m2!3d43.8458032!4d25.9623594!16s%2Fg%2F1tsr1pr5!19sChIJl9iX1blgrkAR1f5qhknIeFY?authuser=0&hl=tr&rclk=1",
    "website_url": "https://mr-bricolage.bg/",
    "rating_text": "4,3",
    "stars": null,
    "number_of_reviews": null,
    "price_level": "",
    "open_hours": "",
    "extraction_timestamp": "2025-06-07T13:50:19.990Z",
    "source_name": "google",
    "source_query": "Irrigation Equipment",
    "source_country": "BG",
    "country": "Bulgaria",
    "state": "Ruse Province",
    "city": "Ruse"
  },
  {
    "source_id": "ChIJs62PjM1grkAREZPB-_AnGyU",
    "name": "VAMEKS - Complete Plumbing in Ruse",
    "category": "VAMEKS - Complete Plumbing in Ruse",
    "formatted_address": "4,6(225)",
    "phone_number": "+359878780935",
    "source_url": "https://www.google.com/maps/place/VAMEKS+-+Complete+Plumbing+in+Ruse/data=!4m7!3m6!1s0x40ae60cd8c8fadb3:0x251b27f0fbc19311!8m2!3d43.844799!4d25.9456668!16s%2Fg%2F1tfbwz9p!19sChIJs62PjM1grkAREZPB-_AnGyU?authuser=0&hl=tr&rclk=1",
    "website_url": "http://vamex.bg/",
    "rating_text": "4,6",
    "stars": null,
    "number_of_reviews": null,
    "price_level": "",
    "open_hours": "",
    "extraction_timestamp": "2025-06-07T13:50:19.991Z",
    "source_name": "google",
    "source_query": "Irrigation Equipment",
    "source_country": "BG",
    "country": "Bulgaria",
    "state": "Ruse Province",
    "city": "Ruse"
  },
  {
    "source_id": "ChIJH9d6HZxgrkARhAG6t3LjBGE",
    "name": "PRAKTIS",
    "category": "PRAKTIS",
    "formatted_address": "4,1(695)",
    "phone_number": "+35982599196",
    "source_url": "https://www.google.com/maps/place/PRAKTIS/data=!4m7!3m6!1s0x40ae609c1d7ad71f:0x6104e372b7ba0184!8m2!3d43.8304774!4d25.9691806!16s%2Fg%2F11b7g0y85k!19sChIJH9d6HZxgrkARhAG6t3LjBGE?authuser=0&hl=tr&rclk=1",
    "website_url": "https://praktis.bg/",
    "rating_text": "4,1",
    "stars": null,
    "number_of_reviews": null,
    "price_level": "",
    "open_hours": "",
    "extraction_timestamp": "2025-06-07T13:50:19.992Z",
    "source_name": "google",
    "source_query": "Irrigation Equipment",
    "source_country": "BG",
    "country": "Bulgaria",
    "state": "Ruse Province",
    "city": "Ruse"
  },
  {
    "source_id": "ChIJA2QFEs9grkARvmcbkpo6J34",
    "name": "Bulgar Ai Ti En",
    "category": "Bulgar Ai Ti En",
    "formatted_address": "5,0(1)",
    "phone_number": "+35982822093",
    "source_url": "https://www.google.com/maps/place/Bulgar+Ai+Ti+En/data=!4m7!3m6!1s0x40ae60cf12056403:0x7e273a9a921b67be!8m2!3d43.8508151!4d25.9538524!16s%2Fg%2F1vd3t8w_!19sChIJA2QFEs9grkARvmcbkpo6J34?authuser=0&hl=tr&rclk=1",
    "website_url": "",
    "rating_text": "5,0",
    "stars": null,
    "number_of_reviews": null,
    "price_level": "",
    "open_hours": "",
    "extraction_timestamp": "2025-06-07T13:50:19.992Z",
    "source_name": "google",
    "source_query": "Irrigation Equipment",
    "source_country": "BG",
    "country": "Bulgaria",
    "state": "Ruse Province",
    "city": "Ruse"
  },
  {
    "source_id": "ChIJD92VEqFhrkAR_4BbPhSq43U",
    "name": "Левски ЕООД",
    "category": "Левски ЕООД",
    "formatted_address": "4,6(35)",
    "phone_number": "+359878654392",
    "source_url": "https://www.google.com/maps/place/%D0%9B%D0%B5%D0%B2%D1%81%D0%BA%D0%B8+%D0%95%D0%9E%D0%9E%D0%94/data=!4m7!3m6!1s0x40ae61a11295dd0f:0x75e3aa143e5b80ff!8m2!3d43.8300704!4d25.9747011!16s%2Fg%2F11lkdwg8qj!19sChIJD92VEqFhrkAR_4BbPhSq43U?authuser=0&hl=tr&rclk=1",
    "website_url": "https://levski-eood.com/",
    "rating_text": "4,6",
    "stars": null,
    "number_of_reviews": null,
    "price_level": "",
    "open_hours": "",
    "extraction_timestamp": "2025-06-07T13:50:19.993Z",
    "source_name": "google",
    "source_query": "Irrigation Equipment",
    "source_country": "BG",
    "country": "Bulgaria",
    "state": "Ruse Province",
    "city": "Ruse"
  },
  {
    "source_id": "ChIJ04Zou55grkARPJXqSXzoso4",
    "name": "Technopolis Ruse",
    "category": "Technopolis Ruse",
    "formatted_address": "4,4(3.066)",
    "phone_number": "+35970012340",
    "source_url": "https://www.google.com/maps/place/Technopolis+Ruse/data=!4m7!3m6!1s0x40ae609ebb6886d3:0x8eb2e87c49ea953c!8m2!3d43.8316401!4d25.9700988!16s%2Fg%2F1261gfnx5!19sChIJ04Zou55grkARPJXqSXzoso4?authuser=0&hl=tr&rclk=1",
    "website_url": "http://www.technopolis.bg/",
    "rating_text": "4,4",
    "stars": null,
    "number_of_reviews": null,
    "price_level": "",
    "open_hours": "",
    "extraction_timestamp": "2025-06-07T13:50:19.994Z",
    "source_name": "google",
    "source_query": "Irrigation Equipment",
    "source_country": "BG",
    "country": "Bulgaria",
    "state": "Ruse Province",
    "city": "Ruse"
  },
  {
    "source_id": "ChIJZ-SNrrxgrkARB4chKi2R6Ls",
    "name": "ARTISTIKA",
    "category": "ARTISTIKA",
    "formatted_address": "4,5(205)",
    "phone_number": "+359887957894",
    "source_url": "https://www.google.com/maps/place/ARTISTIKA/data=!4m7!3m6!1s0x40ae60bcae8de467:0xbbe8912d2a218707!8m2!3d43.8383016!4d25.9787083!16s%2Fg%2F11c6y_9wb5!19sChIJZ-SNrrxgrkARB4chKi2R6Ls?authuser=0&hl=tr&rclk=1",
    "website_url": "https://artistika.bg/",
    "rating_text": "4,5",
    "stars": null,
    "number_of_reviews": null,
    "price_level": "",
    "open_hours": "",
    "extraction_timestamp": "2025-06-07T13:50:19.995Z",
    "source_name": "google",
    "source_query": "Irrigation Equipment",
    "source_country": "BG",
    "country": "Bulgaria",
    "state": "Ruse Province",
    "city": "Ruse"
  },
  {
    "source_id": "ChIJE1MN-1xhrkARKqEyHI07MCo",
    "name": "OGRADKI BG",
    "category": "OGRADKI BG",
    "formatted_address": "4,3(6)",
    "phone_number": "+359895675832",
    "source_url": "https://www.google.com/maps/place/OGRADKI+BG/data=!4m7!3m6!1s0x40ae615cfb0d5313:0x2a303b8d1c32a12a!8m2!3d43.8539914!4d25.9913739!16s%2Fg%2F11jgf0rqh4!19sChIJE1MN-1xhrkARKqEyHI07MCo?authuser=0&hl=tr&rclk=1",
    "website_url": "http://www.ogradki.bg/",
    "rating_text": "4,3",
    "stars": null,
    "number_of_reviews": null,
    "price_level": "",
    "open_hours": "",
    "extraction_timestamp": "2025-06-07T13:50:19.996Z",
    "source_name": "google",
    "source_query": "Irrigation Equipment",
    "source_country": "BG",
    "country": "Bulgaria",
    "state": "Ruse Province",
    "city": "Ruse"
  },
  {
    "source_id": "ChIJY4aLWqVnrkARjJ1ff1ZmMNI",
    "name": "Фиксед ООД - Оторизиран дилър на STIHL - Магазин и Сервиз",
    "category": "Фиксед ООД - Оторизиран дилър на STIHL - Магазин и Сервиз",
    "formatted_address": "3,0(6)",
    "phone_number": "+359878425460",
    "source_url": "https://www.google.com/maps/place/%D0%A4%D0%B8%D0%BA%D1%81%D0%B5%D0%B4+%D0%9E%D0%9E%D0%94+-+%D0%9E%D1%82%D0%BE%D1%80%D0%B8%D0%B7%D0%B8%D1%80%D0%B0%D0%BD+%D0%B4%D0%B8%D0%BB%D1%8A%D1%80+%D0%BD%D0%B0+STIHL+-+%D0%9C%D0%B0%D0%B3%D0%B0%D0%B7%D0%B8%D0%BD+%D0%B8+%D0%A1%D0%B5%D1%80%D0%B2%D0%B8%D0%B7/data=!4m7!3m6!1s0x40ae67a55a8b8663:0xd23066567f5f9d8c!8m2!3d43.855638!4d25.9848492!16s%2Fg%2F11fvy1g9kw!19sChIJY4aLWqVnrkARjJ1ff1ZmMNI?authuser=0&hl=tr&rclk=1",
    "website_url": "http://fixedltd.com/",
    "rating_text": "3,0",
    "stars": null,
    "number_of_reviews": null,
    "price_level": "",
    "open_hours": "",
    "extraction_timestamp": "2025-06-07T13:50:19.996Z",
    "source_name": "google",
    "source_query": "Irrigation Equipment",
    "source_country": "BG",
    "country": "Bulgaria",
    "state": "Ruse Province",
    "city": "Ruse"
  },
  {
    "source_id": "ChIJtcLQl51grkAR9a5Y_RyZsMI",
    "name": "Bul Drip",
    "category": "Bul Drip",
    "formatted_address": "",
    "phone_number": "+359887424020",
    "source_url": "https://www.google.com/maps/place/Bul+Drip/data=!4m7!3m6!1s0x40ae609d97d0c2b5:0xc2b0991cfd58aef5!8m2!3d43.8287244!4d25.9716352!16s%2Fg%2F1vljdv97!19sChIJtcLQl51grkAR9a5Y_RyZsMI?authuser=0&hl=tr&rclk=1",
    "website_url": "",
    "rating_text": "",
    "stars": null,
    "number_of_reviews": null,
    "price_level": "",
    "open_hours": "",
    "extraction_timestamp": "2025-06-07T13:50:19.997Z",
    "source_name": "google",
    "source_query": "Irrigation Equipment",
    "source_country": "BG",
    "country": "Bulgaria",
    "state": "Ruse Province",
    "city": "Ruse"
  },
  {
    "source_id": "ChIJly0pKrdgrkARoJZC1lgKWoY",
    "name": "ПОЛИВНИ СИСТЕМИ ЕООД",
    "category": "ПОЛИВНИ СИСТЕМИ ЕООД",
    "formatted_address": "4,7(11)",
    "phone_number": "+359887424020",
    "source_url": "https://www.google.com/maps/place/%D0%9F%D0%9E%D0%9B%D0%98%D0%92%D0%9D%D0%98+%D0%A1%D0%98%D0%A1%D0%A2%D0%95%D0%9C%D0%98+%D0%95%D0%9E%D0%9E%D0%94/data=!4m7!3m6!1s0x40ae60b72a292d97:0x865a0a58d64296a0!8m2!3d43.8355713!4d25.9656554!16s%2Fg%2F1hc2rnssk!19sChIJly0pKrdgrkARoJZC1lgKWoY?authuser=0&hl=tr&rclk=1",
    "website_url": "",
    "rating_text": "4,7",
    "stars": null,
    "number_of_reviews": null,
    "price_level": "",
    "open_hours": "",
    "extraction_timestamp": "2025-06-07T13:50:29.820Z",
    "source_name": "google",
    "source_query": "Irrigation Equipment",
    "source_country": "BG",
    "country": "Bulgaria",
    "state": "Ruse Province",
    "city": "Senovo"
  },
  {
    "source_id": "ChIJsYU6OH0Or0ARC3eRUz7FIsc",
    "name": "Напоителни Системи",
    "category": "Напоителни Системи",
    "formatted_address": "",
    "phone_number": "+359895843284",
    "source_url": "https://www.google.com/maps/place/%D0%9D%D0%B0%D0%BF%D0%BE%D0%B8%D1%82%D0%B5%D0%BB%D0%BD%D0%B8+%D0%A1%D0%B8%D1%81%D1%82%D0%B5%D0%BC%D0%B8/data=!4m7!3m6!1s0x40af0e7d383a85b1:0xc722c53e5391770b!8m2!3d43.5248284!4d26.5185956!16s%2Fg%2F11hyt13jl9!19sChIJsYU6OH0Or0ARC3eRUz7FIsc?authuser=0&hl=tr&rclk=1",
    "website_url": "http://www.napoitelnisystemi.eu/kontakti",
    "rating_text": "",
    "stars": null,
    "number_of_reviews": null,
    "price_level": "",
    "open_hours": "",
    "extraction_timestamp": "2025-06-07T13:50:29.821Z",
    "source_name": "google",
    "source_query": "Irrigation Equipment",
    "source_country": "BG",
    "country": "Bulgaria",
    "state": "Ruse Province",
    "city": "Senovo"
  },
  {
    "source_id": "ChIJQciuB6TurkARmK_LAb9KylI",
    "name": "МАГАЗИН ПЛАМ",
    "category": "МАГАЗИН ПЛАМ",
    "formatted_address": "4,7(39)",
    "phone_number": "+359889444831",
    "source_url": "https://www.google.com/maps/place/%D0%9C%D0%90%D0%93%D0%90%D0%97%D0%98%D0%9D+%D0%9F%D0%9B%D0%90%D0%9C/data=!4m7!3m6!1s0x40aeeea407aec841:0x52ca4abf01cbaf98!8m2!3d43.5847688!4d25.866599!16s%2Fg%2F11g6nhcfk3!19sChIJQciuB6TurkARmK_LAb9KylI?authuser=0&hl=tr&rclk=1",
    "website_url": "http://plameood.com/",
    "rating_text": "4,7",
    "stars": null,
    "number_of_reviews": null,
    "price_level": "",
    "open_hours": "",
    "extraction_timestamp": "2025-06-07T13:50:30.446Z",
    "source_name": "google",
    "source_query": "Irrigation Equipment",
    "source_country": "BG",
    "country": "Bulgaria",
    "state": "Ruse Province",
    "city": "Dve Mogili"
  },
  {
    "source_id": "ChIJly0pKrdgrkARoJZC1lgKWoY",
    "name": "ПОЛИВНИ СИСТЕМИ ЕООД",
    "category": "ПОЛИВНИ СИСТЕМИ ЕООД",
    "formatted_address": "4,7(11)",
    "phone_number": "+359887424020",
    "source_url": "https://www.google.com/maps/place/%D0%9F%D0%9E%D0%9B%D0%98%D0%92%D0%9D%D0%98+%D0%A1%D0%98%D0%A1%D0%A2%D0%95%D0%9C%D0%98+%D0%95%D0%9E%D0%9E%D0%94/data=!4m7!3m6!1s0x40ae60b72a292d97:0x865a0a58d64296a0!8m2!3d43.8355713!4d25.9656554!16s%2Fg%2F1hc2rnssk!19sChIJly0pKrdgrkARoJZC1lgKWoY?authuser=0&hl=tr&rclk=1",
    "website_url": "",
    "rating_text": "4,7",
    "stars": null,
    "number_of_reviews": null,
    "price_level": "",
    "open_hours": "",
    "extraction_timestamp": "2025-06-07T13:50:30.448Z",
    "source_name": "google",
    "source_query": "Irrigation Equipment",
    "source_country": "BG",
    "country": "Bulgaria",
    "state": "Ruse Province",
    "city": "Dve Mogili"
  },
  {
    "source_id": "ChIJ5V4SUgDvrkARKnXKdrS5Bk4",
    "name": "ПЕТРОВ 23",
    "category": "ПЕТРОВ 23",
    "formatted_address": "5,0(1)",
    "phone_number": "+359893600708",
    "source_url": "https://www.google.com/maps/place/%D0%9F%D0%95%D0%A2%D0%A0%D0%9E%D0%92+23/data=!4m7!3m6!1s0x40aeef0052125ee5:0x4e06b9b476ca752a!8m2!3d43.5903472!4d25.8739557!16s%2Fg%2F11wv9rqyzw!19sChIJ5V4SUgDvrkARKnXKdrS5Bk4?authuser=0&hl=tr&rclk=1",
    "website_url": "",
    "rating_text": "5,0",
    "stars": null,
    "number_of_reviews": null,
    "price_level": "",
    "open_hours": "",
    "extraction_timestamp": "2025-06-07T13:50:30.449Z",
    "source_name": "google",
    "source_query": "Irrigation Equipment",
    "source_country": "BG",
    "country": "Bulgaria",
    "state": "Ruse Province",
    "city": "Dve Mogili"
  },
  {
    "source_id": "ChIJHZPl3J7urkARs0TT1ZXw4KM",
    "name": "Kimt-D",
    "category": "Kimt-D",
    "formatted_address": "4,6(125)",
    "phone_number": "+359877421499",
    "source_url": "https://www.google.com/maps/place/Kimt-D/data=!4m7!3m6!1s0x40aeee9edce5931d:0xa3e0f095d5d344b3!8m2!3d43.5895019!4d25.8730233!16s%2Fg%2F1tn048zp!19sChIJHZPl3J7urkARs0TT1ZXw4KM?authuser=0&hl=tr&rclk=1",
    "website_url": "",
    "rating_text": "4,6",
    "stars": null,
    "number_of_reviews": null,
    "price_level": "",
    "open_hours": "",
    "extraction_timestamp": "2025-06-07T13:50:30.451Z",
    "source_name": "google",
    "source_query": "Irrigation Equipment",
    "source_country": "BG",
    "country": "Bulgaria",
    "state": "Ruse Province",
    "city": "Dve Mogili"
  },
  {
    "source_id": "ChIJE1MN-1xhrkARKqEyHI07MCo",
    "name": "OGRADKI BG",
    "category": "OGRADKI BG",
    "formatted_address": "4,3(6)",
    "phone_number": "+359895675832",
    "source_url": "https://www.google.com/maps/place/OGRADKI+BG/data=!4m7!3m6!1s0x40ae615cfb0d5313:0x2a303b8d1c32a12a!8m2!3d43.8539914!4d25.9913739!16s%2Fg%2F11jgf0rqh4!19sChIJE1MN-1xhrkARKqEyHI07MCo?authuser=0&hl=tr&rclk=1",
    "website_url": "http://www.ogradki.bg/",
    "rating_text": "4,3",
    "stars": null,
    "number_of_reviews": null,
    "price_level": "",
    "open_hours": "",
    "extraction_timestamp": "2025-06-07T13:50:30.452Z",
    "source_name": "google",
    "source_query": "Irrigation Equipment",
    "source_country": "BG",
    "country": "Bulgaria",
    "state": "Ruse Province",
    "city": "Dve Mogili"
  },
  {
    "source_id": "ChIJ3eSLbFLvrkARoVjUN8bMskQ",
    "name": "Q - SERVICE TRUCK&CAR - Автосервиз Иванов-Георгиев ООД",
    "category": "Q - SERVICE TRUCK&CAR - Автосервиз Иванов-Георгиев ООД",
    "formatted_address": "4,8(16)",
    "phone_number": "+359897846387",
    "source_url": "https://www.google.com/maps/place/Q+-+SERVICE+TRUCK%26CAR+-+%D0%90%D0%B2%D1%82%D0%BE%D1%81%D0%B5%D1%80%D0%B2%D0%B8%D0%B7+%D0%98%D0%B2%D0%B0%D0%BD%D0%BE%D0%B2-%D0%93%D0%B5%D0%BE%D1%80%D0%B3%D0%B8%D0%B5%D0%B2+%D0%9E%D0%9E%D0%94/data=!4m7!3m6!1s0x40aeef526c8be4dd:0x44b2ccc637d458a1!8m2!3d43.5857106!4d25.8637503!16s%2Fg%2F11s4668_vc!19sChIJ3eSLbFLvrkARoVjUN8bMskQ?authuser=0&hl=tr&rclk=1",
    "website_url": "http://www.mig-trans.com/",
    "rating_text": "4,8",
    "stars": null,
    "number_of_reviews": null,
    "price_level": "",
    "open_hours": "",
    "extraction_timestamp": "2025-06-07T13:50:30.454Z",
    "source_name": "google",
    "source_query": "Irrigation Equipment",
    "source_country": "BG",
    "country": "Bulgaria",
    "state": "Ruse Province",
    "city": "Dve Mogili"
  },
  {
    "source_id": "ChIJ2X5Ik5jurkARoyjz4HV0gSI",
    "name": "Patsoni",
    "category": "Patsoni",
    "formatted_address": "2,3(4)",
    "phone_number": "",
    "source_url": "https://www.google.com/maps/place/Patsoni/data=!4m7!3m6!1s0x40aeee9893487ed9:0x22817475e0f328a3!8m2!3d43.5893994!4d25.872901!16s%2Fg%2F11c7sr1q_q!19sChIJ2X5Ik5jurkARoyjz4HV0gSI?authuser=0&hl=tr&rclk=1",
    "website_url": "",
    "rating_text": "2,3",
    "stars": null,
    "number_of_reviews": null,
    "price_level": "",
    "open_hours": "",
    "extraction_timestamp": "2025-06-07T13:50:30.491Z",
    "source_name": "google",
    "source_query": "Irrigation Equipment",
    "source_country": "BG",
    "country": "Bulgaria",
    "state": "Ruse Province",
    "city": "Dve Mogili"
  },
  {
    "source_id": "ChIJtcLQl51grkAR9a5Y_RyZsMI",
    "name": "Bul Drip",
    "category": "Bul Drip",
    "formatted_address": "",
    "phone_number": "+359887424020",
    "source_url": "https://www.google.com/maps/place/Bul+Drip/data=!4m7!3m6!1s0x40ae609d97d0c2b5:0xc2b0991cfd58aef5!8m2!3d43.8287244!4d25.9716352!16s%2Fg%2F1vljdv97!19sChIJtcLQl51grkAR9a5Y_RyZsMI?authuser=0&hl=tr&rclk=1",
    "website_url": "",
    "rating_text": "",
    "stars": null,
    "number_of_reviews": null,
    "price_level": "",
    "open_hours": "",
    "extraction_timestamp": "2025-06-07T13:50:30.493Z",
    "source_name": "google",
    "source_query": "Irrigation Equipment",
    "source_country": "BG",
    "country": "Bulgaria",
    "state": "Ruse Province",
    "city": "Dve Mogili"
  },
  {
    "source_id": "ChIJly0pKrdgrkARoJZC1lgKWoY",
    "name": "ПОЛИВНИ СИСТЕМИ ЕООД",
    "category": "ПОЛИВНИ СИСТЕМИ ЕООД",
    "formatted_address": "4,7(11)",
    "phone_number": "+359887424020",
    "source_url": "https://www.google.com/maps/place/%D0%9F%D0%9E%D0%9B%D0%98%D0%92%D0%9D%D0%98+%D0%A1%D0%98%D0%A1%D0%A2%D0%95%D0%9C%D0%98+%D0%95%D0%9E%D0%9E%D0%94/data=!4m7!3m6!1s0x40ae60b72a292d97:0x865a0a58d64296a0!8m2!3d43.8355713!4d25.9656554!16s%2Fg%2F1hc2rnssk!19sChIJly0pKrdgrkARoJZC1lgKWoY?authuser=0&hl=tr&rclk=1",
    "website_url": "",
    "rating_text": "4,7",
    "stars": null,
    "number_of_reviews": null,
    "price_level": "",
    "open_hours": "",
    "extraction_timestamp": "2025-06-07T13:50:31.129Z",
    "source_name": "google",
    "source_query": "Irrigation Equipment",
    "source_country": "BG",
    "country": "Bulgaria",
    "state": "Ruse Province",
    "city": "Obshtina Dve Mogili"
  },
  {
    "source_id": "ChIJQciuB6TurkARmK_LAb9KylI",
    "name": "МАГАЗИН ПЛАМ",
    "category": "МАГАЗИН ПЛАМ",
    "formatted_address": "4,7(39)",
    "phone_number": "+359889444831",
    "source_url": "https://www.google.com/maps/place/%D0%9C%D0%90%D0%93%D0%90%D0%97%D0%98%D0%9D+%D0%9F%D0%9B%D0%90%D0%9C/data=!4m7!3m6!1s0x40aeeea407aec841:0x52ca4abf01cbaf98!8m2!3d43.5847688!4d25.866599!16s%2Fg%2F11g6nhcfk3!19sChIJQciuB6TurkARmK_LAb9KylI?authuser=0&hl=tr&rclk=1",
    "website_url": "http://plameood.com/",
    "rating_text": "4,7",
    "stars": null,
    "number_of_reviews": null,
    "price_level": "",
    "open_hours": "",
    "extraction_timestamp": "2025-06-07T13:50:31.131Z",
    "source_name": "google",
    "source_query": "Irrigation Equipment",
    "source_country": "BG",
    "country": "Bulgaria",
    "state": "Ruse Province",
    "city": "Obshtina Dve Mogili"
  },
  {
    "source_id": "ChIJGax_BlBdrkAR7fx-k2gj4lQ",
    "name": "Construction Tools EOOD, Husqvarna",
    "category": "Construction Tools EOOD, Husqvarna",
    "formatted_address": "Construction Tools EOOD, Husqvarna",
    "phone_number": "+35982810555",
    "source_url": "https://www.google.com/maps/place/Construction+Tools+EOOD,+Husqvarna/data=!4m7!3m6!1s0x40ae5d50067fac19:0x54e22368937efced!8m2!3d43.9015648!4d26.05922!16s%2Fg%2F11cs2c0p0j!19sChIJGax_BlBdrkAR7fx-k2gj4lQ?authuser=0&hl=tr&rclk=1",
    "website_url": "http://www.husqvarnacp.com/int/",
    "rating_text": "4,5",
    "stars": null,
    "number_of_reviews": null,
    "price_level": "",
    "open_hours": "",
    "extraction_timestamp": "2025-06-07T13:50:31.134Z",
    "source_name": "google",
    "source_query": "Irrigation Equipment",
    "source_country": "BG",
    "country": "Bulgaria",
    "state": "Ruse Province",
    "city": "Obshtina Dve Mogili"
  },
  {
    "source_id": "ChIJHZPl3J7urkARs0TT1ZXw4KM",
    "name": "Kimt-D",
    "category": "Kimt-D",
    "formatted_address": "4,6(125)",
    "phone_number": "+359877421499",
    "source_url": "https://www.google.com/maps/place/Kimt-D/data=!4m7!3m6!1s0x40aeee9edce5931d:0xa3e0f095d5d344b3!8m2!3d43.5895019!4d25.8730233!16s%2Fg%2F1tn048zp!19sChIJHZPl3J7urkARs0TT1ZXw4KM?authuser=0&hl=tr&rclk=1",
    "website_url": "",
    "rating_text": "4,6",
    "stars": null,
    "number_of_reviews": null,
    "price_level": "",
    "open_hours": "",
    "extraction_timestamp": "2025-06-07T13:50:31.136Z",
    "source_name": "google",
    "source_query": "Irrigation Equipment",
    "source_country": "BG",
    "country": "Bulgaria",
    "state": "Ruse Province",
    "city": "Obshtina Dve Mogili"
  },
  {
    "source_id": "ChIJIcAMFnVzXCcReEm9ICsbXno",
    "name": "Агродиал ЕООД",
    "category": "Агродиал ЕООД",
    "formatted_address": "5,0(3)",
    "phone_number": "+359876889804",
    "source_url": "https://www.google.com/maps/place/%D0%90%D0%B3%D1%80%D0%BE%D0%B4%D0%B8%D0%B0%D0%BB+%D0%95%D0%9E%D0%9E%D0%94/data=!4m7!3m6!1s0x275c7375160cc021:0x7a5e1b2b20bd4978!8m2!3d42.725411!4d25.5431784!16s%2Fg%2F11l1f72d84!19sChIJIcAMFnVzXCcReEm9ICsbXno?authuser=0&hl=tr&rclk=1",
    "website_url": "https://www.agroall.bg/",
    "rating_text": "5,0",
    "stars": null,
    "number_of_reviews": null,
    "price_level": "",
    "open_hours": "",
    "extraction_timestamp": "2025-06-07T13:50:31.137Z",
    "source_name": "google",
    "source_query": "Irrigation Equipment",
    "source_country": "BG",
    "country": "Bulgaria",
    "state": "Ruse Province",
    "city": "Obshtina Dve Mogili"
  },
  {
    "source_id": "ChIJkdQRcI7prkARl7jPzzLYetY",
    "name": "Nerma",
    "category": "Nerma",
    "formatted_address": "4,9(19)",
    "phone_number": "",
    "source_url": "https://www.google.com/maps/place/Nerma/data=!4m7!3m6!1s0x40aee98e7011d491:0xd67ad832cfcfb897!8m2!3d43.5385847!4d25.8708299!16s%2Fg%2F11snpw7yc8!19sChIJkdQRcI7prkARl7jPzzLYetY?authuser=0&hl=tr&rclk=1",
    "website_url": "",
    "rating_text": "4,9",
    "stars": null,
    "number_of_reviews": null,
    "price_level": "",
    "open_hours": "",
    "extraction_timestamp": "2025-06-07T13:50:31.138Z",
    "source_name": "google",
    "source_query": "Irrigation Equipment",
    "source_country": "BG",
    "country": "Bulgaria",
    "state": "Ruse Province",
    "city": "Obshtina Dve Mogili"
  },
  {
    "source_id": "ChIJ5V4SUgDvrkARKnXKdrS5Bk4",
    "name": "ПЕТРОВ 23",
    "category": "ПЕТРОВ 23",
    "formatted_address": "5,0(1)",
    "phone_number": "+359893600708",
    "source_url": "https://www.google.com/maps/place/%D0%9F%D0%95%D0%A2%D0%A0%D0%9E%D0%92+23/data=!4m7!3m6!1s0x40aeef0052125ee5:0x4e06b9b476ca752a!8m2!3d43.5903472!4d25.8739557!16s%2Fg%2F11wv9rqyzw!19sChIJ5V4SUgDvrkARKnXKdrS5Bk4?authuser=0&hl=tr&rclk=1",
    "website_url": "",
    "rating_text": "5,0",
    "stars": null,
    "number_of_reviews": null,
    "price_level": "",
    "open_hours": "",
    "extraction_timestamp": "2025-06-07T13:50:31.140Z",
    "source_name": "google",
    "source_query": "Irrigation Equipment",
    "source_country": "BG",
    "country": "Bulgaria",
    "state": "Ruse Province",
    "city": "Obshtina Dve Mogili"
  },
  {
    "source_id": "ChIJE1MN-1xhrkARKqEyHI07MCo",
    "name": "OGRADKI BG",
    "category": "OGRADKI BG",
    "formatted_address": "4,3(6)",
    "phone_number": "+359895675832",
    "source_url": "https://www.google.com/maps/place/OGRADKI+BG/data=!4m7!3m6!1s0x40ae615cfb0d5313:0x2a303b8d1c32a12a!8m2!3d43.8539914!4d25.9913739!16s%2Fg%2F11jgf0rqh4!19sChIJE1MN-1xhrkARKqEyHI07MCo?authuser=0&hl=tr&rclk=1",
    "website_url": "http://www.ogradki.bg/",
    "rating_text": "4,3",
    "stars": null,
    "number_of_reviews": null,
    "price_level": "",
    "open_hours": "",
    "extraction_timestamp": "2025-06-07T13:50:31.142Z",
    "source_name": "google",
    "source_query": "Irrigation Equipment",
    "source_country": "BG",
    "country": "Bulgaria",
    "state": "Ruse Province",
    "city": "Obshtina Dve Mogili"
  },
  {
    "source_id": "ChIJlT5Dh6pgrkARKcrkYAe7aBo",
    "name": "AGR SYSTEMS LTD.",
    "category": "AGR SYSTEMS LTD.",
    "formatted_address": "Русе, кв. Здравец-изток 1, Ул. Прага 1, Бл. Камен Гараж 1-11Açık ⋅ Kapanış saati: 20:00 · +359 88 879 4380",
    "phone_number": "+359888794380",
    "source_url": "https://www.google.com/maps/place/AGR+SYSTEMS+LTD./data=!4m7!3m6!1s0x40ae60aa87433e95:0x1a68bb0760e4ca29!8m2!3d43.84752!4d25.99127!16s%2Fg%2F11dxhzh3vm!19sChIJlT5Dh6pgrkARKcrkYAe7aBo?authuser=0&hl=tr&rclk=1",
    "website_url": "",
    "rating_text": "",
    "stars": null,
    "number_of_reviews": null,
    "price_level": "",
    "open_hours": "",
    "extraction_timestamp": "2025-06-07T13:50:31.144Z",
    "source_name": "google",
    "source_query": "Irrigation Equipment",
    "source_country": "BG",
    "country": "Bulgaria",
    "state": "Ruse Province",
    "city": "Obshtina Dve Mogili"
  },
  {
    "source_id": "ChIJsYU6OH0Or0ARC3eRUz7FIsc",
    "name": "Напоителни Системи",
    "category": "Напоителни Системи",
    "formatted_address": "",
    "phone_number": "+359895843284",
    "source_url": "https://www.google.com/maps/place/%D0%9D%D0%B0%D0%BF%D0%BE%D0%B8%D1%82%D0%B5%D0%BB%D0%BD%D0%B8+%D0%A1%D0%B8%D1%81%D1%82%D0%B5%D0%BC%D0%B8/data=!4m7!3m6!1s0x40af0e7d383a85b1:0xc722c53e5391770b!8m2!3d43.5248284!4d26.5185956!16s%2Fg%2F11hyt13jl9!19sChIJsYU6OH0Or0ARC3eRUz7FIsc?authuser=0&hl=tr&rclk=1",
    "website_url": "http://www.napoitelnisystemi.eu/kontakti",
    "rating_text": "",
    "stars": null,
    "number_of_reviews": null,
    "price_level": "",
    "open_hours": "",
    "extraction_timestamp": "2025-06-07T13:50:31.145Z",
    "source_name": "google",
    "source_query": "Irrigation Equipment",
    "source_country": "BG",
    "country": "Bulgaria",
    "state": "Ruse Province",
    "city": "Obshtina Dve Mogili"
  },
  {
    "source_id": "ChIJtcLQl51grkAR9a5Y_RyZsMI",
    "name": "Bul Drip",
    "category": "Bul Drip",
    "formatted_address": "",
    "phone_number": "+359887424020",
    "source_url": "https://www.google.com/maps/place/Bul+Drip/data=!4m7!3m6!1s0x40ae609d97d0c2b5:0xc2b0991cfd58aef5!8m2!3d43.8287244!4d25.9716352!16s%2Fg%2F1vljdv97!19sChIJtcLQl51grkAR9a5Y_RyZsMI?authuser=0&hl=tr&rclk=1",
    "website_url": "",
    "rating_text": "",
    "stars": null,
    "number_of_reviews": null,
    "price_level": "",
    "open_hours": "",
    "extraction_timestamp": "2025-06-07T13:50:31.147Z",
    "source_name": "google",
    "source_query": "Irrigation Equipment",
    "source_country": "BG",
    "country": "Bulgaria",
    "state": "Ruse Province",
    "city": "Obshtina Dve Mogili"
  },
  {
    "source_id": "ChIJly0pKrdgrkARoJZC1lgKWoY",
    "name": "ПОЛИВНИ СИСТЕМИ ЕООД",
    "category": "ПОЛИВНИ СИСТЕМИ ЕООД",
    "formatted_address": "4,7(11)",
    "phone_number": "+359887424020",
    "source_url": "https://www.google.com/maps/place/%D0%9F%D0%9E%D0%9B%D0%98%D0%92%D0%9D%D0%98+%D0%A1%D0%98%D0%A1%D0%A2%D0%95%D0%9C%D0%98+%D0%95%D0%9E%D0%9E%D0%94/data=!4m7!3m6!1s0x40ae60b72a292d97:0x865a0a58d64296a0!8m2!3d43.8355713!4d25.9656554!16s%2Fg%2F1hc2rnssk!19sChIJly0pKrdgrkARoJZC1lgKWoY?authuser=0&hl=tr&rclk=1",
    "website_url": "",
    "rating_text": "4,7",
    "stars": null,
    "number_of_reviews": null,
    "price_level": "",
    "open_hours": "",
    "extraction_timestamp": "2025-06-07T13:50:32.969Z",
    "source_name": "google",
    "source_query": "Irrigation Equipment",
    "source_country": "BG",
    "country": "Bulgaria",
    "state": "Ruse Province",
    "city": "Obshtina Byala"
  },
  {
    "source_id": "ChIJlVUWisBgrkAR_9GDqyMSnjE",
    "name": "Irrigation Systems",
    "category": "Irrigation Systems",
    "formatted_address": "1,0(2)",
    "phone_number": "+35982825748",
    "source_url": "https://www.google.com/maps/place/Irrigation+Systems/data=!4m7!3m6!1s0x40ae60c08a165595:0x319e1223ab83d1ff!8m2!3d43.8419922!4d25.9542701!16s%2Fg%2F11h1lh6ml!19sChIJlVUWisBgrkAR_9GDqyMSnjE?authuser=0&hl=tr&rclk=1",
    "website_url": "",
    "rating_text": "1,0",
    "stars": null,
    "number_of_reviews": null,
    "price_level": "",
    "open_hours": "",
    "extraction_timestamp": "2025-06-07T13:50:32.970Z",
    "source_name": "google",
    "source_query": "Irrigation Equipment",
    "source_country": "BG",
    "country": "Bulgaria",
    "state": "Ruse Province",
    "city": "Obshtina Byala"
  },
  {
    "source_id": "ChIJmU7e525hrkAR4RDHt16KqpU",
    "name": "My Water BG",
    "category": "My Water BG",
    "formatted_address": "4,9(7)",
    "phone_number": "+359877799499",
    "source_url": "https://www.google.com/maps/place/My+Water+BG/data=!4m7!3m6!1s0x40ae616ee7de4e99:0x95aa8a5eb7c710e1!8m2!3d43.8418027!4d25.9589377!16s%2Fg%2F11jbnm25dz!19sChIJmU7e525hrkAR4RDHt16KqpU?authuser=0&hl=tr&rclk=1",
    "website_url": "http://mywater.bg/",
    "rating_text": "4,9",
    "stars": null,
    "number_of_reviews": null,
    "price_level": "",
    "open_hours": "",
    "extraction_timestamp": "2025-06-07T13:50:32.971Z",
    "source_name": "google",
    "source_query": "Irrigation Equipment",
    "source_country": "BG",
    "country": "Bulgaria",
    "state": "Ruse Province",
    "city": "Obshtina Byala"
  },
  {
    "source_id": "ChIJKcKJa05nrkARIkDmtycNem4",
    "name": "Филипчев и Ко ООД",
    "category": "Филипчев и Ко ООД",
    "formatted_address": "4,6(100)",
    "phone_number": "+359897843924",
    "source_url": "https://www.google.com/maps/place/%D0%A4%D0%B8%D0%BB%D0%B8%D0%BF%D1%87%D0%B5%D0%B2+%D0%B8+%D0%9A%D0%BE+%D0%9E%D0%9E%D0%94/data=!4m7!3m6!1s0x40ae674e6b89c229:0x6e7a0d27b7e64022!8m2!3d43.8551825!4d25.9854165!16s%2Fg%2F11b76kr81g!19sChIJKcKJa05nrkARIkDmtycNem4?authuser=0&hl=tr&rclk=1",
    "website_url": "",
    "rating_text": "4,6",
    "stars": null,
    "number_of_reviews": null,
    "price_level": "",
    "open_hours": "",
    "extraction_timestamp": "2025-06-07T13:50:32.971Z",
    "source_name": "google",
    "source_query": "Irrigation Equipment",
    "source_country": "BG",
    "country": "Bulgaria",
    "state": "Ruse Province",
    "city": "Obshtina Byala"
  },
  {
    "source_id": "ChIJBYl0l8BgrkARoib0bs3raXE",
    "name": "Stanimir Petrikov",
    "category": "Stanimir Petrikov",
    "formatted_address": "4,1(124)",
    "phone_number": "+35982834605",
    "source_url": "https://www.google.com/maps/place/Stanimir+Petrikov/data=!4m7!3m6!1s0x40ae60c097748905:0x7169ebcd6ef426a2!8m2!3d43.8424721!4d25.9615535!16s%2Fg%2F1tcz6tx1!19sChIJBYl0l8BgrkARoib0bs3raXE?authuser=0&hl=tr&rclk=1",
    "website_url": "http://www.petrikov-bg.com/",
    "rating_text": "4,1",
    "stars": null,
    "number_of_reviews": null,
    "price_level": "",
    "open_hours": "",
    "extraction_timestamp": "2025-06-07T13:50:32.972Z",
    "source_name": "google",
    "source_query": "Irrigation Equipment",
    "source_country": "BG",
    "country": "Bulgaria",
    "state": "Ruse Province",
    "city": "Obshtina Byala"
  },
  {
    "source_id": "ChIJA2QFEs9grkARvmcbkpo6J34",
    "name": "Bulgar Ai Ti En",
    "category": "Bulgar Ai Ti En",
    "formatted_address": "5,0(1)",
    "phone_number": "+35982822093",
    "source_url": "https://www.google.com/maps/place/Bulgar+Ai+Ti+En/data=!4m7!3m6!1s0x40ae60cf12056403:0x7e273a9a921b67be!8m2!3d43.8508151!4d25.9538524!16s%2Fg%2F1vd3t8w_!19sChIJA2QFEs9grkARvmcbkpo6J34?authuser=0&hl=tr&rclk=1",
    "website_url": "",
    "rating_text": "5,0",
    "stars": null,
    "number_of_reviews": null,
    "price_level": "",
    "open_hours": "",
    "extraction_timestamp": "2025-06-07T13:50:32.973Z",
    "source_name": "google",
    "source_query": "Irrigation Equipment",
    "source_country": "BG",
    "country": "Bulgaria",
    "state": "Ruse Province",
    "city": "Obshtina Byala"
  },
  {
    "source_id": "ChIJE1MN-1xhrkARKqEyHI07MCo",
    "name": "OGRADKI BG",
    "category": "OGRADKI BG",
    "formatted_address": "4,3(6)",
    "phone_number": "+359895675832",
    "source_url": "https://www.google.com/maps/place/OGRADKI+BG/data=!4m7!3m6!1s0x40ae615cfb0d5313:0x2a303b8d1c32a12a!8m2!3d43.8539914!4d25.9913739!16s%2Fg%2F11jgf0rqh4!19sChIJE1MN-1xhrkARKqEyHI07MCo?authuser=0&hl=tr&rclk=1",
    "website_url": "http://www.ogradki.bg/",
    "rating_text": "4,3",
    "stars": null,
    "number_of_reviews": null,
    "price_level": "",
    "open_hours": "",
    "extraction_timestamp": "2025-06-07T13:50:32.973Z",
    "source_name": "google",
    "source_query": "Irrigation Equipment",
    "source_country": "BG",
    "country": "Bulgaria",
    "state": "Ruse Province",
    "city": "Obshtina Byala"
  },
  {
    "source_id": "ChIJtcLQl51grkAR9a5Y_RyZsMI",
    "name": "Bul Drip",
    "category": "Bul Drip",
    "formatted_address": "",
    "phone_number": "+359887424020",
    "source_url": "https://www.google.com/maps/place/Bul+Drip/data=!4m7!3m6!1s0x40ae609d97d0c2b5:0xc2b0991cfd58aef5!8m2!3d43.8287244!4d25.9716352!16s%2Fg%2F1vljdv97!19sChIJtcLQl51grkAR9a5Y_RyZsMI?authuser=0&hl=tr&rclk=1",
    "website_url": "",
    "rating_text": "",
    "stars": null,
    "number_of_reviews": null,
    "price_level": "",
    "open_hours": "",
    "extraction_timestamp": "2025-06-07T13:50:32.974Z",
    "source_name": "google",
    "source_query": "Irrigation Equipment",
    "source_country": "BG",
    "country": "Bulgaria",
    "state": "Ruse Province",
    "city": "Obshtina Byala"
  },
  {
    "source_id": "ChIJaR5wldhhrkAR2UEopH9G7YY",
    "name": "\"Водопроводни Решения Русе\"- професионални вик услуги,vik uslugi",
    "category": "\"Водопроводни Решения Русе\"- професионални вик услуги,vik uslugi",
    "formatted_address": "\"Водопроводни Решения Русе\"- професионални вик услуги,vik uslugi",
    "phone_number": "+359893967820",
    "source_url": "https://www.google.com/maps/place/%22%D0%92%D0%BE%D0%B4%D0%BE%D0%BF%D1%80%D0%BE%D0%B2%D0%BE%D0%B4%D0%BD%D0%B8+%D0%A0%D0%B5%D1%88%D0%B5%D0%BD%D0%B8%D1%8F+%D0%A0%D1%83%D1%81%D0%B5%22-+%D0%BF%D1%80%D0%BE%D1%84%D0%B5%D1%81%D0%B8%D0%BE%D0%BD%D0%B0%D0%BB%D0%BD%D0%B8+%D0%B2%D0%B8%D0%BA+%D1%83%D1%81%D0%BB%D1%83%D0%B3%D0%B8,vik+uslugi/data=!4m7!3m6!1s0x40ae61d895701e69:0x86ed467fa42841d9!8m2!3d43.8456948!4d25.9561749!16s%2Fg%2F11t1rl1b_s!19sChIJaR5wldhhrkAR2UEopH9G7YY?authuser=0&hl=tr&rclk=1",
    "website_url": "",
    "rating_text": "5,0",
    "stars": null,
    "number_of_reviews": null,
    "price_level": "",
    "open_hours": "",
    "extraction_timestamp": "2025-06-07T13:50:32.975Z",
    "source_name": "google",
    "source_query": "Irrigation Equipment",
    "source_country": "BG",
    "country": "Bulgaria",
    "state": "Ruse Province",
    "city": "Obshtina Byala"
  },
  {
    "source_id": "ChIJH9d6HZxgrkARhAG6t3LjBGE",
    "name": "PRAKTIS",
    "category": "PRAKTIS",
    "formatted_address": "4,1(695)",
    "phone_number": "+35982599196",
    "source_url": "https://www.google.com/maps/place/PRAKTIS/data=!4m7!3m6!1s0x40ae609c1d7ad71f:0x6104e372b7ba0184!8m2!3d43.8304774!4d25.9691806!16s%2Fg%2F11b7g0y85k!19sChIJH9d6HZxgrkARhAG6t3LjBGE?authuser=0&hl=tr&rclk=1",
    "website_url": "https://praktis.bg/",
    "rating_text": "4,1",
    "stars": null,
    "number_of_reviews": null,
    "price_level": "",
    "open_hours": "",
    "extraction_timestamp": "2025-06-07T13:50:32.975Z",
    "source_name": "google",
    "source_query": "Irrigation Equipment",
    "source_country": "BG",
    "country": "Bulgaria",
    "state": "Ruse Province",
    "city": "Obshtina Byala"
  },
  {
    "source_id": "ChIJs62PjM1grkAREZPB-_AnGyU",
    "name": "VAMEKS - Complete Plumbing in Ruse",
    "category": "VAMEKS - Complete Plumbing in Ruse",
    "formatted_address": "4,6(225)",
    "phone_number": "+359878780935",
    "source_url": "https://www.google.com/maps/place/VAMEKS+-+Complete+Plumbing+in+Ruse/data=!4m7!3m6!1s0x40ae60cd8c8fadb3:0x251b27f0fbc19311!8m2!3d43.844799!4d25.9456668!16s%2Fg%2F1tfbwz9p!19sChIJs62PjM1grkAREZPB-_AnGyU?authuser=0&hl=tr&rclk=1",
    "website_url": "http://vamex.bg/",
    "rating_text": "4,6",
    "stars": null,
    "number_of_reviews": null,
    "price_level": "",
    "open_hours": "",
    "extraction_timestamp": "2025-06-07T13:50:32.976Z",
    "source_name": "google",
    "source_query": "Irrigation Equipment",
    "source_country": "BG",
    "country": "Bulgaria",
    "state": "Ruse Province",
    "city": "Obshtina Byala"
  },
  {
    "source_id": "ChIJaXd9U0xhrkARHcx07NhYKkM",
    "name": "Мегазид",
    "category": "Мегазид",
    "formatted_address": "4,7(25)",
    "phone_number": "+359878297398",
    "source_url": "https://www.google.com/maps/place/%D0%9C%D0%B5%D0%B3%D0%B0%D0%B7%D0%B8%D0%B4/data=!4m7!3m6!1s0x40ae614c537d7769:0x432a58d8ec74cc1d!8m2!3d43.8281084!4d25.9489558!16s%2Fg%2F11rff6n2_k!19sChIJaXd9U0xhrkARHcx07NhYKkM?authuser=0&hl=tr&rclk=1",
    "website_url": "",
    "rating_text": "4,7",
    "stars": null,
    "number_of_reviews": null,
    "price_level": "",
    "open_hours": "",
    "extraction_timestamp": "2025-06-07T13:50:32.976Z",
    "source_name": "google",
    "source_query": "Irrigation Equipment",
    "source_country": "BG",
    "country": "Bulgaria",
    "state": "Ruse Province",
    "city": "Obshtina Byala"
  },
  {
    "source_id": "ChIJD92VEqFhrkAR_4BbPhSq43U",
    "name": "Левски ЕООД",
    "category": "Левски ЕООД",
    "formatted_address": "4,6(35)",
    "phone_number": "+359878654392",
    "source_url": "https://www.google.com/maps/place/%D0%9B%D0%B5%D0%B2%D1%81%D0%BA%D0%B8+%D0%95%D0%9E%D0%9E%D0%94/data=!4m7!3m6!1s0x40ae61a11295dd0f:0x75e3aa143e5b80ff!8m2!3d43.8300704!4d25.9747011!16s%2Fg%2F11lkdwg8qj!19sChIJD92VEqFhrkAR_4BbPhSq43U?authuser=0&hl=tr&rclk=1",
    "website_url": "https://levski-eood.com/",
    "rating_text": "4,6",
    "stars": null,
    "number_of_reviews": null,
    "price_level": "",
    "open_hours": "",
    "extraction_timestamp": "2025-06-07T13:50:32.977Z",
    "source_name": "google",
    "source_query": "Irrigation Equipment",
    "source_country": "BG",
    "country": "Bulgaria",
    "state": "Ruse Province",
    "city": "Obshtina Byala"
  },
  {
    "source_id": "ChIJN8oHJ7FgrkARARGuEsDS1KI",
    "name": "Praktiker Ruse",
    "category": "Praktiker Ruse",
    "formatted_address": "4,4(1.382)",
    "phone_number": "+35982887120",
    "source_url": "https://www.google.com/maps/place/Praktiker+Ruse/data=!4m7!3m6!1s0x40ae60b12707ca37:0xa2d4d2c012ae1101!8m2!3d43.8468434!4d25.967147!16s%2Fg%2F1z44rc7q3!19sChIJN8oHJ7FgrkARARGuEsDS1KI?authuser=0&hl=tr&rclk=1",
    "website_url": "http://www.praktiker.bg/",
    "rating_text": "4,4",
    "stars": null,
    "number_of_reviews": null,
    "price_level": "",
    "open_hours": "",
    "extraction_timestamp": "2025-06-07T13:50:32.979Z",
    "source_name": "google",
    "source_query": "Irrigation Equipment",
    "source_country": "BG",
    "country": "Bulgaria",
    "state": "Ruse Province",
    "city": "Obshtina Byala"
  },
  {
    "source_id": "ChIJMd-r3-LDrkARxIGtXpDM6ik",
    "name": "The Market",
    "category": "The Market",
    "formatted_address": "4,0(410)",
    "phone_number": "",
    "source_url": "https://www.google.com/maps/place/The+Market/data=!4m7!3m6!1s0x40aec3e2dfabdf31:0x29eacc905ead81c4!8m2!3d43.4579889!4d25.7390106!16s%2Fg%2F12qf4wb_7!19sChIJMd-r3-LDrkARxIGtXpDM6ik?authuser=0&hl=tr&rclk=1",
    "website_url": "",
    "rating_text": "4,0",
    "stars": null,
    "number_of_reviews": null,
    "price_level": "",
    "open_hours": "",
    "extraction_timestamp": "2025-06-07T13:50:32.980Z",
    "source_name": "google",
    "source_query": "Irrigation Equipment",
    "source_country": "BG",
    "country": "Bulgaria",
    "state": "Ruse Province",
    "city": "Obshtina Byala"
  },
  {
    "source_id": "ChIJl9iX1blgrkAR1f5qhknIeFY",
    "name": "Mr.Bricolage Ruse",
    "category": "Mr.Bricolage Ruse",
    "formatted_address": "4,3(2.585)",
    "phone_number": "+359882292869",
    "source_url": "https://www.google.com/maps/place/Mr.Bricolage+Ruse/data=!4m7!3m6!1s0x40ae60b9d597d897:0x5678c849866afed5!8m2!3d43.8458032!4d25.9623594!16s%2Fg%2F1tsr1pr5!19sChIJl9iX1blgrkAR1f5qhknIeFY?authuser=0&hl=tr&rclk=1",
    "website_url": "https://mr-bricolage.bg/",
    "rating_text": "4,3",
    "stars": null,
    "number_of_reviews": null,
    "price_level": "",
    "open_hours": "",
    "extraction_timestamp": "2025-06-07T13:50:32.982Z",
    "source_name": "google",
    "source_query": "Irrigation Equipment",
    "source_country": "BG",
    "country": "Bulgaria",
    "state": "Ruse Province",
    "city": "Obshtina Byala"
  },
  {
    "source_id": "ChIJZ-SNrrxgrkARB4chKi2R6Ls",
    "name": "ARTISTIKA",
    "category": "ARTISTIKA",
    "formatted_address": "4,5(205)",
    "phone_number": "+359887957894",
    "source_url": "https://www.google.com/maps/place/ARTISTIKA/data=!4m7!3m6!1s0x40ae60bcae8de467:0xbbe8912d2a218707!8m2!3d43.8383016!4d25.9787083!16s%2Fg%2F11c6y_9wb5!19sChIJZ-SNrrxgrkARB4chKi2R6Ls?authuser=0&hl=tr&rclk=1",
    "website_url": "https://artistika.bg/",
    "rating_text": "4,5",
    "stars": null,
    "number_of_reviews": null,
    "price_level": "",
    "open_hours": "",
    "extraction_timestamp": "2025-06-07T13:50:32.983Z",
    "source_name": "google",
    "source_query": "Irrigation Equipment",
    "source_country": "BG",
    "country": "Bulgaria",
    "state": "Ruse Province",
    "city": "Obshtina Byala"
  },
  {
    "source_id": "ChIJgQNa8ZhgrkARhQgSz4HK6Xs",
    "name": "Магазин \"Жираф\"",
    "category": "Магазин \"Жираф\"",
    "formatted_address": "4,2(629)",
    "phone_number": "+35982860943",
    "source_url": "https://www.google.com/maps/place/%D0%9C%D0%B0%D0%B3%D0%B0%D0%B7%D0%B8%D0%BD+%22%D0%96%D0%B8%D1%80%D0%B0%D1%84%22/data=!4m7!3m6!1s0x40ae6098f15a0381:0x7be9ca81cf120885!8m2!3d43.8349058!4d25.9678761!16s%2Fg%2F1v82_ltz!19sChIJgQNa8ZhgrkARhQgSz4HK6Xs?authuser=0&hl=tr&rclk=1",
    "website_url": "https://9151-bg.all.biz/",
    "rating_text": "4,2",
    "stars": null,
    "number_of_reviews": null,
    "price_level": "",
    "open_hours": "",
    "extraction_timestamp": "2025-06-07T13:50:32.984Z",
    "source_name": "google",
    "source_query": "Irrigation Equipment",
    "source_country": "BG",
    "country": "Bulgaria",
    "state": "Ruse Province",
    "city": "Obshtina Byala"
  },
  {
    "source_id": "ChIJKbEXaQDDrkARZ-obnuSRk30",
    "name": "РИМЕС ВЕТ",
    "category": "РИМЕС ВЕТ",
    "formatted_address": "",
    "phone_number": "+359888002390",
    "source_url": "https://www.google.com/maps/place/%D0%A0%D0%98%D0%9C%D0%95%D0%A1+%D0%92%D0%95%D0%A2/data=!4m7!3m6!1s0x40aec3006917b129:0x7d9391e49e1bea67!8m2!3d43.4533421!4d25.7391241!16s%2Fg%2F11x7fb9qy8!19sChIJKbEXaQDDrkARZ-obnuSRk30?authuser=0&hl=tr&rclk=1",
    "website_url": "",
    "rating_text": "",
    "stars": null,
    "number_of_reviews": null,
    "price_level": "",
    "open_hours": "",
    "extraction_timestamp": "2025-06-07T13:50:32.984Z",
    "source_name": "google",
    "source_query": "Irrigation Equipment",
    "source_country": "BG",
    "country": "Bulgaria",
    "state": "Ruse Province",
    "city": "Obshtina Byala"
  },
  {
    "source_id": "ChIJNcPZv5tgrkAR-4bsRhDlZIg",
    "name": "Шоне - ООД",
    "category": "Шоне - ООД",
    "formatted_address": "4,2(126)",
    "phone_number": "+35982860893",
    "source_url": "https://www.google.com/maps/place/%D0%A8%D0%BE%D0%BD%D0%B5+-+%D0%9E%D0%9E%D0%94/data=!4m7!3m6!1s0x40ae609bbfd9c335:0x8864e51046ec86fb!8m2!3d43.8305879!4d25.9657133!16s%2Fg%2F11cn60zb3r!19sChIJNcPZv5tgrkAR-4bsRhDlZIg?authuser=0&hl=tr&rclk=1",
    "website_url": "",
    "rating_text": "4,2",
    "stars": null,
    "number_of_reviews": null,
    "price_level": "",
    "open_hours": "",
    "extraction_timestamp": "2025-06-07T13:50:32.985Z",
    "source_name": "google",
    "source_query": "Irrigation Equipment",
    "source_country": "BG",
    "country": "Bulgaria",
    "state": "Ruse Province",
    "city": "Obshtina Byala"
  },
  {
    "source_id": "ChIJly0pKrdgrkARoJZC1lgKWoY",
    "name": "ПОЛИВНИ СИСТЕМИ ЕООД",
    "category": "ПОЛИВНИ СИСТЕМИ ЕООД",
    "formatted_address": "4,7(11)",
    "phone_number": "+359887424020",
    "source_url": "https://www.google.com/maps/place/%D0%9F%D0%9E%D0%9B%D0%98%D0%92%D0%9D%D0%98+%D0%A1%D0%98%D0%A1%D0%A2%D0%95%D0%9C%D0%98+%D0%95%D0%9E%D0%9E%D0%94/data=!4m7!3m6!1s0x40ae60b72a292d97:0x865a0a58d64296a0!8m2!3d43.8355713!4d25.9656554!16s%2Fg%2F1hc2rnssk!19sChIJly0pKrdgrkARoJZC1lgKWoY?authuser=0&hl=tr&rclk=1",
    "website_url": "",
    "rating_text": "4,7",
    "stars": null,
    "number_of_reviews": null,
    "price_level": "",
    "open_hours": "",
    "extraction_timestamp": "2025-06-07T13:50:40.099Z",
    "source_name": "google",
    "source_query": "Irrigation Equipment",
    "source_country": "BG",
    "country": "Bulgaria",
    "state": "Ruse Province",
    "city": "Obshtina Tsenovo"
  },
  {
    "source_id": "ChIJE4rpMsTArkARsRRndlsCHWQ",
    "name": "TOPLIVO - Warehouse White",
    "category": "TOPLIVO - Warehouse White",
    "formatted_address": "4,6(7)",
    "phone_number": "+35981771775",
    "source_url": "https://www.google.com/maps/place/TOPLIVO+-+Warehouse+White/data=!4m7!3m6!1s0x40aec0c432e98a13:0x641d025b766714b1!8m2!3d43.4757119!4d25.6706313!16s%2Fg%2F11g8y9mvn4!19sChIJE4rpMsTArkARsRRndlsCHWQ?authuser=0&hl=tr&rclk=1",
    "website_url": "http://toplivo.bg/",
    "rating_text": "4,6",
    "stars": null,
    "number_of_reviews": null,
    "price_level": "",
    "open_hours": "",
    "extraction_timestamp": "2025-06-07T13:50:40.121Z",
    "source_name": "google",
    "source_query": "Irrigation Equipment",
    "source_country": "BG",
    "country": "Bulgaria",
    "state": "Ruse Province",
    "city": "Obshtina Tsenovo"
  },
  {
    "source_id": "ChIJQciuB6TurkARmK_LAb9KylI",
    "name": "МАГАЗИН ПЛАМ",
    "category": "МАГАЗИН ПЛАМ",
    "formatted_address": "4,7(39)",
    "phone_number": "+359889444831",
    "source_url": "https://www.google.com/maps/place/%D0%9C%D0%90%D0%93%D0%90%D0%97%D0%98%D0%9D+%D0%9F%D0%9B%D0%90%D0%9C/data=!4m7!3m6!1s0x40aeeea407aec841:0x52ca4abf01cbaf98!8m2!3d43.5847688!4d25.866599!16s%2Fg%2F11g6nhcfk3!19sChIJQciuB6TurkARmK_LAb9KylI?authuser=0&hl=tr&rclk=1",
    "website_url": "http://plameood.com/",
    "rating_text": "4,7",
    "stars": null,
    "number_of_reviews": null,
    "price_level": "",
    "open_hours": "",
    "extraction_timestamp": "2025-06-07T13:50:40.122Z",
    "source_name": "google",
    "source_query": "Irrigation Equipment",
    "source_country": "BG",
    "country": "Bulgaria",
    "state": "Ruse Province",
    "city": "Obshtina Tsenovo"
  },
  {
    "source_id": "ChIJE1MN-1xhrkARKqEyHI07MCo",
    "name": "OGRADKI BG",
    "category": "OGRADKI BG",
    "formatted_address": "4,3(6)",
    "phone_number": "+359895675832",
    "source_url": "https://www.google.com/maps/place/OGRADKI+BG/data=!4m7!3m6!1s0x40ae615cfb0d5313:0x2a303b8d1c32a12a!8m2!3d43.8539914!4d25.9913739!16s%2Fg%2F11jgf0rqh4!19sChIJE1MN-1xhrkARKqEyHI07MCo?authuser=0&hl=tr&rclk=1",
    "website_url": "http://www.ogradki.bg/",
    "rating_text": "4,3",
    "stars": null,
    "number_of_reviews": null,
    "price_level": "",
    "open_hours": "",
    "extraction_timestamp": "2025-06-07T13:50:40.123Z",
    "source_name": "google",
    "source_query": "Irrigation Equipment",
    "source_country": "BG",
    "country": "Bulgaria",
    "state": "Ruse Province",
    "city": "Obshtina Tsenovo"
  },
  {
    "source_id": "ChIJsYU6OH0Or0ARC3eRUz7FIsc",
    "name": "Напоителни Системи",
    "category": "Напоителни Системи",
    "formatted_address": "",
    "phone_number": "+359895843284",
    "source_url": "https://www.google.com/maps/place/%D0%9D%D0%B0%D0%BF%D0%BE%D0%B8%D1%82%D0%B5%D0%BB%D0%BD%D0%B8+%D0%A1%D0%B8%D1%81%D1%82%D0%B5%D0%BC%D0%B8/data=!4m7!3m6!1s0x40af0e7d383a85b1:0xc722c53e5391770b!8m2!3d43.5248284!4d26.5185956!16s%2Fg%2F11hyt13jl9!19sChIJsYU6OH0Or0ARC3eRUz7FIsc?authuser=0&hl=tr&rclk=1",
    "website_url": "http://www.napoitelnisystemi.eu/kontakti",
    "rating_text": "",
    "stars": null,
    "number_of_reviews": null,
    "price_level": "",
    "open_hours": "",
    "extraction_timestamp": "2025-06-07T13:50:40.124Z",
    "source_name": "google",
    "source_query": "Irrigation Equipment",
    "source_country": "BG",
    "country": "Bulgaria",
    "state": "Ruse Province",
    "city": "Obshtina Tsenovo"
  },
  {
    "source_id": "ChIJOTNgGgbArkARAWf2kzoUeJs",
    "name": "Yanita Shop",
    "category": "Yanita Shop",
    "formatted_address": "4,3(39)",
    "phone_number": "",
    "source_url": "https://www.google.com/maps/place/Yanita+Shop/data=!4m7!3m6!1s0x40aec0061a603339:0x9b78143a93f66701!8m2!3d43.5278101!4d25.6876608!16s%2Fg%2F11c5s7twbm!19sChIJOTNgGgbArkARAWf2kzoUeJs?authuser=0&hl=tr&rclk=1",
    "website_url": "",
    "rating_text": "4,3",
    "stars": null,
    "number_of_reviews": null,
    "price_level": "",
    "open_hours": "",
    "extraction_timestamp": "2025-06-07T13:50:40.124Z",
    "source_name": "google",
    "source_query": "Irrigation Equipment",
    "source_country": "BG",
    "country": "Bulgaria",
    "state": "Ruse Province",
    "city": "Obshtina Tsenovo"
  },
  {
    "source_id": "ChIJtcLQl51grkAR9a5Y_RyZsMI",
    "name": "Bul Drip",
    "category": "Bul Drip",
    "formatted_address": "",
    "phone_number": "+359887424020",
    "source_url": "https://www.google.com/maps/place/Bul+Drip/data=!4m7!3m6!1s0x40ae609d97d0c2b5:0xc2b0991cfd58aef5!8m2!3d43.8287244!4d25.9716352!16s%2Fg%2F1vljdv97!19sChIJtcLQl51grkAR9a5Y_RyZsMI?authuser=0&hl=tr&rclk=1",
    "website_url": "",
    "rating_text": "",
    "stars": null,
    "number_of_reviews": null,
    "price_level": "",
    "open_hours": "",
    "extraction_timestamp": "2025-06-07T13:50:40.125Z",
    "source_name": "google",
    "source_query": "Irrigation Equipment",
    "source_country": "BG",
    "country": "Bulgaria",
    "state": "Ruse Province",
    "city": "Obshtina Tsenovo"
  },
  {
    "source_id": "ChIJly0pKrdgrkARoJZC1lgKWoY",
    "name": "ПОЛИВНИ СИСТЕМИ ЕООД",
    "category": "ПОЛИВНИ СИСТЕМИ ЕООД",
    "formatted_address": "4,7(11)",
    "phone_number": "+359887424020",
    "source_url": "https://www.google.com/maps/place/%D0%9F%D0%9E%D0%9B%D0%98%D0%92%D0%9D%D0%98+%D0%A1%D0%98%D0%A1%D0%A2%D0%95%D0%9C%D0%98+%D0%95%D0%9E%D0%9E%D0%94/data=!4m7!3m6!1s0x40ae60b72a292d97:0x865a0a58d64296a0!8m2!3d43.8355713!4d25.9656554!16s%2Fg%2F1hc2rnssk!19sChIJly0pKrdgrkARoJZC1lgKWoY?authuser=0&hl=tr&rclk=1",
    "website_url": "",
    "rating_text": "4,7",
    "stars": null,
    "number_of_reviews": null,
    "price_level": "",
    "open_hours": "",
    "extraction_timestamp": "2025-06-07T13:50:40.780Z",
    "source_name": "google",
    "source_query": "Irrigation Equipment",
    "source_country": "BG",
    "country": "Bulgaria",
    "state": "Ruse Province",
    "city": "Obshtina Vetovo"
  },
  {
    "source_id": "ChIJGax_BlBdrkAR7fx-k2gj4lQ",
    "name": "Construction Tools EOOD, Husqvarna",
    "category": "Construction Tools EOOD, Husqvarna",
    "formatted_address": "Construction Tools EOOD, Husqvarna",
    "phone_number": "+35982810555",
    "source_url": "https://www.google.com/maps/place/Construction+Tools+EOOD,+Husqvarna/data=!4m7!3m6!1s0x40ae5d50067fac19:0x54e22368937efced!8m2!3d43.9015648!4d26.05922!16s%2Fg%2F11cs2c0p0j!19sChIJGax_BlBdrkAR7fx-k2gj4lQ?authuser=0&hl=tr&rclk=1",
    "website_url": "http://www.husqvarnacp.com/int/",
    "rating_text": "4,5",
    "stars": null,
    "number_of_reviews": null,
    "price_level": "",
    "open_hours": "",
    "extraction_timestamp": "2025-06-07T13:50:40.781Z",
    "source_name": "google",
    "source_query": "Irrigation Equipment",
    "source_country": "BG",
    "country": "Bulgaria",
    "state": "Ruse Province",
    "city": "Obshtina Vetovo"
  },
  {
    "source_id": "ChIJUxxJm_sAr0AR4bdwiSDaRyo",
    "name": "ЕТ''Козирог94 Руска Цанева",
    "category": "ЕТ''Козирог94 Руска Цанева",
    "formatted_address": "5,0(4)",
    "phone_number": "+359887047153",
    "source_url": "https://www.google.com/maps/place/%D0%95%D0%A2%27%27%D0%9A%D0%BE%D0%B7%D0%B8%D1%80%D0%BE%D0%B394+%D0%A0%D1%83%D1%81%D0%BA%D0%B0+%D0%A6%D0%B0%D0%BD%D0%B5%D0%B2%D0%B0/data=!4m7!3m6!1s0x40af00fb9b491c53:0x2a47da208970b7e1!8m2!3d43.6483244!4d26.3598165!16s%2Fg%2F11dxnysmhv!19sChIJUxxJm_sAr0AR4bdwiSDaRyo?authuser=0&hl=tr&rclk=1",
    "website_url": "",
    "rating_text": "5,0",
    "stars": null,
    "number_of_reviews": null,
    "price_level": "",
    "open_hours": "",
    "extraction_timestamp": "2025-06-07T13:50:40.782Z",
    "source_name": "google",
    "source_query": "Irrigation Equipment",
    "source_country": "BG",
    "country": "Bulgaria",
    "state": "Ruse Province",
    "city": "Obshtina Vetovo"
  },
  {
    "source_id": "ChIJFRplc3JbrkARDQYwbc6rvsQ",
    "name": "НЕДЕЛЧЕВ ЕООД",
    "category": "НЕДЕЛЧЕВ ЕООД",
    "formatted_address": "4,9(20)",
    "phone_number": "+359897881407",
    "source_url": "https://www.google.com/maps/place/%D0%9D%D0%95%D0%94%D0%95%D0%9B%D0%A7%D0%95%D0%92+%D0%95%D0%9E%D0%9E%D0%94/data=!4m7!3m6!1s0x40ae5b7273651a15:0xc4beabce6d30060d!8m2!3d43.8029167!4d26.1875278!16s%2Fg%2F11rwwtvtny!19sChIJFRplc3JbrkARDQYwbc6rvsQ?authuser=0&hl=tr&rclk=1",
    "website_url": "",
    "rating_text": "4,9",
    "stars": null,
    "number_of_reviews": null,
    "price_level": "",
    "open_hours": "",
    "extraction_timestamp": "2025-06-07T13:50:40.784Z",
    "source_name": "google",
    "source_query": "Irrigation Equipment",
    "source_country": "BG",
    "country": "Bulgaria",
    "state": "Ruse Province",
    "city": "Obshtina Vetovo"
  },
  {
    "source_id": "ChIJNRpA9JNVrkARpOTrOqc3xIg",
    "name": "Самико 87 ЕООД",
    "category": "Самико 87 ЕООД",
    "formatted_address": "5,0(5)",
    "phone_number": "",
    "source_url": "https://www.google.com/maps/place/%D0%A1%D0%B0%D0%BC%D0%B8%D0%BA%D0%BE+87+%D0%95%D0%9E%D0%9E%D0%94/data=!4m7!3m6!1s0x40ae5593f4401a35:0x88c437a73aebe4a4!8m2!3d43.706496!4d26.2663566!16s%2Fg%2F11rrqdgt_s!19sChIJNRpA9JNVrkARpOTrOqc3xIg?authuser=0&hl=tr&rclk=1",
    "website_url": "",
    "rating_text": "5,0",
    "stars": null,
    "number_of_reviews": null,
    "price_level": "",
    "open_hours": "",
    "extraction_timestamp": "2025-06-07T13:50:40.784Z",
    "source_name": "google",
    "source_query": "Irrigation Equipment",
    "source_country": "BG",
    "country": "Bulgaria",
    "state": "Ruse Province",
    "city": "Obshtina Vetovo"
  },
  {
    "source_id": "ChIJDyHD7zD3rkARWgAEOw8VtoA",
    "name": "Leko",
    "category": "Leko",
    "formatted_address": "4,4(5)",
    "phone_number": "",
    "source_url": "https://www.google.com/maps/place/Leko/data=!4m7!3m6!1s0x40aef730efc3210f:0x80b6150f3b04005a!8m2!3d43.7135039!4d26.0401507!16s%2Fg%2F11rmq2kg2x!19sChIJDyHD7zD3rkARWgAEOw8VtoA?authuser=0&hl=tr&rclk=1",
    "website_url": "",
    "rating_text": "4,4",
    "stars": null,
    "number_of_reviews": null,
    "price_level": "",
    "open_hours": "",
    "extraction_timestamp": "2025-06-07T13:50:40.785Z",
    "source_name": "google",
    "source_query": "Irrigation Equipment",
    "source_country": "BG",
    "country": "Bulgaria",
    "state": "Ruse Province",
    "city": "Obshtina Vetovo"
  },
  {
    "source_id": "ChIJsYU6OH0Or0ARC3eRUz7FIsc",
    "name": "Напоителни Системи",
    "category": "Напоителни Системи",
    "formatted_address": "",
    "phone_number": "+359895843284",
    "source_url": "https://www.google.com/maps/place/%D0%9D%D0%B0%D0%BF%D0%BE%D0%B8%D1%82%D0%B5%D0%BB%D0%BD%D0%B8+%D0%A1%D0%B8%D1%81%D1%82%D0%B5%D0%BC%D0%B8/data=!4m7!3m6!1s0x40af0e7d383a85b1:0xc722c53e5391770b!8m2!3d43.5248284!4d26.5185956!16s%2Fg%2F11hyt13jl9!19sChIJsYU6OH0Or0ARC3eRUz7FIsc?authuser=0&hl=tr&rclk=1",
    "website_url": "http://www.napoitelnisystemi.eu/kontakti",
    "rating_text": "",
    "stars": null,
    "number_of_reviews": null,
    "price_level": "",
    "open_hours": "",
    "extraction_timestamp": "2025-06-07T13:50:40.786Z",
    "source_name": "google",
    "source_query": "Irrigation Equipment",
    "source_country": "BG",
    "country": "Bulgaria",
    "state": "Ruse Province",
    "city": "Obshtina Vetovo"
  },
  {
    "source_id": "ChIJJw33g4n9rkAREleIInjv4j4",
    "name": "Construction shop",
    "category": "Construction shop",
    "formatted_address": "4,1(49)",
    "phone_number": "",
    "source_url": "https://www.google.com/maps/place/Construction+shop/data=!4m7!3m6!1s0x40aefd8983f70d27:0x3ee2ef7822885712!8m2!3d43.6083468!4d26.2441061!16s%2Fg%2F11d_1mnyh6!19sChIJJw33g4n9rkAREleIInjv4j4?authuser=0&hl=tr&rclk=1",
    "website_url": "",
    "rating_text": "4,1",
    "stars": null,
    "number_of_reviews": null,
    "price_level": "",
    "open_hours": "",
    "extraction_timestamp": "2025-06-07T13:50:40.787Z",
    "source_name": "google",
    "source_query": "Irrigation Equipment",
    "source_country": "BG",
    "country": "Bulgaria",
    "state": "Ruse Province",
    "city": "Obshtina Vetovo"
  },
  {
    "source_id": "ChIJPWIYKAABr0ARo45qNOiUxuE",
    "name": "Джани-91 ЕООД",
    "category": "Джани-91 ЕООД",
    "formatted_address": "5,0(2)",
    "phone_number": "+359876254069",
    "source_url": "https://www.google.com/maps/place/%D0%94%D0%B6%D0%B0%D0%BD%D0%B8-91+%D0%95%D0%9E%D0%9E%D0%94/data=!4m7!3m6!1s0x40af01002818623d:0xe1c694e8346a8ea3!8m2!3d43.6506388!4d26.3652235!16s%2Fg%2F11wbc_h47s!19sChIJPWIYKAABr0ARo45qNOiUxuE?authuser=0&hl=tr&rclk=1",
    "website_url": "",
    "rating_text": "5,0",
    "stars": null,
    "number_of_reviews": null,
    "price_level": "",
    "open_hours": "",
    "extraction_timestamp": "2025-06-07T13:50:40.788Z",
    "source_name": "google",
    "source_query": "Irrigation Equipment",
    "source_country": "BG",
    "country": "Bulgaria",
    "state": "Ruse Province",
    "city": "Obshtina Vetovo"
  },
  {
    "source_id": "ChIJGR3_t0gBr0ARbzloTvql8Ug",
    "name": "Азат маркет",
    "category": "Азат маркет",
    "formatted_address": "4,0(1)",
    "phone_number": "+359895625405",
    "source_url": "https://www.google.com/maps/place/%D0%90%D0%B7%D0%B0%D1%82+%D0%BC%D0%B0%D1%80%D0%BA%D0%B5%D1%82/data=!4m7!3m6!1s0x40af0148b7ff1d19:0x48f1a5fa4e68396f!8m2!3d43.6468429!4d26.3698418!16s%2Fg%2F11v65cx564!19sChIJGR3_t0gBr0ARbzloTvql8Ug?authuser=0&hl=tr&rclk=1",
    "website_url": "",
    "rating_text": "4,0",
    "stars": null,
    "number_of_reviews": null,
    "price_level": "",
    "open_hours": "",
    "extraction_timestamp": "2025-06-07T13:50:40.789Z",
    "source_name": "google",
    "source_query": "Irrigation Equipment",
    "source_country": "BG",
    "country": "Bulgaria",
    "state": "Ruse Province",
    "city": "Obshtina Vetovo"
  },
  {
    "source_id": "ChIJU_pq0C1hrkAR_ogLTUB4k5U",
    "name": "Строителна борса \"Братоев\"",
    "category": "Строителна борса \"Братоев\"",
    "formatted_address": "4,8(34)",
    "phone_number": "+359888761754",
    "source_url": "https://www.google.com/maps/place/%D0%A1%D1%82%D1%80%D0%BE%D0%B8%D1%82%D0%B5%D0%BB%D0%BD%D0%B0+%D0%B1%D0%BE%D1%80%D1%81%D0%B0+%22%D0%91%D1%80%D0%B0%D1%82%D0%BE%D0%B5%D0%B2%22/data=!4m7!3m6!1s0x40ae612dd06afa53:0x959378404d0b88fe!8m2!3d43.8200563!4d25.9723997!16s%2Fg%2F11fn6y9qbc!19sChIJU_pq0C1hrkAR_ogLTUB4k5U?authuser=0&hl=tr&rclk=1",
    "website_url": "",
    "rating_text": "4,8",
    "stars": null,
    "number_of_reviews": null,
    "price_level": "",
    "open_hours": "",
    "extraction_timestamp": "2025-06-07T13:50:40.790Z",
    "source_name": "google",
    "source_query": "Irrigation Equipment",
    "source_country": "BG",
    "country": "Bulgaria",
    "state": "Ruse Province",
    "city": "Obshtina Vetovo"
  },
  {
    "source_id": "ChIJtcLQl51grkAR9a5Y_RyZsMI",
    "name": "Bul Drip",
    "category": "Bul Drip",
    "formatted_address": "",
    "phone_number": "+359887424020",
    "source_url": "https://www.google.com/maps/place/Bul+Drip/data=!4m7!3m6!1s0x40ae609d97d0c2b5:0xc2b0991cfd58aef5!8m2!3d43.8287244!4d25.9716352!16s%2Fg%2F1vljdv97!19sChIJtcLQl51grkAR9a5Y_RyZsMI?authuser=0&hl=tr&rclk=1",
    "website_url": "",
    "rating_text": "",
    "stars": null,
    "number_of_reviews": null,
    "price_level": "",
    "open_hours": "",
    "extraction_timestamp": "2025-06-07T13:50:40.791Z",
    "source_name": "google",
    "source_query": "Irrigation Equipment",
    "source_country": "BG",
    "country": "Bulgaria",
    "state": "Ruse Province",
    "city": "Obshtina Vetovo"
  },
  {
    "source_id": "ChIJQciuB6TurkARmK_LAb9KylI",
    "name": "МАГАЗИН ПЛАМ",
    "category": "МАГАЗИН ПЛАМ",
    "formatted_address": "4,7(39)",
    "phone_number": "+359889444831",
    "source_url": "https://www.google.com/maps/place/%D0%9C%D0%90%D0%93%D0%90%D0%97%D0%98%D0%9D+%D0%9F%D0%9B%D0%90%D0%9C/data=!4m7!3m6!1s0x40aeeea407aec841:0x52ca4abf01cbaf98!8m2!3d43.5847688!4d25.866599!16s%2Fg%2F11g6nhcfk3!19sChIJQciuB6TurkARmK_LAb9KylI?authuser=0&hl=tr&rclk=1",
    "website_url": "http://plameood.com/",
    "rating_text": "4,7",
    "stars": null,
    "number_of_reviews": null,
    "price_level": "",
    "open_hours": "",
    "extraction_timestamp": "2025-06-07T13:50:41.703Z",
    "source_name": "google",
    "source_query": "Irrigation Equipment",
    "source_country": "BG",
    "country": "Bulgaria",
    "state": "Ruse Province",
    "city": "Obshtina Borovo"
  },
  {
    "source_id": "ChIJs-3c9rOEqkARVzyxNRxPH6k",
    "name": "Aqua Engeneering Group",
    "category": "Aqua Engeneering Group",
    "formatted_address": "4,4(47)",
    "phone_number": "+359884201983",
    "source_url": "https://www.google.com/maps/place/Aqua+Engeneering+Group/data=!4m7!3m6!1s0x40aa84b3f6dcedb3:0xa91f4f1c35b13c57!8m2!3d42.6634902!4d23.2564096!16s%2Fg%2F1tgfv3gl!19sChIJs-3c9rOEqkARVzyxNRxPH6k?authuser=0&hl=tr&rclk=1",
    "website_url": "http://aqua-irrigation.com/",
    "rating_text": "4,4",
    "stars": null,
    "number_of_reviews": null,
    "price_level": "",
    "open_hours": "",
    "extraction_timestamp": "2025-06-07T13:50:41.705Z",
    "source_name": "google",
    "source_query": "Irrigation Equipment",
    "source_country": "BG",
    "country": "Bulgaria",
    "state": "Ruse Province",
    "city": "Obshtina Borovo"
  },
  {
    "source_id": "ChIJK8wCxbmUpkARABmAf9j7-ZE",
    "name": "Градински Рай ООД",
    "category": "Градински Рай ООД",
    "formatted_address": "4,5(54)",
    "phone_number": "+359878211155",
    "source_url": "https://www.google.com/maps/place/%D0%93%D1%80%D0%B0%D0%B4%D0%B8%D0%BD%D1%81%D0%BA%D0%B8+%D0%A0%D0%B0%D0%B9+%D0%9E%D0%9E%D0%94/data=!4m7!3m6!1s0x40a694b9c502cc2b:0x91f9fbd87f801900!8m2!3d42.5115053!4d27.4500541!16s%2Fg%2F11cm01kb9s!19sChIJK8wCxbmUpkARABmAf9j7-ZE?authuser=0&hl=tr&rclk=1",
    "website_url": "http://e-gradinabg.com/",
    "rating_text": "4,5",
    "stars": null,
    "number_of_reviews": null,
    "price_level": "",
    "open_hours": "",
    "extraction_timestamp": "2025-06-07T13:50:41.706Z",
    "source_name": "google",
    "source_query": "Irrigation Equipment",
    "source_country": "BG",
    "country": "Bulgaria",
    "state": "Ruse Province",
    "city": "Obshtina Borovo"
  },
  {
    "source_id": "ChIJkdQRcI7prkARl7jPzzLYetY",
    "name": "Nerma",
    "category": "Nerma",
    "formatted_address": "4,9(19)",
    "phone_number": "",
    "source_url": "https://www.google.com/maps/place/Nerma/data=!4m7!3m6!1s0x40aee98e7011d491:0xd67ad832cfcfb897!8m2!3d43.5385847!4d25.8708299!16s%2Fg%2F11snpw7yc8!19sChIJkdQRcI7prkARl7jPzzLYetY?authuser=0&hl=tr&rclk=1",
    "website_url": "",
    "rating_text": "4,9",
    "stars": null,
    "number_of_reviews": null,
    "price_level": "",
    "open_hours": "",
    "extraction_timestamp": "2025-06-07T13:50:41.707Z",
    "source_name": "google",
    "source_query": "Irrigation Equipment",
    "source_country": "BG",
    "country": "Bulgaria",
    "state": "Ruse Province",
    "city": "Obshtina Borovo"
  },
  {
    "source_id": "ChIJ5V4SUgDvrkARKnXKdrS5Bk4",
    "name": "ПЕТРОВ 23",
    "category": "ПЕТРОВ 23",
    "formatted_address": "5,0(1)",
    "phone_number": "+359893600708",
    "source_url": "https://www.google.com/maps/place/%D0%9F%D0%95%D0%A2%D0%A0%D0%9E%D0%92+23/data=!4m7!3m6!1s0x40aeef0052125ee5:0x4e06b9b476ca752a!8m2!3d43.5903472!4d25.8739557!16s%2Fg%2F11wv9rqyzw!19sChIJ5V4SUgDvrkARKnXKdrS5Bk4?authuser=0&hl=tr&rclk=1",
    "website_url": "",
    "rating_text": "5,0",
    "stars": null,
    "number_of_reviews": null,
    "price_level": "",
    "open_hours": "",
    "extraction_timestamp": "2025-06-07T13:50:41.708Z",
    "source_name": "google",
    "source_query": "Irrigation Equipment",
    "source_country": "BG",
    "country": "Bulgaria",
    "state": "Ruse Province",
    "city": "Obshtina Borovo"
  },
  {
    "source_id": "ChIJ4cb9DsFgrkARH1nrvdfpgQo",
    "name": "Кей Ви Ел ЕООД",
    "category": "Кей Ви Ел ЕООД",
    "formatted_address": "",
    "phone_number": "+35982507370",
    "source_url": "https://www.google.com/maps/place/%D0%9A%D0%B5%D0%B9+%D0%92%D0%B8+%D0%95%D0%BB+%D0%95%D0%9E%D0%9E%D0%94/data=!4m7!3m6!1s0x40ae60c10efdc6e1:0xa81e9d7bdeb591f!8m2!3d43.8214999!4d25.9247541!16s%2Fg%2F11j0jl790d!19sChIJ4cb9DsFgrkARH1nrvdfpgQo?authuser=0&hl=tr&rclk=1",
    "website_url": "http://kvl.bg/%D0%BA%D0%BE%D0%BD%D1%82%D0%B0%D0%BA%D1%82%D0%B8/",
    "rating_text": "",
    "stars": null,
    "number_of_reviews": null,
    "price_level": "",
    "open_hours": "",
    "extraction_timestamp": "2025-06-07T13:50:41.709Z",
    "source_name": "google",
    "source_query": "Irrigation Equipment",
    "source_country": "BG",
    "country": "Bulgaria",
    "state": "Ruse Province",
    "city": "Obshtina Borovo"
  },
  {
    "source_id": "ChIJHZPl3J7urkARs0TT1ZXw4KM",
    "name": "Kimt-D",
    "category": "Kimt-D",
    "formatted_address": "4,6(125)",
    "phone_number": "+359877421499",
    "source_url": "https://www.google.com/maps/place/Kimt-D/data=!4m7!3m6!1s0x40aeee9edce5931d:0xa3e0f095d5d344b3!8m2!3d43.5895019!4d25.8730233!16s%2Fg%2F1tn048zp!19sChIJHZPl3J7urkARs0TT1ZXw4KM?authuser=0&hl=tr&rclk=1",
    "website_url": "",
    "rating_text": "4,6",
    "stars": null,
    "number_of_reviews": null,
    "price_level": "",
    "open_hours": "",
    "extraction_timestamp": "2025-06-07T13:50:41.710Z",
    "source_name": "google",
    "source_query": "Irrigation Equipment",
    "source_country": "BG",
    "country": "Bulgaria",
    "state": "Ruse Province",
    "city": "Obshtina Borovo"
  },
  {
    "source_id": "ChIJDyHD7zD3rkARWgAEOw8VtoA",
    "name": "Leko",
    "category": "Leko",
    "formatted_address": "4,4(5)",
    "phone_number": "",
    "source_url": "https://www.google.com/maps/place/Leko/data=!4m7!3m6!1s0x40aef730efc3210f:0x80b6150f3b04005a!8m2!3d43.7135039!4d26.0401507!16s%2Fg%2F11rmq2kg2x!19sChIJDyHD7zD3rkARWgAEOw8VtoA?authuser=0&hl=tr&rclk=1",
    "website_url": "",
    "rating_text": "4,4",
    "stars": null,
    "number_of_reviews": null,
    "price_level": "",
    "open_hours": "",
    "extraction_timestamp": "2025-06-07T13:50:41.711Z",
    "source_name": "google",
    "source_query": "Irrigation Equipment",
    "source_country": "BG",
    "country": "Bulgaria",
    "state": "Ruse Province",
    "city": "Obshtina Borovo"
  },
  {
    "source_id": "ChIJSWco0cDzrkARpgDJhGQmEhY",
    "name": "Супермаркет \"КООП\" с. Тръстеник",
    "category": "Супермаркет \"КООП\" с. Тръстеник",
    "formatted_address": "4,5(23)",
    "phone_number": "",
    "source_url": "https://www.google.com/maps/place/%D0%A1%D1%83%D0%BF%D0%B5%D1%80%D0%BC%D0%B0%D1%80%D0%BA%D0%B5%D1%82+%22%D0%9A%D0%9E%D0%9E%D0%9F%22+%D1%81.+%D0%A2%D1%80%D1%8A%D1%81%D1%82%D0%B5%D0%BD%D0%B8%D0%BA/data=!4m7!3m6!1s0x40aef3c0d1286749:0x1612266484c900a6!8m2!3d43.6611157!4d25.8573133!16s%2Fg%2F11q1m84fx9!19sChIJSWco0cDzrkARpgDJhGQmEhY?authuser=0&hl=tr&rclk=1",
    "website_url": "",
    "rating_text": "4,5",
    "stars": null,
    "number_of_reviews": null,
    "price_level": "",
    "open_hours": "",
    "extraction_timestamp": "2025-06-07T13:50:41.711Z",
    "source_name": "google",
    "source_query": "Irrigation Equipment",
    "source_country": "BG",
    "country": "Bulgaria",
    "state": "Ruse Province",
    "city": "Obshtina Borovo"
  },
  {
    "source_id": "ChIJOTNgGgbArkARAWf2kzoUeJs",
    "name": "Yanita Shop",
    "category": "Yanita Shop",
    "formatted_address": "4,3(39)",
    "phone_number": "",
    "source_url": "https://www.google.com/maps/place/Yanita+Shop/data=!4m7!3m6!1s0x40aec0061a603339:0x9b78143a93f66701!8m2!3d43.5278101!4d25.6876608!16s%2Fg%2F11c5s7twbm!19sChIJOTNgGgbArkARAWf2kzoUeJs?authuser=0&hl=tr&rclk=1",
    "website_url": "",
    "rating_text": "4,3",
    "stars": null,
    "number_of_reviews": null,
    "price_level": "",
    "open_hours": "",
    "extraction_timestamp": "2025-06-07T13:50:41.712Z",
    "source_name": "google",
    "source_query": "Irrigation Equipment",
    "source_country": "BG",
    "country": "Bulgaria",
    "state": "Ruse Province",
    "city": "Obshtina Borovo"
  },
  {
    "source_id": "ChIJE4rpMsTArkARsRRndlsCHWQ",
    "name": "TOPLIVO - Warehouse White",
    "category": "TOPLIVO - Warehouse White",
    "formatted_address": "4,6(7)",
    "phone_number": "+35981771775",
    "source_url": "https://www.google.com/maps/place/TOPLIVO+-+Warehouse+White/data=!4m7!3m6!1s0x40aec0c432e98a13:0x641d025b766714b1!8m2!3d43.4757119!4d25.6706313!16s%2Fg%2F11g8y9mvn4!19sChIJE4rpMsTArkARsRRndlsCHWQ?authuser=0&hl=tr&rclk=1",
    "website_url": "http://toplivo.bg/",
    "rating_text": "4,6",
    "stars": null,
    "number_of_reviews": null,
    "price_level": "",
    "open_hours": "",
    "extraction_timestamp": "2025-06-07T13:50:41.713Z",
    "source_name": "google",
    "source_query": "Irrigation Equipment",
    "source_country": "BG",
    "country": "Bulgaria",
    "state": "Ruse Province",
    "city": "Obshtina Borovo"
  },
  {
    "source_id": "ChIJ9dUkY131rkARXLk8AETbEtw",
    "name": "COOP Basarbovo",
    "category": "COOP Basarbovo",
    "formatted_address": "4,3(442)",
    "phone_number": "",
    "source_url": "https://www.google.com/maps/place/COOP+Basarbovo/data=!4m7!3m6!1s0x40aef55d6324d5f5:0xdc12db44003cb95c!8m2!3d43.77419!4d25.9507585!16s%2Fg%2F1pp2tlk1l!19sChIJ9dUkY131rkARXLk8AETbEtw?authuser=0&hl=tr&rclk=1",
    "website_url": "",
    "rating_text": "4,3",
    "stars": null,
    "number_of_reviews": null,
    "price_level": "",
    "open_hours": "",
    "extraction_timestamp": "2025-06-07T13:50:41.713Z",
    "source_name": "google",
    "source_query": "Irrigation Equipment",
    "source_country": "BG",
    "country": "Bulgaria",
    "state": "Ruse Province",
    "city": "Obshtina Borovo"
  },
  {
    "source_id": "ChIJ97hDaMr1rkAR9kYgZqUDYaU",
    "name": "Proizvoditelno-Potrebitelna Kooperatsiya Krasen",
    "category": "Proizvoditelno-Potrebitelna Kooperatsiya Krasen",
    "formatted_address": "4,3(33)",
    "phone_number": "+3598152411",
    "source_url": "https://www.google.com/maps/place/Proizvoditelno-Potrebitelna+Kooperatsiya+Krasen/data=!4m7!3m6!1s0x40aef5ca6843b8f7:0xa56103a5662046f6!8m2!3d43.7383337!4d25.9803499!16s%2Fg%2F1tk1xk7r!19sChIJ97hDaMr1rkAR9kYgZqUDYaU?authuser=0&hl=tr&rclk=1",
    "website_url": "",
    "rating_text": "4,3",
    "stars": null,
    "number_of_reviews": null,
    "price_level": "",
    "open_hours": "",
    "extraction_timestamp": "2025-06-07T13:50:41.714Z",
    "source_name": "google",
    "source_query": "Irrigation Equipment",
    "source_country": "BG",
    "country": "Bulgaria",
    "state": "Ruse Province",
    "city": "Obshtina Borovo"
  },
  {
    "source_id": "ChIJy4WsXUOVpkARwvDaaASvmAQ",
    "name": "Хидроленд Сондажи",
    "category": "Хидроленд Сондажи",
    "formatted_address": "4,8(25)",
    "phone_number": "+359898435757",
    "source_url": "https://www.google.com/maps/place/%D0%A5%D0%B8%D0%B4%D1%80%D0%BE%D0%BB%D0%B5%D0%BD%D0%B4+%D0%A1%D0%BE%D0%BD%D0%B4%D0%B0%D0%B6%D0%B8/data=!4m7!3m6!1s0x40a695435dac85cb:0x498af0468daf0c2!8m2!3d42.5118006!4d27.4677322!16s%2Fg%2F11vd6fgcqk!19sChIJy4WsXUOVpkARwvDaaASvmAQ?authuser=0&hl=tr&rclk=1",
    "website_url": "https://www.hydroland.bg/",
    "rating_text": "4,8",
    "stars": null,
    "number_of_reviews": null,
    "price_level": "",
    "open_hours": "",
    "extraction_timestamp": "2025-06-07T13:50:41.715Z",
    "source_name": "google",
    "source_query": "Irrigation Equipment",
    "source_country": "BG",
    "country": "Bulgaria",
    "state": "Ruse Province",
    "city": "Obshtina Borovo"
  },
  {
    "source_id": "ChIJ5Y0-VNfDrkARfhtfsV42QSc",
    "name": "Търговски комплекс \"ЦИМБИ\"",
    "category": "Търговски комплекс \"ЦИМБИ\"",
    "formatted_address": "4,7(42)",
    "phone_number": "+359896658794",
    "source_url": "https://www.google.com/maps/place/%D0%A2%D1%8A%D1%80%D0%B3%D0%BE%D0%B2%D1%81%D0%BA%D0%B8+%D0%BA%D0%BE%D0%BC%D0%BF%D0%BB%D0%B5%D0%BA%D1%81+%22%D0%A6%D0%98%D0%9C%D0%91%D0%98%22/data=!4m7!3m6!1s0x40aec3d7543e8de5:0x2741365eb15f1b7e!8m2!3d43.4617966!4d25.7331877!16s%2Fg%2F11q965zwrd!19sChIJ5Y0-VNfDrkARfhtfsV42QSc?authuser=0&hl=tr&rclk=1",
    "website_url": "",
    "rating_text": "4,7",
    "stars": null,
    "number_of_reviews": null,
    "price_level": "",
    "open_hours": "",
    "extraction_timestamp": "2025-06-07T13:50:41.716Z",
    "source_name": "google",
    "source_query": "Irrigation Equipment",
    "source_country": "BG",
    "country": "Bulgaria",
    "state": "Ruse Province",
    "city": "Obshtina Borovo"
  },
  {
    "source_id": "ChIJ1-aKyl1nrkARk-s02r5Mmqo",
    "name": "Bader Bulgaria",
    "category": "Bader Bulgaria",
    "formatted_address": "4,4(49)",
    "phone_number": "+359884373286",
    "source_url": "https://www.google.com/maps/place/Bader+Bulgaria/data=!4m7!3m6!1s0x40ae675dca8ae6d7:0xaa9a4cbeda34eb93!8m2!3d43.8522038!4d25.9877092!16s%2Fg%2F11fsrxsz3d!19sChIJ1-aKyl1nrkARk-s02r5Mmqo?authuser=0&hl=tr&rclk=1",
    "website_url": "https://bader-leather.com/",
    "rating_text": "4,4",
    "stars": null,
    "number_of_reviews": null,
    "price_level": "",
    "open_hours": "",
    "extraction_timestamp": "2025-06-07T13:50:41.717Z",
    "source_name": "google",
    "source_query": "Irrigation Equipment",
    "source_country": "BG",
    "country": "Bulgaria",
    "state": "Ruse Province",
    "city": "Obshtina Borovo"
  },
  {
    "source_id": "ChIJDdt6eYjrrkARGy9gRq-JPw8",
    "name": "Silvena 99",
    "category": "Silvena 99",
    "formatted_address": "3,7(13)",
    "phone_number": "+35981432756",
    "source_url": "https://www.google.com/maps/place/Silvena+99/data=!4m7!3m6!1s0x40aeeb88797adb0d:0xf3f89af46602f1b!8m2!3d43.5820551!4d25.8104168!16s%2Fg%2F1tc_74vr!19sChIJDdt6eYjrrkARGy9gRq-JPw8?authuser=0&hl=tr&rclk=1",
    "website_url": "",
    "rating_text": "3,7",
    "stars": null,
    "number_of_reviews": null,
    "price_level": "",
    "open_hours": "",
    "extraction_timestamp": "2025-06-07T13:50:41.717Z",
    "source_name": "google",
    "source_query": "Irrigation Equipment",
    "source_country": "BG",
    "country": "Bulgaria",
    "state": "Ruse Province",
    "city": "Obshtina Borovo"
  },
  {
    "source_id": "ChIJp93EXhhfrkARSbbGe-rejxk",
    "name": "Express Service OOD",
    "category": "Express Service OOD",
    "formatted_address": "4,7(75)",
    "phone_number": "+359887412838",
    "source_url": "https://www.google.com/maps/place/Express+Service+OOD/data=!4m7!3m6!1s0x40ae5f185ec4dda7:0x198fdeea7bc6b649!8m2!3d43.7940788!4d26.0299663!16s%2Fg%2F11c1nswv8h!19sChIJp93EXhhfrkARSbbGe-rejxk?authuser=0&hl=tr&rclk=1",
    "website_url": "http://www.lz1866.com/",
    "rating_text": "4,7",
    "stars": null,
    "number_of_reviews": null,
    "price_level": "",
    "open_hours": "",
    "extraction_timestamp": "2025-06-07T13:50:41.718Z",
    "source_name": "google",
    "source_query": "Irrigation Equipment",
    "source_country": "BG",
    "country": "Bulgaria",
    "state": "Ruse Province",
    "city": "Obshtina Borovo"
  },
  {
    "source_id": "ChIJMd-r3-LDrkARxIGtXpDM6ik",
    "name": "The Market",
    "category": "The Market",
    "formatted_address": "4,0(410)",
    "phone_number": "",
    "source_url": "https://www.google.com/maps/place/The+Market/data=!4m7!3m6!1s0x40aec3e2dfabdf31:0x29eacc905ead81c4!8m2!3d43.4579889!4d25.7390106!16s%2Fg%2F12qf4wb_7!19sChIJMd-r3-LDrkARxIGtXpDM6ik?authuser=0&hl=tr&rclk=1",
    "website_url": "",
    "rating_text": "4,0",
    "stars": null,
    "number_of_reviews": null,
    "price_level": "",
    "open_hours": "",
    "extraction_timestamp": "2025-06-07T13:50:41.718Z",
    "source_name": "google",
    "source_query": "Irrigation Equipment",
    "source_country": "BG",
    "country": "Bulgaria",
    "state": "Ruse Province",
    "city": "Obshtina Borovo"
  },
  {
    "source_id": "ChIJdRTQFZ8lqUARIH9sg0PgEmk",
    "name": "PRAKTIS",
    "category": "PRAKTIS",
    "formatted_address": "4,3(774)",
    "phone_number": "+35962622137",
    "source_url": "https://www.google.com/maps/place/PRAKTIS/data=!4m7!3m6!1s0x40a9259f15d01475:0x6912e043836c7f20!8m2!3d43.0777307!4d25.5996236!16s%2Fg%2F11ghlcr6xf!19sChIJdRTQFZ8lqUARIH9sg0PgEmk?authuser=0&hl=tr&rclk=1",
    "website_url": "https://praktis.bg/",
    "rating_text": "4,3",
    "stars": null,
    "number_of_reviews": null,
    "price_level": "",
    "open_hours": "",
    "extraction_timestamp": "2025-06-07T13:50:41.720Z",
    "source_name": "google",
    "source_query": "Irrigation Equipment",
    "source_country": "BG",
    "country": "Bulgaria",
    "state": "Ruse Province",
    "city": "Obshtina Borovo"
  },
  {
    "source_id": "ChIJe93ansPBrkARiJ3o06mp_CE",
    "name": "АРТ КАФЕ",
    "category": "АРТ КАФЕ",
    "formatted_address": "4,6(82) · BGN 10–20",
    "phone_number": "+359885960409",
    "source_url": "https://www.google.com/maps/place/%D0%90%D0%A0%D0%A2+%D0%9A%D0%90%D0%A4%D0%95/data=!4m7!3m6!1s0x40aec1c39edadd7b:0x21fca9a9d3e89d88!8m2!3d43.4694896!4d25.6730844!16s%2Fg%2F11r_k4v1gn!19sChIJe93ansPBrkARiJ3o06mp_CE?authuser=0&hl=tr&rclk=1",
    "website_url": "",
    "rating_text": "4,6",
    "stars": null,
    "number_of_reviews": null,
    "price_level": "",
    "open_hours": "",
    "extraction_timestamp": "2025-06-07T13:50:41.722Z",
    "source_name": "google",
    "source_query": "Irrigation Equipment",
    "source_country": "BG",
    "country": "Bulgaria",
    "state": "Ruse Province",
    "city": "Obshtina Borovo"
  },
  {
    "source_id": "ChIJX9kGSe1JqUARyJ3Olguqgcc",
    "name": "Slavchev Pit Stop",
    "category": "Slavchev Pit Stop",
    "formatted_address": "5,0(1)",
    "phone_number": "+359884370190",
    "source_url": "https://www.google.com/maps/place/Slavchev+Pit+Stop/data=!4m7!3m6!1s0x40a949ed4906d95f:0xc781aa0b96ce9dc8!8m2!3d43.2331846!4d25.3067547!16s%2Fg%2F11l73jb5gy!19sChIJX9kGSe1JqUARyJ3Olguqgcc?authuser=0&hl=tr&rclk=1",
    "website_url": "https://www.facebook.com/profile.php?id=100089079243515",
    "rating_text": "5,0",
    "stars": null,
    "number_of_reviews": null,
    "price_level": "",
    "open_hours": "",
    "extraction_timestamp": "2025-06-07T13:50:41.723Z",
    "source_name": "google",
    "source_query": "Irrigation Equipment",
    "source_country": "BG",
    "country": "Bulgaria",
    "state": "Ruse Province",
    "city": "Obshtina Borovo"
  },
  {
    "source_id": "ChIJtaNc3UVJqUAR6-xoZO5wG9c",
    "name": "ЕТ \"ВЛАДИ 99\"",
    "category": "ЕТ \"ВЛАДИ 99\"",
    "formatted_address": "4,6(8)",
    "phone_number": "",
    "source_url": "https://www.google.com/maps/place/%D0%95%D0%A2+%22%D0%92%D0%9B%D0%90%D0%94%D0%98+99%22/data=!4m7!3m6!1s0x40a94945dd5ca3b5:0xd71b70ee6468eceb!8m2!3d43.2369465!4d25.3031752!16s%2Fg%2F11q8hqch32!19sChIJtaNc3UVJqUAR6-xoZO5wG9c?authuser=0&hl=tr&rclk=1",
    "website_url": "",
    "rating_text": "4,6",
    "stars": null,
    "number_of_reviews": null,
    "price_level": "",
    "open_hours": "",
    "extraction_timestamp": "2025-06-07T13:50:41.724Z",
    "source_name": "google",
    "source_query": "Irrigation Equipment",
    "source_country": "BG",
    "country": "Bulgaria",
    "state": "Ruse Province",
    "city": "Obshtina Borovo"
  },
  {
    "source_id": "ChIJQTP9kz0vqUARYlm16lpHuPQ",
    "name": "Сладкарска къща Венера",
    "category": "Сладкарска къща Венера",
    "formatted_address": "4,3(24)",
    "phone_number": "+359889071076",
    "source_url": "https://www.google.com/maps/place/%D0%A1%D0%BB%D0%B0%D0%B4%D0%BA%D0%B0%D1%80%D1%81%D0%BA%D0%B0+%D0%BA%D1%8A%D1%89%D0%B0+%D0%92%D0%B5%D0%BD%D0%B5%D1%80%D0%B0/data=!4m7!3m6!1s0x40a92f3d93fd3341:0xf4b8475aeab55962!8m2!3d43.1517034!4d25.6315501!16s%2Fg%2F11jq4rrlp4!19sChIJQTP9kz0vqUARYlm16lpHuPQ?authuser=0&hl=tr&rclk=1",
    "website_url": "",
    "rating_text": "4,3",
    "stars": null,
    "number_of_reviews": null,
    "price_level": "",
    "open_hours": "",
    "extraction_timestamp": "2025-06-07T13:50:41.725Z",
    "source_name": "google",
    "source_query": "Irrigation Equipment",
    "source_country": "BG",
    "country": "Bulgaria",
    "state": "Ruse Province",
    "city": "Obshtina Borovo"
  },
  {
    "source_id": "ChIJBzzowkolqUARoueBkxO9OCk",
    "name": "Зоо магазин и Груминг салон Щастливите лапички",
    "category": "Зоо магазин и Груминг салон Щастливите лапички",
    "formatted_address": "4,8(211)",
    "phone_number": "+359879993293",
    "source_url": "https://www.google.com/maps/place/%D0%97%D0%BE%D0%BE+%D0%BC%D0%B0%D0%B3%D0%B0%D0%B7%D0%B8%D0%BD+%D0%B8+%D0%93%D1%80%D1%83%D0%BC%D0%B8%D0%BD%D0%B3+%D1%81%D0%B0%D0%BB%D0%BE%D0%BD+%D0%A9%D0%B0%D1%81%D1%82%D0%BB%D0%B8%D0%B2%D0%B8%D1%82%D0%B5+%D0%BB%D0%B0%D0%BF%D0%B8%D1%87%D0%BA%D0%B8/data=!4m7!3m6!1s0x40a9254ac2e83c07:0x2938bd139381e7a2!8m2!3d43.0800831!4d25.6057012!16s%2Fg%2F11ghr53m6d!19sChIJBzzowkolqUARoueBkxO9OCk?authuser=0&hl=tr&rclk=1",
    "website_url": "",
    "rating_text": "4,8",
    "stars": null,
    "number_of_reviews": null,
    "price_level": "",
    "open_hours": "",
    "extraction_timestamp": "2025-06-07T13:50:41.727Z",
    "source_name": "google",
    "source_query": "Irrigation Equipment",
    "source_country": "BG",
    "country": "Bulgaria",
    "state": "Ruse Province",
    "city": "Obshtina Borovo"
  },
  {
    "source_id": "ChIJx0EEkuclqUARrpihW8Z1FAQ",
    "name": "Profix",
    "category": "Profix",
    "formatted_address": "4,9(37)",
    "phone_number": "+359878368777",
    "source_url": "https://www.google.com/maps/place/Profix/data=!4m7!3m6!1s0x40a925e7920441c7:0x41475c65ba198ae!8m2!3d43.0789392!4d25.6088909!16s%2Fg%2F11z5fx4r9!19sChIJx0EEkuclqUARrpihW8Z1FAQ?authuser=0&hl=tr&rclk=1",
    "website_url": "http://profix.bg/",
    "rating_text": "4,9",
    "stars": null,
    "number_of_reviews": null,
    "price_level": "",
    "open_hours": "",
    "extraction_timestamp": "2025-06-07T13:50:41.728Z",
    "source_name": "google",
    "source_query": "Irrigation Equipment",
    "source_country": "BG",
    "country": "Bulgaria",
    "state": "Ruse Province",
    "city": "Obshtina Borovo"
  },
  {
    "source_id": "ChIJi8kr6ltJqUAR1s-K7GelVjY",
    "name": "Coffee \"TV\"",
    "category": "Coffee \"TV\"",
    "formatted_address": "4,0(182) · BGN 10–20",
    "phone_number": "+359895695331",
    "source_url": "https://www.google.com/maps/place/Coffee+%22TV%22/data=!4m7!3m6!1s0x40a9495bea2bc98b:0x3656a567ec8acfd6!8m2!3d43.2382664!4d25.3060842!16s%2Fg%2F1pp2vb9rq!19sChIJi8kr6ltJqUAR1s-K7GelVjY?authuser=0&hl=tr&rclk=1",
    "website_url": "",
    "rating_text": "4,0",
    "stars": null,
    "number_of_reviews": null,
    "price_level": "",
    "open_hours": "",
    "extraction_timestamp": "2025-06-07T13:50:41.730Z",
    "source_name": "google",
    "source_query": "Irrigation Equipment",
    "source_country": "BG",
    "country": "Bulgaria",
    "state": "Ruse Province",
    "city": "Obshtina Borovo"
  },
  {
    "source_id": "ChIJ27fBjv0lqUAR4KlmqGoqWaU",
    "name": "Non Stop",
    "category": "Non Stop",
    "formatted_address": "4,3(76)",
    "phone_number": "",
    "source_url": "https://www.google.com/maps/place/Non+Stop/data=!4m7!3m6!1s0x40a925fd8ec1b7db:0xa5592a6aa866a9e0!8m2!3d43.0769669!4d25.6104441!16s%2Fg%2F11f7pv0b_6!19sChIJ27fBjv0lqUAR4KlmqGoqWaU?authuser=0&hl=tr&rclk=1",
    "website_url": "",
    "rating_text": "4,3",
    "stars": null,
    "number_of_reviews": null,
    "price_level": "",
    "open_hours": "",
    "extraction_timestamp": "2025-06-07T13:50:41.731Z",
    "source_name": "google",
    "source_query": "Irrigation Equipment",
    "source_country": "BG",
    "country": "Bulgaria",
    "state": "Ruse Province",
    "city": "Obshtina Borovo"
  },
  {
    "source_id": "ChIJBSR1RmP7rkARm3ngt_dUo60",
    "name": "Food Store",
    "category": "Food Store",
    "formatted_address": "4,0(1)",
    "phone_number": "",
    "source_url": "https://www.google.com/maps/place/Food+Store/data=!4m7!3m6!1s0x40aefb6346752405:0xada354f7b7e0799b!8m2!3d43.6160272!4d26.021654!16s%2Fg%2F11s57bpm74!19sChIJBSR1RmP7rkARm3ngt_dUo60?authuser=0&hl=tr&rclk=1",
    "website_url": "",
    "rating_text": "4,0",
    "stars": null,
    "number_of_reviews": null,
    "price_level": "",
    "open_hours": "",
    "extraction_timestamp": "2025-06-07T13:50:41.731Z",
    "source_name": "google",
    "source_query": "Irrigation Equipment",
    "source_country": "BG",
    "country": "Bulgaria",
    "state": "Ruse Province",
    "city": "Obshtina Borovo"
  },
  {
    "source_id": "ChIJLczREwYmqUARG9wiskFMnCw",
    "name": "Супермаркет Класико",
    "category": "Супермаркет Класико",
    "formatted_address": "3,9(812)",
    "phone_number": "+35962600115",
    "source_url": "https://www.google.com/maps/place/%D0%A1%D1%83%D0%BF%D0%B5%D1%80%D0%BC%D0%B0%D1%80%D0%BA%D0%B5%D1%82+%D0%9A%D0%BB%D0%B0%D1%81%D0%B8%D0%BA%D0%BE/data=!4m7!3m6!1s0x40a9260613d1cc2d:0x2c9c4c41b222dc1b!8m2!3d43.084094!4d25.622013!16s%2Fg%2F11bwq9b2wj!19sChIJLczREwYmqUARG9wiskFMnCw?authuser=0&hl=tr&rclk=1",
    "website_url": "http://www.klasiko.bg/",
    "rating_text": "3,9",
    "stars": null,
    "number_of_reviews": null,
    "price_level": "",
    "open_hours": "",
    "extraction_timestamp": "2025-06-07T13:50:41.732Z",
    "source_name": "google",
    "source_query": "Irrigation Equipment",
    "source_country": "BG",
    "country": "Bulgaria",
    "state": "Ruse Province",
    "city": "Obshtina Borovo"
  },
  {
    "source_id": "ChIJ-UFXHvQtqUAR6Gv74fzpJF4",
    "name": "Food Store",
    "category": "Food Store",
    "formatted_address": "4,3(4)",
    "phone_number": "",
    "source_url": "https://www.google.com/maps/place/Food+Store/data=!4m7!3m6!1s0x40a92df41e5741f9:0x5e24e9fce1fb6be8!8m2!3d43.1842863!4d25.6197204!16s%2Fg%2F11fj0j1h54!19sChIJ-UFXHvQtqUAR6Gv74fzpJF4?authuser=0&hl=tr&rclk=1",
    "website_url": "",
    "rating_text": "4,3",
    "stars": null,
    "number_of_reviews": null,
    "price_level": "",
    "open_hours": "",
    "extraction_timestamp": "2025-06-07T13:50:41.732Z",
    "source_name": "google",
    "source_query": "Irrigation Equipment",
    "source_country": "BG",
    "country": "Bulgaria",
    "state": "Ruse Province",
    "city": "Obshtina Borovo"
  },
  {
    "source_id": "ChIJjzdsqeDBrkARadqlQFgq38E",
    "name": "Byalamarket",
    "category": "Byalamarket",
    "formatted_address": "4,3(87)",
    "phone_number": "",
    "source_url": "https://www.google.com/maps/place/Byalamarket/data=!4m7!3m6!1s0x40aec1e0a96c378f:0xc1df2a5840a5da69!8m2!3d43.4649458!4d25.7303731!16s%2Fg%2F11h2h76jxw!19sChIJjzdsqeDBrkARadqlQFgq38E?authuser=0&hl=tr&rclk=1",
    "website_url": "",
    "rating_text": "4,3",
    "stars": null,
    "number_of_reviews": null,
    "price_level": "",
    "open_hours": "",
    "extraction_timestamp": "2025-06-07T13:50:41.733Z",
    "source_name": "google",
    "source_query": "Irrigation Equipment",
    "source_country": "BG",
    "country": "Bulgaria",
    "state": "Ruse Province",
    "city": "Obshtina Borovo"
  },
  {
    "source_id": "ChIJExqf09EnqUARpm5c7lfQI5M",
    "name": "Минимаркет Митос | Easypay | Mitos Minimarket",
    "category": "Минимаркет Митос | Easypay | Mitos Minimarket",
    "formatted_address": "4,5(35)",
    "phone_number": "+359887307779",
    "source_url": "https://www.google.com/maps/place/%D0%9C%D0%B8%D0%BD%D0%B8%D0%BC%D0%B0%D1%80%D0%BA%D0%B5%D1%82+%D0%9C%D0%B8%D1%82%D0%BE%D1%81+%7C+Easypay+%7C+Mitos+Minimarket/data=!4m7!3m6!1s0x40a927d1d39f1a13:0x9323d057ee5c6ea6!8m2!3d43.0813962!4d25.6252809!16s%2Fg%2F11rccxgbyy!19sChIJExqf09EnqUARpm5c7lfQI5M?authuser=0&hl=tr&rclk=1",
    "website_url": "",
    "rating_text": "4,5",
    "stars": null,
    "number_of_reviews": null,
    "price_level": "",
    "open_hours": "",
    "extraction_timestamp": "2025-06-07T13:50:41.733Z",
    "source_name": "google",
    "source_query": "Irrigation Equipment",
    "source_country": "BG",
    "country": "Bulgaria",
    "state": "Ruse Province",
    "city": "Obshtina Borovo"
  },
  {
    "source_id": "ChIJly0pKrdgrkARoJZC1lgKWoY",
    "name": "ПОЛИВНИ СИСТЕМИ ЕООД",
    "category": "ПОЛИВНИ СИСТЕМИ ЕООД",
    "formatted_address": "4,7(11)",
    "phone_number": "+359887424020",
    "source_url": "https://www.google.com/maps/place/%D0%9F%D0%9E%D0%9B%D0%98%D0%92%D0%9D%D0%98+%D0%A1%D0%98%D0%A1%D0%A2%D0%95%D0%9C%D0%98+%D0%95%D0%9E%D0%9E%D0%94/data=!4m7!3m6!1s0x40ae60b72a292d97:0x865a0a58d64296a0!8m2!3d43.8355713!4d25.9656554!16s%2Fg%2F1hc2rnssk!19sChIJly0pKrdgrkARoJZC1lgKWoY?authuser=0&hl=tr&rclk=1",
    "website_url": "",
    "rating_text": "4,7",
    "stars": null,
    "number_of_reviews": null,
    "price_level": "",
    "open_hours": "",
    "extraction_timestamp": "2025-06-07T13:50:42.595Z",
    "source_name": "google",
    "source_query": "Irrigation Equipment",
    "source_country": "BG",
    "country": "Bulgaria",
    "state": "Ruse Province",
    "city": "Borovo"
  },
  {
    "source_id": "ChIJs-3c9rOEqkARVzyxNRxPH6k",
    "name": "Aqua Engeneering Group",
    "category": "Aqua Engeneering Group",
    "formatted_address": "4,4(47)",
    "phone_number": "+359884201983",
    "source_url": "https://www.google.com/maps/place/Aqua+Engeneering+Group/data=!4m7!3m6!1s0x40aa84b3f6dcedb3:0xa91f4f1c35b13c57!8m2!3d42.6634902!4d23.2564096!16s%2Fg%2F1tgfv3gl!19sChIJs-3c9rOEqkARVzyxNRxPH6k?authuser=0&hl=tr&rclk=1",
    "website_url": "http://aqua-irrigation.com/",
    "rating_text": "4,4",
    "stars": null,
    "number_of_reviews": null,
    "price_level": "",
    "open_hours": "",
    "extraction_timestamp": "2025-06-07T13:50:42.597Z",
    "source_name": "google",
    "source_query": "Irrigation Equipment",
    "source_country": "BG",
    "country": "Bulgaria",
    "state": "Ruse Province",
    "city": "Borovo"
  },
  {
    "source_id": "ChIJsYU6OH0Or0ARC3eRUz7FIsc",
    "name": "Напоителни Системи",
    "category": "Напоителни Системи",
    "formatted_address": "",
    "phone_number": "+359895843284",
    "source_url": "https://www.google.com/maps/place/%D0%9D%D0%B0%D0%BF%D0%BE%D0%B8%D1%82%D0%B5%D0%BB%D0%BD%D0%B8+%D0%A1%D0%B8%D1%81%D1%82%D0%B5%D0%BC%D0%B8/data=!4m7!3m6!1s0x40af0e7d383a85b1:0xc722c53e5391770b!8m2!3d43.5248284!4d26.5185956!16s%2Fg%2F11hyt13jl9!19sChIJsYU6OH0Or0ARC3eRUz7FIsc?authuser=0&hl=tr&rclk=1",
    "website_url": "http://www.napoitelnisystemi.eu/kontakti",
    "rating_text": "",
    "stars": null,
    "number_of_reviews": null,
    "price_level": "",
    "open_hours": "",
    "extraction_timestamp": "2025-06-07T13:50:42.599Z",
    "source_name": "google",
    "source_query": "Irrigation Equipment",
    "source_country": "BG",
    "country": "Bulgaria",
    "state": "Ruse Province",
    "city": "Borovo"
  },
  {
    "source_id": "ChIJly0pKrdgrkARoJZC1lgKWoY",
    "name": "ПОЛИВНИ СИСТЕМИ ЕООД",
    "category": "ПОЛИВНИ СИСТЕМИ ЕООД",
    "formatted_address": "4,7(11)",
    "phone_number": "+359887424020",
    "source_url": "https://www.google.com/maps/place/%D0%9F%D0%9E%D0%9B%D0%98%D0%92%D0%9D%D0%98+%D0%A1%D0%98%D0%A1%D0%A2%D0%95%D0%9C%D0%98+%D0%95%D0%9E%D0%9E%D0%94/data=!4m7!3m6!1s0x40ae60b72a292d97:0x865a0a58d64296a0!8m2!3d43.8355713!4d25.9656554!16s%2Fg%2F1hc2rnssk!19sChIJly0pKrdgrkARoJZC1lgKWoY?authuser=0&hl=tr&rclk=1",
    "website_url": "",
    "rating_text": "4,7",
    "stars": null,
    "number_of_reviews": null,
    "price_level": "",
    "open_hours": "",
    "extraction_timestamp": "2025-06-07T13:50:51.625Z",
    "source_name": "google",
    "source_query": "Irrigation Equipment",
    "source_country": "BG",
    "country": "Bulgaria",
    "state": "Ruse Province",
    "city": "Obshtina Ruse"
  },
  {
    "source_id": "ChIJaR5wldhhrkAR2UEopH9G7YY",
    "name": "\"Водопроводни Решения Русе\"- професионални вик услуги,vik uslugi",
    "category": "\"Водопроводни Решения Русе\"- професионални вик услуги,vik uslugi",
    "formatted_address": "\"Водопроводни Решения Русе\"- професионални вик услуги,vik uslugi",
    "phone_number": "+359893967820",
    "source_url": "https://www.google.com/maps/place/%22%D0%92%D0%BE%D0%B4%D0%BE%D0%BF%D1%80%D0%BE%D0%B2%D0%BE%D0%B4%D0%BD%D0%B8+%D0%A0%D0%B5%D1%88%D0%B5%D0%BD%D0%B8%D1%8F+%D0%A0%D1%83%D1%81%D0%B5%22-+%D0%BF%D1%80%D0%BE%D1%84%D0%B5%D1%81%D0%B8%D0%BE%D0%BD%D0%B0%D0%BB%D0%BD%D0%B8+%D0%B2%D0%B8%D0%BA+%D1%83%D1%81%D0%BB%D1%83%D0%B3%D0%B8,vik+uslugi/data=!4m7!3m6!1s0x40ae61d895701e69:0x86ed467fa42841d9!8m2!3d43.8456948!4d25.9561749!16s%2Fg%2F11t1rl1b_s!19sChIJaR5wldhhrkAR2UEopH9G7YY?authuser=0&hl=tr&rclk=1",
    "website_url": "",
    "rating_text": "5,0",
    "stars": null,
    "number_of_reviews": null,
    "price_level": "",
    "open_hours": "",
    "extraction_timestamp": "2025-06-07T13:50:51.625Z",
    "source_name": "google",
    "source_query": "Irrigation Equipment",
    "source_country": "BG",
    "country": "Bulgaria",
    "state": "Ruse Province",
    "city": "Obshtina Ruse"
  },
  {
    "source_id": "ChIJKcKJa05nrkARIkDmtycNem4",
    "name": "Филипчев и Ко ООД",
    "category": "Филипчев и Ко ООД",
    "formatted_address": "4,6(100)",
    "phone_number": "+359897843924",
    "source_url": "https://www.google.com/maps/place/%D0%A4%D0%B8%D0%BB%D0%B8%D0%BF%D1%87%D0%B5%D0%B2+%D0%B8+%D0%9A%D0%BE+%D0%9E%D0%9E%D0%94/data=!4m7!3m6!1s0x40ae674e6b89c229:0x6e7a0d27b7e64022!8m2!3d43.8551825!4d25.9854165!16s%2Fg%2F11b76kr81g!19sChIJKcKJa05nrkARIkDmtycNem4?authuser=0&hl=tr&rclk=1",
    "website_url": "",
    "rating_text": "4,6",
    "stars": null,
    "number_of_reviews": null,
    "price_level": "",
    "open_hours": "",
    "extraction_timestamp": "2025-06-07T13:50:51.626Z",
    "source_name": "google",
    "source_query": "Irrigation Equipment",
    "source_country": "BG",
    "country": "Bulgaria",
    "state": "Ruse Province",
    "city": "Obshtina Ruse"
  },
  {
    "source_id": "ChIJGax_BlBdrkAR7fx-k2gj4lQ",
    "name": "Construction Tools EOOD, Husqvarna",
    "category": "Construction Tools EOOD, Husqvarna",
    "formatted_address": "Construction Tools EOOD, Husqvarna",
    "phone_number": "+35982810555",
    "source_url": "https://www.google.com/maps/place/Construction+Tools+EOOD,+Husqvarna/data=!4m7!3m6!1s0x40ae5d50067fac19:0x54e22368937efced!8m2!3d43.9015648!4d26.05922!16s%2Fg%2F11cs2c0p0j!19sChIJGax_BlBdrkAR7fx-k2gj4lQ?authuser=0&hl=tr&rclk=1",
    "website_url": "http://www.husqvarnacp.com/int/",
    "rating_text": "4,5",
    "stars": null,
    "number_of_reviews": null,
    "price_level": "",
    "open_hours": "",
    "extraction_timestamp": "2025-06-07T13:50:51.626Z",
    "source_name": "google",
    "source_query": "Irrigation Equipment",
    "source_country": "BG",
    "country": "Bulgaria",
    "state": "Ruse Province",
    "city": "Obshtina Ruse"
  },
  {
    "source_id": "ChIJmU7e525hrkAR4RDHt16KqpU",
    "name": "My Water BG",
    "category": "My Water BG",
    "formatted_address": "4,9(7)",
    "phone_number": "+359877799499",
    "source_url": "https://www.google.com/maps/place/My+Water+BG/data=!4m7!3m6!1s0x40ae616ee7de4e99:0x95aa8a5eb7c710e1!8m2!3d43.8418027!4d25.9589377!16s%2Fg%2F11jbnm25dz!19sChIJmU7e525hrkAR4RDHt16KqpU?authuser=0&hl=tr&rclk=1",
    "website_url": "http://mywater.bg/",
    "rating_text": "4,9",
    "stars": null,
    "number_of_reviews": null,
    "price_level": "",
    "open_hours": "",
    "extraction_timestamp": "2025-06-07T13:50:51.627Z",
    "source_name": "google",
    "source_query": "Irrigation Equipment",
    "source_country": "BG",
    "country": "Bulgaria",
    "state": "Ruse Province",
    "city": "Obshtina Ruse"
  },
  {
    "source_id": "ChIJl9iX1blgrkAR1f5qhknIeFY",
    "name": "Mr.Bricolage Ruse",
    "category": "Mr.Bricolage Ruse",
    "formatted_address": "4,3(2.585)",
    "phone_number": "+359882292869",
    "source_url": "https://www.google.com/maps/place/Mr.Bricolage+Ruse/data=!4m7!3m6!1s0x40ae60b9d597d897:0x5678c849866afed5!8m2!3d43.8458032!4d25.9623594!16s%2Fg%2F1tsr1pr5!19sChIJl9iX1blgrkAR1f5qhknIeFY?authuser=0&hl=tr&rclk=1",
    "website_url": "https://mr-bricolage.bg/",
    "rating_text": "4,3",
    "stars": null,
    "number_of_reviews": null,
    "price_level": "",
    "open_hours": "",
    "extraction_timestamp": "2025-06-07T13:50:51.627Z",
    "source_name": "google",
    "source_query": "Irrigation Equipment",
    "source_country": "BG",
    "country": "Bulgaria",
    "state": "Ruse Province",
    "city": "Obshtina Ruse"
  },
  {
    "source_id": "ChIJlVUWisBgrkAR_9GDqyMSnjE",
    "name": "Irrigation Systems",
    "category": "Irrigation Systems",
    "formatted_address": "1,0(2)",
    "phone_number": "+35982825748",
    "source_url": "https://www.google.com/maps/place/Irrigation+Systems/data=!4m7!3m6!1s0x40ae60c08a165595:0x319e1223ab83d1ff!8m2!3d43.8419922!4d25.9542701!16s%2Fg%2F11h1lh6ml!19sChIJlVUWisBgrkAR_9GDqyMSnjE?authuser=0&hl=tr&rclk=1",
    "website_url": "",
    "rating_text": "1,0",
    "stars": null,
    "number_of_reviews": null,
    "price_level": "",
    "open_hours": "",
    "extraction_timestamp": "2025-06-07T13:50:51.628Z",
    "source_name": "google",
    "source_query": "Irrigation Equipment",
    "source_country": "BG",
    "country": "Bulgaria",
    "state": "Ruse Province",
    "city": "Obshtina Ruse"
  },
  {
    "source_id": "ChIJH9d6HZxgrkARhAG6t3LjBGE",
    "name": "PRAKTIS",
    "category": "PRAKTIS",
    "formatted_address": "4,1(695)",
    "phone_number": "+35982599196",
    "source_url": "https://www.google.com/maps/place/PRAKTIS/data=!4m7!3m6!1s0x40ae609c1d7ad71f:0x6104e372b7ba0184!8m2!3d43.8304774!4d25.9691806!16s%2Fg%2F11b7g0y85k!19sChIJH9d6HZxgrkARhAG6t3LjBGE?authuser=0&hl=tr&rclk=1",
    "website_url": "https://praktis.bg/",
    "rating_text": "4,1",
    "stars": null,
    "number_of_reviews": null,
    "price_level": "",
    "open_hours": "",
    "extraction_timestamp": "2025-06-07T13:50:51.628Z",
    "source_name": "google",
    "source_query": "Irrigation Equipment",
    "source_country": "BG",
    "country": "Bulgaria",
    "state": "Ruse Province",
    "city": "Obshtina Ruse"
  },
  {
    "source_id": "ChIJBYl0l8BgrkARoib0bs3raXE",
    "name": "Stanimir Petrikov",
    "category": "Stanimir Petrikov",
    "formatted_address": "4,1(124)",
    "phone_number": "+35982834605",
    "source_url": "https://www.google.com/maps/place/Stanimir+Petrikov/data=!4m7!3m6!1s0x40ae60c097748905:0x7169ebcd6ef426a2!8m2!3d43.8424721!4d25.9615535!16s%2Fg%2F1tcz6tx1!19sChIJBYl0l8BgrkARoib0bs3raXE?authuser=0&hl=tr&rclk=1",
    "website_url": "http://www.petrikov-bg.com/",
    "rating_text": "4,1",
    "stars": null,
    "number_of_reviews": null,
    "price_level": "",
    "open_hours": "",
    "extraction_timestamp": "2025-06-07T13:50:51.628Z",
    "source_name": "google",
    "source_query": "Irrigation Equipment",
    "source_country": "BG",
    "country": "Bulgaria",
    "state": "Ruse Province",
    "city": "Obshtina Ruse"
  },
  {
    "source_id": "ChIJNcPZv5tgrkAR-4bsRhDlZIg",
    "name": "Шоне - ООД",
    "category": "Шоне - ООД",
    "formatted_address": "4,2(126)",
    "phone_number": "+35982860893",
    "source_url": "https://www.google.com/maps/place/%D0%A8%D0%BE%D0%BD%D0%B5+-+%D0%9E%D0%9E%D0%94/data=!4m7!3m6!1s0x40ae609bbfd9c335:0x8864e51046ec86fb!8m2!3d43.8305879!4d25.9657133!16s%2Fg%2F11cn60zb3r!19sChIJNcPZv5tgrkAR-4bsRhDlZIg?authuser=0&hl=tr&rclk=1",
    "website_url": "",
    "rating_text": "4,2",
    "stars": null,
    "number_of_reviews": null,
    "price_level": "",
    "open_hours": "",
    "extraction_timestamp": "2025-06-07T13:50:51.629Z",
    "source_name": "google",
    "source_query": "Irrigation Equipment",
    "source_country": "BG",
    "country": "Bulgaria",
    "state": "Ruse Province",
    "city": "Obshtina Ruse"
  },
  {
    "source_id": "ChIJs62PjM1grkAREZPB-_AnGyU",
    "name": "VAMEKS - Complete Plumbing in Ruse",
    "category": "VAMEKS - Complete Plumbing in Ruse",
    "formatted_address": "4,6(225)",
    "phone_number": "+359878780935",
    "source_url": "https://www.google.com/maps/place/VAMEKS+-+Complete+Plumbing+in+Ruse/data=!4m7!3m6!1s0x40ae60cd8c8fadb3:0x251b27f0fbc19311!8m2!3d43.844799!4d25.9456668!16s%2Fg%2F1tfbwz9p!19sChIJs62PjM1grkAREZPB-_AnGyU?authuser=0&hl=tr&rclk=1",
    "website_url": "http://vamex.bg/",
    "rating_text": "4,6",
    "stars": null,
    "number_of_reviews": null,
    "price_level": "",
    "open_hours": "",
    "extraction_timestamp": "2025-06-07T13:50:51.629Z",
    "source_name": "google",
    "source_query": "Irrigation Equipment",
    "source_country": "BG",
    "country": "Bulgaria",
    "state": "Ruse Province",
    "city": "Obshtina Ruse"
  },
  {
    "source_id": "ChIJY4aLWqVnrkARjJ1ff1ZmMNI",
    "name": "Фиксед ООД - Оторизиран дилър на STIHL - Магазин и Сервиз",
    "category": "Фиксед ООД - Оторизиран дилър на STIHL - Магазин и Сервиз",
    "formatted_address": "3,0(6)",
    "phone_number": "+359878425460",
    "source_url": "https://www.google.com/maps/place/%D0%A4%D0%B8%D0%BA%D1%81%D0%B5%D0%B4+%D0%9E%D0%9E%D0%94+-+%D0%9E%D1%82%D0%BE%D1%80%D0%B8%D0%B7%D0%B8%D1%80%D0%B0%D0%BD+%D0%B4%D0%B8%D0%BB%D1%8A%D1%80+%D0%BD%D0%B0+STIHL+-+%D0%9C%D0%B0%D0%B3%D0%B0%D0%B7%D0%B8%D0%BD+%D0%B8+%D0%A1%D0%B5%D1%80%D0%B2%D0%B8%D0%B7/data=!4m7!3m6!1s0x40ae67a55a8b8663:0xd23066567f5f9d8c!8m2!3d43.855638!4d25.9848492!16s%2Fg%2F11fvy1g9kw!19sChIJY4aLWqVnrkARjJ1ff1ZmMNI?authuser=0&hl=tr&rclk=1",
    "website_url": "http://fixedltd.com/",
    "rating_text": "3,0",
    "stars": null,
    "number_of_reviews": null,
    "price_level": "",
    "open_hours": "",
    "extraction_timestamp": "2025-06-07T13:50:51.629Z",
    "source_name": "google",
    "source_query": "Irrigation Equipment",
    "source_country": "BG",
    "country": "Bulgaria",
    "state": "Ruse Province",
    "city": "Obshtina Ruse"
  },
  {
    "source_id": "ChIJS3lmda1grkARzs_G0M7VPxk",
    "name": "Agroteh-Rosata",
    "category": "Agroteh-Rosata",
    "formatted_address": "4,8(17)",
    "phone_number": "+359878844349",
    "source_url": "https://www.google.com/maps/place/Agroteh-Rosata/data=!4m7!3m6!1s0x40ae60ad7566794b:0x193fd5ced0c6cfce!8m2!3d43.8691356!4d26.0072057!16s%2Fg%2F1tdg1qfz!19sChIJS3lmda1grkARzs_G0M7VPxk?authuser=0&hl=tr&rclk=1",
    "website_url": "http://www.agrotech-rosata.com/",
    "rating_text": "4,8",
    "stars": null,
    "number_of_reviews": null,
    "price_level": "",
    "open_hours": "",
    "extraction_timestamp": "2025-06-07T13:50:51.629Z",
    "source_name": "google",
    "source_query": "Irrigation Equipment",
    "source_country": "BG",
    "country": "Bulgaria",
    "state": "Ruse Province",
    "city": "Obshtina Ruse"
  },
  {
    "source_id": "ChIJN8oHJ7FgrkARARGuEsDS1KI",
    "name": "Praktiker Ruse",
    "category": "Praktiker Ruse",
    "formatted_address": "4,4(1.382)",
    "phone_number": "+35982887120",
    "source_url": "https://www.google.com/maps/place/Praktiker+Ruse/data=!4m7!3m6!1s0x40ae60b12707ca37:0xa2d4d2c012ae1101!8m2!3d43.8468434!4d25.967147!16s%2Fg%2F1z44rc7q3!19sChIJN8oHJ7FgrkARARGuEsDS1KI?authuser=0&hl=tr&rclk=1",
    "website_url": "http://www.praktiker.bg/",
    "rating_text": "4,4",
    "stars": null,
    "number_of_reviews": null,
    "price_level": "",
    "open_hours": "",
    "extraction_timestamp": "2025-06-07T13:50:51.630Z",
    "source_name": "google",
    "source_query": "Irrigation Equipment",
    "source_country": "BG",
    "country": "Bulgaria",
    "state": "Ruse Province",
    "city": "Obshtina Ruse"
  },
  {
    "source_id": "ChIJE1MN-1xhrkARKqEyHI07MCo",
    "name": "OGRADKI BG",
    "category": "OGRADKI BG",
    "formatted_address": "4,3(6)",
    "phone_number": "+359895675832",
    "source_url": "https://www.google.com/maps/place/OGRADKI+BG/data=!4m7!3m6!1s0x40ae615cfb0d5313:0x2a303b8d1c32a12a!8m2!3d43.8539914!4d25.9913739!16s%2Fg%2F11jgf0rqh4!19sChIJE1MN-1xhrkARKqEyHI07MCo?authuser=0&hl=tr&rclk=1",
    "website_url": "http://www.ogradki.bg/",
    "rating_text": "4,3",
    "stars": null,
    "number_of_reviews": null,
    "price_level": "",
    "open_hours": "",
    "extraction_timestamp": "2025-06-07T13:50:51.630Z",
    "source_name": "google",
    "source_query": "Irrigation Equipment",
    "source_country": "BG",
    "country": "Bulgaria",
    "state": "Ruse Province",
    "city": "Obshtina Ruse"
  },
  {
    "source_id": "ChIJNSnhc51hrkARrauFOFTZLPw",
    "name": "ENERGYBOX",
    "category": "ENERGYBOX",
    "formatted_address": "4,8(33)",
    "phone_number": "+359895425560",
    "source_url": "https://www.google.com/maps/place/ENERGYBOX/data=!4m7!3m6!1s0x40ae619d73e12935:0xfc2cd9543885abad!8m2!3d43.846985!4d25.9510899!16s%2Fg%2F11nsb91n4r!19sChIJNSnhc51hrkARrauFOFTZLPw?authuser=0&hl=tr&rclk=1",
    "website_url": "https://www.facebook.com/Energy-Box-115745016998509",
    "rating_text": "4,8",
    "stars": null,
    "number_of_reviews": null,
    "price_level": "",
    "open_hours": "",
    "extraction_timestamp": "2025-06-07T13:50:51.631Z",
    "source_name": "google",
    "source_query": "Irrigation Equipment",
    "source_country": "BG",
    "country": "Bulgaria",
    "state": "Ruse Province",
    "city": "Obshtina Ruse"
  },
  {
    "source_id": "ChIJP6zqkPNdrkARsjEy-DLe_T0",
    "name": "INTERAGRI Bulgaria AD | Agricenter Ruse",
    "category": "INTERAGRI Bulgaria AD | Agricenter Ruse",
    "formatted_address": "4,2(40)",
    "phone_number": "+359879646413",
    "source_url": "https://www.google.com/maps/place/INTERAGRI+Bulgaria+AD+%7C+Agricenter+Ruse/data=!4m7!3m6!1s0x40ae5df390eaac3f:0x3dfdde32f83231b2!8m2!3d43.8608852!4d26.0139972!16s%2Fg%2F11c54frdkl!19sChIJP6zqkPNdrkARsjEy-DLe_T0?authuser=0&hl=tr&rclk=1",
    "website_url": "http://interagri.bg/",
    "rating_text": "4,2",
    "stars": null,
    "number_of_reviews": null,
    "price_level": "",
    "open_hours": "",
    "extraction_timestamp": "2025-06-07T13:50:51.631Z",
    "source_name": "google",
    "source_query": "Irrigation Equipment",
    "source_country": "BG",
    "country": "Bulgaria",
    "state": "Ruse Province",
    "city": "Obshtina Ruse"
  },
  {
    "source_id": "ChIJgQNa8ZhgrkARhQgSz4HK6Xs",
    "name": "Магазин \"Жираф\"",
    "category": "Магазин \"Жираф\"",
    "formatted_address": "4,2(629)",
    "phone_number": "+35982860943",
    "source_url": "https://www.google.com/maps/place/%D0%9C%D0%B0%D0%B3%D0%B0%D0%B7%D0%B8%D0%BD+%22%D0%96%D0%B8%D1%80%D0%B0%D1%84%22/data=!4m7!3m6!1s0x40ae6098f15a0381:0x7be9ca81cf120885!8m2!3d43.8349058!4d25.9678761!16s%2Fg%2F1v82_ltz!19sChIJgQNa8ZhgrkARhQgSz4HK6Xs?authuser=0&hl=tr&rclk=1",
    "website_url": "https://9151-bg.all.biz/",
    "rating_text": "4,2",
    "stars": null,
    "number_of_reviews": null,
    "price_level": "",
    "open_hours": "",
    "extraction_timestamp": "2025-06-07T13:50:51.631Z",
    "source_name": "google",
    "source_query": "Irrigation Equipment",
    "source_country": "BG",
    "country": "Bulgaria",
    "state": "Ruse Province",
    "city": "Obshtina Ruse"
  },
  {
    "source_id": "ChIJuzKGGsxgrkARmJuHE0iL-aM",
    "name": "Elina 97",
    "category": "Elina 97",
    "formatted_address": "4,7(30)",
    "phone_number": "+35982832337",
    "source_url": "https://www.google.com/maps/place/Elina+97/data=!4m7!3m6!1s0x40ae60cc1a8632bb:0xa3f98b4813879b98!8m2!3d43.8543514!4d25.9571711!16s%2Fg%2F1tc_jmyh!19sChIJuzKGGsxgrkARmJuHE0iL-aM?authuser=0&hl=tr&rclk=1",
    "website_url": "",
    "rating_text": "4,7",
    "stars": null,
    "number_of_reviews": null,
    "price_level": "",
    "open_hours": "",
    "extraction_timestamp": "2025-06-07T13:50:51.631Z",
    "source_name": "google",
    "source_query": "Irrigation Equipment",
    "source_country": "BG",
    "country": "Bulgaria",
    "state": "Ruse Province",
    "city": "Obshtina Ruse"
  },
  {
    "source_id": "ChIJZ-SNrrxgrkARB4chKi2R6Ls",
    "name": "ARTISTIKA",
    "category": "ARTISTIKA",
    "formatted_address": "4,5(205)",
    "phone_number": "+359887957894",
    "source_url": "https://www.google.com/maps/place/ARTISTIKA/data=!4m7!3m6!1s0x40ae60bcae8de467:0xbbe8912d2a218707!8m2!3d43.8383016!4d25.9787083!16s%2Fg%2F11c6y_9wb5!19sChIJZ-SNrrxgrkARB4chKi2R6Ls?authuser=0&hl=tr&rclk=1",
    "website_url": "https://artistika.bg/",
    "rating_text": "4,5",
    "stars": null,
    "number_of_reviews": null,
    "price_level": "",
    "open_hours": "",
    "extraction_timestamp": "2025-06-07T13:50:51.632Z",
    "source_name": "google",
    "source_query": "Irrigation Equipment",
    "source_country": "BG",
    "country": "Bulgaria",
    "state": "Ruse Province",
    "city": "Obshtina Ruse"
  },
  {
    "source_id": "ChIJz4Mt6L9grkARUnLPetcYEYQ",
    "name": "Акваристика и Зоомагазин в Русе-\"Аквазоо Немо\"",
    "category": "Акваристика и Зоомагазин в Русе-\"Аквазоо Немо\"",
    "formatted_address": "4,8(146)",
    "phone_number": "+359888316917",
    "source_url": "https://www.google.com/maps/place/%D0%90%D0%BA%D0%B2%D0%B0%D1%80%D0%B8%D1%81%D1%82%D0%B8%D0%BA%D0%B0+%D0%B8+%D0%97%D0%BE%D0%BE%D0%BC%D0%B0%D0%B3%D0%B0%D0%B7%D0%B8%D0%BD+%D0%B2+%D0%A0%D1%83%D1%81%D0%B5-%22%D0%90%D0%BA%D0%B2%D0%B0%D0%B7%D0%BE%D0%BE+%D0%9D%D0%B5%D0%BC%D0%BE%22/data=!4m7!3m6!1s0x40ae60bfe82d83cf:0x841118d77acf7252!8m2!3d43.8399207!4d25.9556222!16s%2Fg%2F11f50t2_77!19sChIJz4Mt6L9grkARUnLPetcYEYQ?authuser=0&hl=tr&rclk=1",
    "website_url": "",
    "rating_text": "4,8",
    "stars": null,
    "number_of_reviews": null,
    "price_level": "",
    "open_hours": "",
    "extraction_timestamp": "2025-06-07T13:50:51.632Z",
    "source_name": "google",
    "source_query": "Irrigation Equipment",
    "source_country": "BG",
    "country": "Bulgaria",
    "state": "Ruse Province",
    "city": "Obshtina Ruse"
  },
  {
    "source_id": "ChIJRx3GNgphrkARb3uvfl995Vg",
    "name": "Еленски Балкан",
    "category": "Еленски Балкан",
    "formatted_address": "5,0(1)",
    "phone_number": "+359897840909",
    "source_url": "https://www.google.com/maps/place/%D0%95%D0%BB%D0%B5%D0%BD%D1%81%D0%BA%D0%B8+%D0%91%D0%B0%D0%BB%D0%BA%D0%B0%D0%BD/data=!4m7!3m6!1s0x40ae610a36c61d47:0x58e57d5f7eaf7b6f!8m2!3d43.848!4d25.9573381!16s%2Fg%2F11qygbrs4k!19sChIJRx3GNgphrkARb3uvfl995Vg?authuser=0&hl=tr&rclk=1",
    "website_url": "http://www.elenamilk.com/",
    "rating_text": "5,0",
    "stars": null,
    "number_of_reviews": null,
    "price_level": "",
    "open_hours": "",
    "extraction_timestamp": "2025-06-07T13:50:51.632Z",
    "source_name": "google",
    "source_query": "Irrigation Equipment",
    "source_country": "BG",
    "country": "Bulgaria",
    "state": "Ruse Province",
    "city": "Obshtina Ruse"
  },
  {
    "source_id": "ChIJ04Zou55grkARPJXqSXzoso4",
    "name": "Technopolis Ruse",
    "category": "Technopolis Ruse",
    "formatted_address": "4,4(3.066)",
    "phone_number": "+35970012340",
    "source_url": "https://www.google.com/maps/place/Technopolis+Ruse/data=!4m7!3m6!1s0x40ae609ebb6886d3:0x8eb2e87c49ea953c!8m2!3d43.8316401!4d25.9700988!16s%2Fg%2F1261gfnx5!19sChIJ04Zou55grkARPJXqSXzoso4?authuser=0&hl=tr&rclk=1",
    "website_url": "http://www.technopolis.bg/",
    "rating_text": "4,4",
    "stars": null,
    "number_of_reviews": null,
    "price_level": "",
    "open_hours": "",
    "extraction_timestamp": "2025-06-07T13:50:51.633Z",
    "source_name": "google",
    "source_query": "Irrigation Equipment",
    "source_country": "BG",
    "country": "Bulgaria",
    "state": "Ruse Province",
    "city": "Obshtina Ruse"
  },
  {
    "source_id": "ChIJw6fwFr9grkARxg09Ja7tZa4",
    "name": "TONEL MARKET",
    "category": "TONEL MARKET",
    "formatted_address": "4,3(43)",
    "phone_number": "+359899895676",
    "source_url": "https://www.google.com/maps/place/TONEL+MARKET/data=!4m7!3m6!1s0x40ae60bf16f0a7c3:0xae65edae253d0dc6!8m2!3d43.8418726!4d25.958253!16s%2Fg%2F11f03r0pbk!19sChIJw6fwFr9grkARxg09Ja7tZa4?authuser=0&hl=tr&rclk=1",
    "website_url": "http://www.tonel.bg/",
    "rating_text": "4,3",
    "stars": null,
    "number_of_reviews": null,
    "price_level": "",
    "open_hours": "",
    "extraction_timestamp": "2025-06-07T13:50:51.633Z",
    "source_name": "google",
    "source_query": "Irrigation Equipment",
    "source_country": "BG",
    "country": "Bulgaria",
    "state": "Ruse Province",
    "city": "Obshtina Ruse"
  },
  {
    "source_id": "ChIJR6hDBpRgrkARpDm-5tYgVB8",
    "name": "Velomasters - Ruse",
    "category": "Velomasters - Ruse",
    "formatted_address": "4,2(81)",
    "phone_number": "+359893390013",
    "source_url": "https://www.google.com/maps/place/Velomasters+-+Ruse/data=!4m7!3m6!1s0x40ae60940643a847:0x1f5420d6e6be39a4!8m2!3d43.8495628!4d25.9563719!16s%2Fg%2F11c5wnb_h7!19sChIJR6hDBpRgrkARpDm-5tYgVB8?authuser=0&hl=tr&rclk=1",
    "website_url": "https://www.velomasters.bg/",
    "rating_text": "4,2",
    "stars": null,
    "number_of_reviews": null,
    "price_level": "",
    "open_hours": "",
    "extraction_timestamp": "2025-06-07T13:50:51.633Z",
    "source_name": "google",
    "source_query": "Irrigation Equipment",
    "source_country": "BG",
    "country": "Bulgaria",
    "state": "Ruse Province",
    "city": "Obshtina Ruse"
  },
  {
    "source_id": "ChIJjdOzM75grkARq73RMLu-YzQ",
    "name": "Магазин Боримес",
    "category": "Магазин Боримес",
    "formatted_address": "4,6(136)",
    "phone_number": "",
    "source_url": "https://www.google.com/maps/place/%D0%9C%D0%B0%D0%B3%D0%B0%D0%B7%D0%B8%D0%BD+%D0%91%D0%BE%D1%80%D0%B8%D0%BC%D0%B5%D1%81/data=!4m7!3m6!1s0x40ae60be33b3d38d:0x3463bebb30d1bdab!8m2!3d43.8394783!4d25.9574922!16s%2Fg%2F11ggnccqw4!19sChIJjdOzM75grkARq73RMLu-YzQ?authuser=0&hl=tr&rclk=1",
    "website_url": "",
    "rating_text": "4,6",
    "stars": null,
    "number_of_reviews": null,
    "price_level": "",
    "open_hours": "",
    "extraction_timestamp": "2025-06-07T13:50:51.634Z",
    "source_name": "google",
    "source_query": "Irrigation Equipment",
    "source_country": "BG",
    "country": "Bulgaria",
    "state": "Ruse Province",
    "city": "Obshtina Ruse"
  },
  {
    "source_id": "ChIJCSsoKiRerkARxQtpTnELJwU",
    "name": "Kaufland Руcе-Дружба",
    "category": "Kaufland Руcе-Дружба",
    "formatted_address": "4,1(4.161)",
    "phone_number": "+35980012220",
    "source_url": "https://www.google.com/maps/place/Kaufland+%D0%A0%D1%83c%D0%B5-%D0%94%D1%80%D1%83%D0%B6%D0%B1%D0%B0/data=!4m7!3m6!1s0x40ae5e242a282b09:0x5270b714e690bc5!8m2!3d43.8321604!4d25.969904!16s%2Fg%2F1vs5v681!19sChIJCSsoKiRerkARxQtpTnELJwU?authuser=0&hl=tr&rclk=1",
    "website_url": "https://www.kaufland.bg/?cid=BG:loc:google_1627538199456",
    "rating_text": "4,1",
    "stars": null,
    "number_of_reviews": null,
    "price_level": "",
    "open_hours": "",
    "extraction_timestamp": "2025-06-07T13:50:51.635Z",
    "source_name": "google",
    "source_query": "Irrigation Equipment",
    "source_country": "BG",
    "country": "Bulgaria",
    "state": "Ruse Province",
    "city": "Obshtina Ruse"
  },
  {
    "source_id": "ChIJV1DKjCBerkARax_MArvQBA0",
    "name": "Patsoni",
    "category": "Patsoni",
    "formatted_address": "3,4(792)",
    "phone_number": "+35982862200",
    "source_url": "https://www.google.com/maps/place/Patsoni/data=!4m7!3m6!1s0x40ae5e208cca5057:0xd04d0bb02cc1f6b!8m2!3d43.8310804!4d25.9771953!16s%2Fg%2F1wyc2tzx!19sChIJV1DKjCBerkARax_MArvQBA0?authuser=0&hl=tr&rclk=1",
    "website_url": "http://paconi.net/",
    "rating_text": "3,4",
    "stars": null,
    "number_of_reviews": null,
    "price_level": "",
    "open_hours": "",
    "extraction_timestamp": "2025-06-07T13:50:51.635Z",
    "source_name": "google",
    "source_query": "Irrigation Equipment",
    "source_country": "BG",
    "country": "Bulgaria",
    "state": "Ruse Province",
    "city": "Obshtina Ruse"
  },
  {
    "source_id": "ChIJx4sMZ1NnrkAROkhk3exM330",
    "name": "Technomarket Ruse",
    "category": "Technomarket Ruse",
    "formatted_address": "4,2(1.062)",
    "phone_number": "+35982280046",
    "source_url": "https://www.google.com/maps/place/Technomarket+Ruse/data=!4m7!3m6!1s0x40ae6753670c8bc7:0x7ddf4cecdd64483a!8m2!3d43.8531336!4d25.9902535!16s%2Fg%2F11c3tzdxj0!19sChIJx4sMZ1NnrkAROkhk3exM330?authuser=0&hl=tr&rclk=1",
    "website_url": "http://www.technomarket.bg/",
    "rating_text": "4,2",
    "stars": null,
    "number_of_reviews": null,
    "price_level": "",
    "open_hours": "",
    "extraction_timestamp": "2025-06-07T13:50:51.636Z",
    "source_name": "google",
    "source_query": "Irrigation Equipment",
    "source_country": "BG",
    "country": "Bulgaria",
    "state": "Ruse Province",
    "city": "Obshtina Ruse"
  },
  {
    "source_id": "ChIJK48hFuFhrkARchwu7bhA5c8",
    "name": "Kitchenlovestory",
    "category": "Kitchenlovestory",
    "formatted_address": "4,4(145)",
    "phone_number": "+359888177488",
    "source_url": "https://www.google.com/maps/place/Kitchenlovestory/data=!4m7!3m6!1s0x40ae61e116218f2b:0xcfe540b8ed2e1c72!8m2!3d43.8475093!4d25.9534055!16s%2Fg%2F11rs9ytsm5!19sChIJK48hFuFhrkARchwu7bhA5c8?authuser=0&hl=tr&rclk=1",
    "website_url": "https://www.facebook.com/Kitchen.Loveestory/",
    "rating_text": "4,4",
    "stars": null,
    "number_of_reviews": null,
    "price_level": "",
    "open_hours": "",
    "extraction_timestamp": "2025-06-07T13:50:51.636Z",
    "source_name": "google",
    "source_query": "Irrigation Equipment",
    "source_country": "BG",
    "country": "Bulgaria",
    "state": "Ruse Province",
    "city": "Obshtina Ruse"
  },
  {
    "source_id": "ChIJu8Tfd6lhrkAR78KtcypkOlk",
    "name": "Автомивка \"МЕГАКАР\" ЕООД",
    "category": "Автомивка \"МЕГАКАР\" ЕООД",
    "formatted_address": "4,4(308)",
    "phone_number": "+359896757513",
    "source_url": "https://www.google.com/maps/place/%D0%90%D0%B2%D1%82%D0%BE%D0%BC%D0%B8%D0%B2%D0%BA%D0%B0+%22%D0%9C%D0%95%D0%93%D0%90%D0%9A%D0%90%D0%A0%22+%D0%95%D0%9E%D0%9E%D0%94/data=!4m7!3m6!1s0x40ae61a977dfc4bb:0x593a642a73adc2ef!8m2!3d43.8339886!4d25.9773693!16s%2Fg%2F11g0h7_3fj!19sChIJu8Tfd6lhrkAR78KtcypkOlk?authuser=0&hl=tr&rclk=1",
    "website_url": "",
    "rating_text": "4,4",
    "stars": null,
    "number_of_reviews": null,
    "price_level": "",
    "open_hours": "",
    "extraction_timestamp": "2025-06-07T13:50:51.636Z",
    "source_name": "google",
    "source_query": "Irrigation Equipment",
    "source_country": "BG",
    "country": "Bulgaria",
    "state": "Ruse Province",
    "city": "Obshtina Ruse"
  },
  {
    "source_id": "ChIJTUMaq5tgrkARl3KbiMvJ7OY",
    "name": "ПАЦОНИ",
    "category": "ПАЦОНИ",
    "formatted_address": "3,6(327)",
    "phone_number": "+359878345128",
    "source_url": "https://www.google.com/maps/place/%D0%9F%D0%90%D0%A6%D0%9E%D0%9D%D0%98/data=!4m7!3m6!1s0x40ae609bab1a434d:0xe6ecc9cb889b7297!8m2!3d43.8291319!4d25.9649495!16s%2Fg%2F11cn9jy8vs!19sChIJTUMaq5tgrkARl3KbiMvJ7OY?authuser=0&hl=tr&rclk=1",
    "website_url": "http://paconi.net/",
    "rating_text": "3,6",
    "stars": null,
    "number_of_reviews": null,
    "price_level": "",
    "open_hours": "",
    "extraction_timestamp": "2025-06-07T13:50:51.637Z",
    "source_name": "google",
    "source_query": "Irrigation Equipment",
    "source_country": "BG",
    "country": "Bulgaria",
    "state": "Ruse Province",
    "city": "Obshtina Ruse"
  },
  {
    "source_id": "ChIJly0pKrdgrkARoJZC1lgKWoY",
    "name": "ПОЛИВНИ СИСТЕМИ ЕООД",
    "category": "ПОЛИВНИ СИСТЕМИ ЕООД",
    "formatted_address": "4,7(11)",
    "phone_number": "+359887424020",
    "source_url": "https://www.google.com/maps/place/%D0%9F%D0%9E%D0%9B%D0%98%D0%92%D0%9D%D0%98+%D0%A1%D0%98%D0%A1%D0%A2%D0%95%D0%9C%D0%98+%D0%95%D0%9E%D0%9E%D0%94/data=!4m7!3m6!1s0x40ae60b72a292d97:0x865a0a58d64296a0!8m2!3d43.8355713!4d25.9656554!16s%2Fg%2F1hc2rnssk!19sChIJly0pKrdgrkARoJZC1lgKWoY?authuser=0&hl=tr&rclk=1",
    "website_url": "",
    "rating_text": "4,7",
    "stars": null,
    "number_of_reviews": null,
    "price_level": "",
    "open_hours": "",
    "extraction_timestamp": "2025-06-07T13:50:53.140Z",
    "source_name": "google",
    "source_query": "Irrigation Equipment",
    "source_country": "BG",
    "country": "Bulgaria",
    "state": "Ruse Province",
    "city": "Obshtina Ivanovo"
  },
  {
    "source_id": "ChIJlVUWisBgrkAR_9GDqyMSnjE",
    "name": "Irrigation Systems",
    "category": "Irrigation Systems",
    "formatted_address": "1,0(2)",
    "phone_number": "+35982825748",
    "source_url": "https://www.google.com/maps/place/Irrigation+Systems/data=!4m7!3m6!1s0x40ae60c08a165595:0x319e1223ab83d1ff!8m2!3d43.8419922!4d25.9542701!16s%2Fg%2F11h1lh6ml!19sChIJlVUWisBgrkAR_9GDqyMSnjE?authuser=0&hl=tr&rclk=1",
    "website_url": "",
    "rating_text": "1,0",
    "stars": null,
    "number_of_reviews": null,
    "price_level": "",
    "open_hours": "",
    "extraction_timestamp": "2025-06-07T13:50:53.140Z",
    "source_name": "google",
    "source_query": "Irrigation Equipment",
    "source_country": "BG",
    "country": "Bulgaria",
    "state": "Ruse Province",
    "city": "Obshtina Ivanovo"
  },
  {
    "source_id": "ChIJBYl0l8BgrkARoib0bs3raXE",
    "name": "Stanimir Petrikov",
    "category": "Stanimir Petrikov",
    "formatted_address": "4,1(124)",
    "phone_number": "+35982834605",
    "source_url": "https://www.google.com/maps/place/Stanimir+Petrikov/data=!4m7!3m6!1s0x40ae60c097748905:0x7169ebcd6ef426a2!8m2!3d43.8424721!4d25.9615535!16s%2Fg%2F1tcz6tx1!19sChIJBYl0l8BgrkARoib0bs3raXE?authuser=0&hl=tr&rclk=1",
    "website_url": "http://www.petrikov-bg.com/",
    "rating_text": "4,1",
    "stars": null,
    "number_of_reviews": null,
    "price_level": "",
    "open_hours": "",
    "extraction_timestamp": "2025-06-07T13:50:53.141Z",
    "source_name": "google",
    "source_query": "Irrigation Equipment",
    "source_country": "BG",
    "country": "Bulgaria",
    "state": "Ruse Province",
    "city": "Obshtina Ivanovo"
  },
  {
    "source_id": "ChIJf1TSnYOLrkARiWLSWnnsNWQ",
    "name": "РКС \"КООП трейд\" ЕООД - Русе",
    "category": "РКС \"КООП трейд\" ЕООД - Русе",
    "formatted_address": "4,5(51)",
    "phone_number": "",
    "source_url": "https://www.google.com/maps/place/%D0%A0%D0%9A%D0%A1+%22%D0%9A%D0%9E%D0%9E%D0%9F+%D1%82%D1%80%D0%B5%D0%B9%D0%B4%22+%D0%95%D0%9E%D0%9E%D0%94+-+%D0%A0%D1%83%D1%81%D0%B5/data=!4m7!3m6!1s0x40ae8b839dd2547f:0x6435ec795ad26289!8m2!3d43.7342848!4d25.8577504!16s%2Fg%2F11rptc0r3s!19sChIJf1TSnYOLrkARiWLSWnnsNWQ?authuser=0&hl=tr&rclk=1",
    "website_url": "",
    "rating_text": "4,5",
    "stars": null,
    "number_of_reviews": null,
    "price_level": "",
    "open_hours": "",
    "extraction_timestamp": "2025-06-07T13:50:53.141Z",
    "source_name": "google",
    "source_query": "Irrigation Equipment",
    "source_country": "BG",
    "country": "Bulgaria",
    "state": "Ruse Province",
    "city": "Obshtina Ivanovo"
  },
  {
    "source_id": "ChIJH9d6HZxgrkARhAG6t3LjBGE",
    "name": "PRAKTIS",
    "category": "PRAKTIS",
    "formatted_address": "4,1(695)",
    "phone_number": "+35982599196",
    "source_url": "https://www.google.com/maps/place/PRAKTIS/data=!4m7!3m6!1s0x40ae609c1d7ad71f:0x6104e372b7ba0184!8m2!3d43.8304774!4d25.9691806!16s%2Fg%2F11b7g0y85k!19sChIJH9d6HZxgrkARhAG6t3LjBGE?authuser=0&hl=tr&rclk=1",
    "website_url": "https://praktis.bg/",
    "rating_text": "4,1",
    "stars": null,
    "number_of_reviews": null,
    "price_level": "",
    "open_hours": "",
    "extraction_timestamp": "2025-06-07T13:50:53.141Z",
    "source_name": "google",
    "source_query": "Irrigation Equipment",
    "source_country": "BG",
    "country": "Bulgaria",
    "state": "Ruse Province",
    "city": "Obshtina Ivanovo"
  },
  {
    "source_id": "ChIJZXzUEedhrkARNfl5ABUrdjI",
    "name": "Строймаркет ВМ ЕООД",
    "category": "Строймаркет ВМ ЕООД",
    "formatted_address": "5,0(7)",
    "phone_number": "+359877212216",
    "source_url": "https://www.google.com/maps/place/%D0%A1%D1%82%D1%80%D0%BE%D0%B9%D0%BC%D0%B0%D1%80%D0%BA%D0%B5%D1%82+%D0%92%D0%9C+%D0%95%D0%9E%D0%9E%D0%94/data=!4m7!3m6!1s0x40ae61e711d47c65:0x32762b150079f935!8m2!3d43.8050083!4d25.9455084!16s%2Fg%2F11x6ntdz40!19sChIJZXzUEedhrkARNfl5ABUrdjI?authuser=0&hl=tr&rclk=1",
    "website_url": "",
    "rating_text": "5,0",
    "stars": null,
    "number_of_reviews": null,
    "price_level": "",
    "open_hours": "",
    "extraction_timestamp": "2025-06-07T13:50:53.141Z",
    "source_name": "google",
    "source_query": "Irrigation Equipment",
    "source_country": "BG",
    "country": "Bulgaria",
    "state": "Ruse Province",
    "city": "Obshtina Ivanovo"
  },
  {
    "source_id": "ChIJA2QFEs9grkARvmcbkpo6J34",
    "name": "Bulgar Ai Ti En",
    "category": "Bulgar Ai Ti En",
    "formatted_address": "5,0(1)",
    "phone_number": "+35982822093",
    "source_url": "https://www.google.com/maps/place/Bulgar+Ai+Ti+En/data=!4m7!3m6!1s0x40ae60cf12056403:0x7e273a9a921b67be!8m2!3d43.8508151!4d25.9538524!16s%2Fg%2F1vd3t8w_!19sChIJA2QFEs9grkARvmcbkpo6J34?authuser=0&hl=tr&rclk=1",
    "website_url": "",
    "rating_text": "5,0",
    "stars": null,
    "number_of_reviews": null,
    "price_level": "",
    "open_hours": "",
    "extraction_timestamp": "2025-06-07T13:50:53.142Z",
    "source_name": "google",
    "source_query": "Irrigation Equipment",
    "source_country": "BG",
    "country": "Bulgaria",
    "state": "Ruse Province",
    "city": "Obshtina Ivanovo"
  },
  {
    "source_id": "ChIJtcLQl51grkAR9a5Y_RyZsMI",
    "name": "Bul Drip",
    "category": "Bul Drip",
    "formatted_address": "",
    "phone_number": "+359887424020",
    "source_url": "https://www.google.com/maps/place/Bul+Drip/data=!4m7!3m6!1s0x40ae609d97d0c2b5:0xc2b0991cfd58aef5!8m2!3d43.8287244!4d25.9716352!16s%2Fg%2F1vljdv97!19sChIJtcLQl51grkAR9a5Y_RyZsMI?authuser=0&hl=tr&rclk=1",
    "website_url": "",
    "rating_text": "",
    "stars": null,
    "number_of_reviews": null,
    "price_level": "",
    "open_hours": "",
    "extraction_timestamp": "2025-06-07T13:50:53.142Z",
    "source_name": "google",
    "source_query": "Irrigation Equipment",
    "source_country": "BG",
    "country": "Bulgaria",
    "state": "Ruse Province",
    "city": "Obshtina Ivanovo"
  },
  {
    "source_id": "ChIJaR5wldhhrkAR2UEopH9G7YY",
    "name": "\"Водопроводни Решения Русе\"- професионални вик услуги,vik uslugi",
    "category": "\"Водопроводни Решения Русе\"- професионални вик услуги,vik uslugi",
    "formatted_address": "\"Водопроводни Решения Русе\"- професионални вик услуги,vik uslugi",
    "phone_number": "+359893967820",
    "source_url": "https://www.google.com/maps/place/%22%D0%92%D0%BE%D0%B4%D0%BE%D0%BF%D1%80%D0%BE%D0%B2%D0%BE%D0%B4%D0%BD%D0%B8+%D0%A0%D0%B5%D1%88%D0%B5%D0%BD%D0%B8%D1%8F+%D0%A0%D1%83%D1%81%D0%B5%22-+%D0%BF%D1%80%D0%BE%D1%84%D0%B5%D1%81%D0%B8%D0%BE%D0%BD%D0%B0%D0%BB%D0%BD%D0%B8+%D0%B2%D0%B8%D0%BA+%D1%83%D1%81%D0%BB%D1%83%D0%B3%D0%B8,vik+uslugi/data=!4m7!3m6!1s0x40ae61d895701e69:0x86ed467fa42841d9!8m2!3d43.8456948!4d25.9561749!16s%2Fg%2F11t1rl1b_s!19sChIJaR5wldhhrkAR2UEopH9G7YY?authuser=0&hl=tr&rclk=1",
    "website_url": "",
    "rating_text": "5,0",
    "stars": null,
    "number_of_reviews": null,
    "price_level": "",
    "open_hours": "",
    "extraction_timestamp": "2025-06-07T13:50:53.142Z",
    "source_name": "google",
    "source_query": "Irrigation Equipment",
    "source_country": "BG",
    "country": "Bulgaria",
    "state": "Ruse Province",
    "city": "Obshtina Ivanovo"
  },
  {
    "source_id": "ChIJDyHD7zD3rkARWgAEOw8VtoA",
    "name": "Leko",
    "category": "Leko",
    "formatted_address": "4,4(5)",
    "phone_number": "",
    "source_url": "https://www.google.com/maps/place/Leko/data=!4m7!3m6!1s0x40aef730efc3210f:0x80b6150f3b04005a!8m2!3d43.7135039!4d26.0401507!16s%2Fg%2F11rmq2kg2x!19sChIJDyHD7zD3rkARWgAEOw8VtoA?authuser=0&hl=tr&rclk=1",
    "website_url": "",
    "rating_text": "4,4",
    "stars": null,
    "number_of_reviews": null,
    "price_level": "",
    "open_hours": "",
    "extraction_timestamp": "2025-06-07T13:50:53.142Z",
    "source_name": "google",
    "source_query": "Irrigation Equipment",
    "source_country": "BG",
    "country": "Bulgaria",
    "state": "Ruse Province",
    "city": "Obshtina Ivanovo"
  },
  {
    "source_id": "ChIJ0Yw9iQ5grkARB4rV0Tzu9Fg",
    "name": "ПЛАМ СТРОЙ 2002 ЕООД",
    "category": "ПЛАМ СТРОЙ 2002 ЕООД",
    "formatted_address": "4,6(59)",
    "phone_number": "+359879348410",
    "source_url": "https://www.google.com/maps/place/%D0%9F%D0%9B%D0%90%D0%9C+%D0%A1%D0%A2%D0%A0%D0%9E%D0%99+2002+%D0%95%D0%9E%D0%9E%D0%94/data=!4m7!3m6!1s0x40ae600e893d8cd1:0x58f4ee3cd1d58a07!8m2!3d43.7997587!4d25.9339819!16s%2Fg%2F11c55tnpc1!19sChIJ0Yw9iQ5grkARB4rV0Tzu9Fg?authuser=0&hl=tr&rclk=1",
    "website_url": "",
    "rating_text": "4,6",
    "stars": null,
    "number_of_reviews": null,
    "price_level": "",
    "open_hours": "",
    "extraction_timestamp": "2025-06-07T13:50:53.142Z",
    "source_name": "google",
    "source_query": "Irrigation Equipment",
    "source_country": "BG",
    "country": "Bulgaria",
    "state": "Ruse Province",
    "city": "Obshtina Ivanovo"
  },
  {
    "source_id": "ChIJZ-SNrrxgrkARB4chKi2R6Ls",
    "name": "ARTISTIKA",
    "category": "ARTISTIKA",
    "formatted_address": "4,5(205)",
    "phone_number": "+359887957894",
    "source_url": "https://www.google.com/maps/place/ARTISTIKA/data=!4m7!3m6!1s0x40ae60bcae8de467:0xbbe8912d2a218707!8m2!3d43.8383016!4d25.9787083!16s%2Fg%2F11c6y_9wb5!19sChIJZ-SNrrxgrkARB4chKi2R6Ls?authuser=0&hl=tr&rclk=1",
    "website_url": "https://artistika.bg/",
    "rating_text": "4,5",
    "stars": null,
    "number_of_reviews": null,
    "price_level": "",
    "open_hours": "",
    "extraction_timestamp": "2025-06-07T13:50:53.143Z",
    "source_name": "google",
    "source_query": "Irrigation Equipment",
    "source_country": "BG",
    "country": "Bulgaria",
    "state": "Ruse Province",
    "city": "Obshtina Ivanovo"
  },
  {
    "source_id": "ChIJRZOm4whfrkARWXgG-vrEKsg",
    "name": "Супермаркет Карагьозов - СКЛАД НА ЕДРО",
    "category": "Супермаркет Карагьозов - СКЛАД НА ЕДРО",
    "formatted_address": "4,6(163)",
    "phone_number": "+359887074626",
    "source_url": "https://www.google.com/maps/place/%D0%A1%D1%83%D0%BF%D0%B5%D1%80%D0%BC%D0%B0%D1%80%D0%BA%D0%B5%D1%82+%D0%9A%D0%B0%D1%80%D0%B0%D0%B3%D1%8C%D0%BE%D0%B7%D0%BE%D0%B2+-+%D0%A1%D0%9A%D0%9B%D0%90%D0%94+%D0%9D%D0%90+%D0%95%D0%94%D0%A0%D0%9E/data=!4m7!3m6!1s0x40ae5f08e3a69345:0xc82ac4fafa067859!8m2!3d43.812296!4d25.9845745!16s%2Fg%2F11r_nyxfs8!19sChIJRZOm4whfrkARWXgG-vrEKsg?authuser=0&hl=tr&rclk=1",
    "website_url": "https://rusebag.com/",
    "rating_text": "4,6",
    "stars": null,
    "number_of_reviews": null,
    "price_level": "",
    "open_hours": "",
    "extraction_timestamp": "2025-06-07T13:50:53.143Z",
    "source_name": "google",
    "source_query": "Irrigation Equipment",
    "source_country": "BG",
    "country": "Bulgaria",
    "state": "Ruse Province",
    "city": "Obshtina Ivanovo"
  },
  {
    "source_id": "ChIJ9dUkY131rkARXLk8AETbEtw",
    "name": "COOP Basarbovo",
    "category": "COOP Basarbovo",
    "formatted_address": "4,3(442)",
    "phone_number": "",
    "source_url": "https://www.google.com/maps/place/COOP+Basarbovo/data=!4m7!3m6!1s0x40aef55d6324d5f5:0xdc12db44003cb95c!8m2!3d43.77419!4d25.9507585!16s%2Fg%2F1pp2tlk1l!19sChIJ9dUkY131rkARXLk8AETbEtw?authuser=0&hl=tr&rclk=1",
    "website_url": "",
    "rating_text": "4,3",
    "stars": null,
    "number_of_reviews": null,
    "price_level": "",
    "open_hours": "",
    "extraction_timestamp": "2025-06-07T13:50:53.143Z",
    "source_name": "google",
    "source_query": "Irrigation Equipment",
    "source_country": "BG",
    "country": "Bulgaria",
    "state": "Ruse Province",
    "city": "Obshtina Ivanovo"
  },
  {
    "source_id": "ChIJN8oHJ7FgrkARARGuEsDS1KI",
    "name": "Praktiker Ruse",
    "category": "Praktiker Ruse",
    "formatted_address": "4,4(1.382)",
    "phone_number": "+35982887120",
    "source_url": "https://www.google.com/maps/place/Praktiker+Ruse/data=!4m7!3m6!1s0x40ae60b12707ca37:0xa2d4d2c012ae1101!8m2!3d43.8468434!4d25.967147!16s%2Fg%2F1z44rc7q3!19sChIJN8oHJ7FgrkARARGuEsDS1KI?authuser=0&hl=tr&rclk=1",
    "website_url": "http://www.praktiker.bg/",
    "rating_text": "4,4",
    "stars": null,
    "number_of_reviews": null,
    "price_level": "",
    "open_hours": "",
    "extraction_timestamp": "2025-06-07T13:50:53.144Z",
    "source_name": "google",
    "source_query": "Irrigation Equipment",
    "source_country": "BG",
    "country": "Bulgaria",
    "state": "Ruse Province",
    "city": "Obshtina Ivanovo"
  },
  {
    "source_id": "ChIJD92VEqFhrkAR_4BbPhSq43U",
    "name": "Левски ЕООД",
    "category": "Левски ЕООД",
    "formatted_address": "4,6(35)",
    "phone_number": "+359878654392",
    "source_url": "https://www.google.com/maps/place/%D0%9B%D0%B5%D0%B2%D1%81%D0%BA%D0%B8+%D0%95%D0%9E%D0%9E%D0%94/data=!4m7!3m6!1s0x40ae61a11295dd0f:0x75e3aa143e5b80ff!8m2!3d43.8300704!4d25.9747011!16s%2Fg%2F11lkdwg8qj!19sChIJD92VEqFhrkAR_4BbPhSq43U?authuser=0&hl=tr&rclk=1",
    "website_url": "https://levski-eood.com/",
    "rating_text": "4,6",
    "stars": null,
    "number_of_reviews": null,
    "price_level": "",
    "open_hours": "",
    "extraction_timestamp": "2025-06-07T13:50:53.144Z",
    "source_name": "google",
    "source_query": "Irrigation Equipment",
    "source_country": "BG",
    "country": "Bulgaria",
    "state": "Ruse Province",
    "city": "Obshtina Ivanovo"
  },
  {
    "source_id": "ChIJU_pq0C1hrkAR_ogLTUB4k5U",
    "name": "Строителна борса \"Братоев\"",
    "category": "Строителна борса \"Братоев\"",
    "formatted_address": "4,8(34)",
    "phone_number": "+359888761754",
    "source_url": "https://www.google.com/maps/place/%D0%A1%D1%82%D1%80%D0%BE%D0%B8%D1%82%D0%B5%D0%BB%D0%BD%D0%B0+%D0%B1%D0%BE%D1%80%D1%81%D0%B0+%22%D0%91%D1%80%D0%B0%D1%82%D0%BE%D0%B5%D0%B2%22/data=!4m7!3m6!1s0x40ae612dd06afa53:0x959378404d0b88fe!8m2!3d43.8200563!4d25.9723997!16s%2Fg%2F11fn6y9qbc!19sChIJU_pq0C1hrkAR_ogLTUB4k5U?authuser=0&hl=tr&rclk=1",
    "website_url": "",
    "rating_text": "4,8",
    "stars": null,
    "number_of_reviews": null,
    "price_level": "",
    "open_hours": "",
    "extraction_timestamp": "2025-06-07T13:50:53.145Z",
    "source_name": "google",
    "source_query": "Irrigation Equipment",
    "source_country": "BG",
    "country": "Bulgaria",
    "state": "Ruse Province",
    "city": "Obshtina Ivanovo"
  },
  {
    "source_id": "ChIJNcPZv5tgrkAR-4bsRhDlZIg",
    "name": "Шоне - ООД",
    "category": "Шоне - ООД",
    "formatted_address": "4,2(126)",
    "phone_number": "+35982860893",
    "source_url": "https://www.google.com/maps/place/%D0%A8%D0%BE%D0%BD%D0%B5+-+%D0%9E%D0%9E%D0%94/data=!4m7!3m6!1s0x40ae609bbfd9c335:0x8864e51046ec86fb!8m2!3d43.8305879!4d25.9657133!16s%2Fg%2F11cn60zb3r!19sChIJNcPZv5tgrkAR-4bsRhDlZIg?authuser=0&hl=tr&rclk=1",
    "website_url": "",
    "rating_text": "4,2",
    "stars": null,
    "number_of_reviews": null,
    "price_level": "",
    "open_hours": "",
    "extraction_timestamp": "2025-06-07T13:50:53.145Z",
    "source_name": "google",
    "source_query": "Irrigation Equipment",
    "source_country": "BG",
    "country": "Bulgaria",
    "state": "Ruse Province",
    "city": "Obshtina Ivanovo"
  },
  {
    "source_id": "ChIJwQjQE0JhrkARuLMkff3b0hg",
    "name": "Ovis Store",
    "category": "Ovis Store",
    "formatted_address": "4,4(109)",
    "phone_number": "+359895416518",
    "source_url": "https://www.google.com/maps/place/Ovis+Store/data=!4m7!3m6!1s0x40ae614213d008c1:0x18d2dbfd7d24b3b8!8m2!3d43.7971138!4d25.931555!16s%2Fg%2F1ts1qr09!19sChIJwQjQE0JhrkARuLMkff3b0hg?authuser=0&hl=tr&rclk=1",
    "website_url": "",
    "rating_text": "4,4",
    "stars": null,
    "number_of_reviews": null,
    "price_level": "",
    "open_hours": "",
    "extraction_timestamp": "2025-06-07T13:50:53.145Z",
    "source_name": "google",
    "source_query": "Irrigation Equipment",
    "source_country": "BG",
    "country": "Bulgaria",
    "state": "Ruse Province",
    "city": "Obshtina Ivanovo"
  },
  {
    "source_id": "ChIJQciuB6TurkARmK_LAb9KylI",
    "name": "МАГАЗИН ПЛАМ",
    "category": "МАГАЗИН ПЛАМ",
    "formatted_address": "4,7(39)",
    "phone_number": "+359889444831",
    "source_url": "https://www.google.com/maps/place/%D0%9C%D0%90%D0%93%D0%90%D0%97%D0%98%D0%9D+%D0%9F%D0%9B%D0%90%D0%9C/data=!4m7!3m6!1s0x40aeeea407aec841:0x52ca4abf01cbaf98!8m2!3d43.5847688!4d25.866599!16s%2Fg%2F11g6nhcfk3!19sChIJQciuB6TurkARmK_LAb9KylI?authuser=0&hl=tr&rclk=1",
    "website_url": "http://plameood.com/",
    "rating_text": "4,7",
    "stars": null,
    "number_of_reviews": null,
    "price_level": "",
    "open_hours": "",
    "extraction_timestamp": "2025-06-07T13:50:53.145Z",
    "source_name": "google",
    "source_query": "Irrigation Equipment",
    "source_country": "BG",
    "country": "Bulgaria",
    "state": "Ruse Province",
    "city": "Obshtina Ivanovo"
  },
  {
    "source_id": "ChIJx4sMZ1NnrkAROkhk3exM330",
    "name": "Technomarket Ruse",
    "category": "Technomarket Ruse",
    "formatted_address": "4,2(1.062)",
    "phone_number": "+35982280046",
    "source_url": "https://www.google.com/maps/place/Technomarket+Ruse/data=!4m7!3m6!1s0x40ae6753670c8bc7:0x7ddf4cecdd64483a!8m2!3d43.8531336!4d25.9902535!16s%2Fg%2F11c3tzdxj0!19sChIJx4sMZ1NnrkAROkhk3exM330?authuser=0&hl=tr&rclk=1",
    "website_url": "http://www.technomarket.bg/",
    "rating_text": "4,2",
    "stars": null,
    "number_of_reviews": null,
    "price_level": "",
    "open_hours": "",
    "extraction_timestamp": "2025-06-07T13:50:53.146Z",
    "source_name": "google",
    "source_query": "Irrigation Equipment",
    "source_country": "BG",
    "country": "Bulgaria",
    "state": "Ruse Province",
    "city": "Obshtina Ivanovo"
  },
  {
    "source_id": "ChIJzxCk5c5grkARgTE1rMkUEYg",
    "name": "Group 77",
    "category": "Group 77",
    "formatted_address": "3,6(5)",
    "phone_number": "+359897333487",
    "source_url": "https://www.google.com/maps/place/Group+77/data=!4m7!3m6!1s0x40ae60cee5a410cf:0x881114c9ac353181!8m2!3d43.8503991!4d25.9646708!16s%2Fg%2F12jm0847n!19sChIJzxCk5c5grkARgTE1rMkUEYg?authuser=0&hl=tr&rclk=1",
    "website_url": "",
    "rating_text": "3,6",
    "stars": null,
    "number_of_reviews": null,
    "price_level": "",
    "open_hours": "",
    "extraction_timestamp": "2025-06-07T13:50:53.146Z",
    "source_name": "google",
    "source_query": "Irrigation Equipment",
    "source_country": "BG",
    "country": "Bulgaria",
    "state": "Ruse Province",
    "city": "Obshtina Ivanovo"
  },
  {
    "source_id": "ChIJu4wq9CderkARm8KtAHGnq4A",
    "name": "Veni",
    "category": "Veni",
    "formatted_address": "4,0(381)",
    "phone_number": "",
    "source_url": "https://www.google.com/maps/place/Veni/data=!4m7!3m6!1s0x40ae5e27f42a8cbb:0x80aba77100adc29b!8m2!3d43.8264741!4d25.9715755!16s%2Fg%2F11cs3_0lvv!19sChIJu4wq9CderkARm8KtAHGnq4A?authuser=0&hl=tr&rclk=1",
    "website_url": "",
    "rating_text": "4,0",
    "stars": null,
    "number_of_reviews": null,
    "price_level": "",
    "open_hours": "",
    "extraction_timestamp": "2025-06-07T13:50:53.146Z",
    "source_name": "google",
    "source_query": "Irrigation Equipment",
    "source_country": "BG",
    "country": "Bulgaria",
    "state": "Ruse Province",
    "city": "Obshtina Ivanovo"
  },
  {
    "source_id": "ChIJjytwvY5grkAR8dUkEv3Fs5w",
    "name": "Thiklon",
    "category": "Thiklon",
    "formatted_address": "4,0(16)",
    "phone_number": "+35982860744",
    "source_url": "https://www.google.com/maps/place/Thiklon/data=!4m7!3m6!1s0x40ae608ebd702b8f:0x9cb3c5fd1224d5f1!8m2!3d43.8271236!4d25.9501784!16s%2Fg%2F1tfgh9xk!19sChIJjytwvY5grkAR8dUkEv3Fs5w?authuser=0&hl=tr&rclk=1",
    "website_url": "",
    "rating_text": "4,0",
    "stars": null,
    "number_of_reviews": null,
    "price_level": "",
    "open_hours": "",
    "extraction_timestamp": "2025-06-07T13:50:53.147Z",
    "source_name": "google",
    "source_query": "Irrigation Equipment",
    "source_country": "BG",
    "country": "Bulgaria",
    "state": "Ruse Province",
    "city": "Obshtina Ivanovo"
  },
  {
    "source_id": "ChIJ6yjNrn1hrkARQRqL0aq0-Jc",
    "name": "Строителни материали Георги Петков",
    "category": "Строителни материали Георги Петков",
    "formatted_address": "5,0(5)",
    "phone_number": "+359896783151",
    "source_url": "https://www.google.com/maps/place/%D0%A1%D1%82%D1%80%D0%BE%D0%B8%D1%82%D0%B5%D0%BB%D0%BD%D0%B8+%D0%BC%D0%B0%D1%82%D0%B5%D1%80%D0%B8%D0%B0%D0%BB%D0%B8+%D0%93%D0%B5%D0%BE%D1%80%D0%B3%D0%B8+%D0%9F%D0%B5%D1%82%D0%BA%D0%BE%D0%B2/data=!4m7!3m6!1s0x40ae617daecd28eb:0x97f8b4aad18b1a41!8m2!3d43.8295877!4d25.9557336!16s%2Fg%2F11l_gbbqp5!19sChIJ6yjNrn1hrkARQRqL0aq0-Jc?authuser=0&hl=tr&rclk=1",
    "website_url": "",
    "rating_text": "5,0",
    "stars": null,
    "number_of_reviews": null,
    "price_level": "",
    "open_hours": "",
    "extraction_timestamp": "2025-06-07T13:50:53.147Z",
    "source_name": "google",
    "source_query": "Irrigation Equipment",
    "source_country": "BG",
    "country": "Bulgaria",
    "state": "Ruse Province",
    "city": "Obshtina Ivanovo"
  },
  {
    "source_id": "ChIJ97hDaMr1rkAR9kYgZqUDYaU",
    "name": "Proizvoditelno-Potrebitelna Kooperatsiya Krasen",
    "category": "Proizvoditelno-Potrebitelna Kooperatsiya Krasen",
    "formatted_address": "4,3(33)",
    "phone_number": "+3598152411",
    "source_url": "https://www.google.com/maps/place/Proizvoditelno-Potrebitelna+Kooperatsiya+Krasen/data=!4m7!3m6!1s0x40aef5ca6843b8f7:0xa56103a5662046f6!8m2!3d43.7383337!4d25.9803499!16s%2Fg%2F1tk1xk7r!19sChIJ97hDaMr1rkAR9kYgZqUDYaU?authuser=0&hl=tr&rclk=1",
    "website_url": "",
    "rating_text": "4,3",
    "stars": null,
    "number_of_reviews": null,
    "price_level": "",
    "open_hours": "",
    "extraction_timestamp": "2025-06-07T13:50:53.147Z",
    "source_name": "google",
    "source_query": "Irrigation Equipment",
    "source_country": "BG",
    "country": "Bulgaria",
    "state": "Ruse Province",
    "city": "Obshtina Ivanovo"
  },
  {
    "source_id": "ChIJdRxgsOdhrkARPLJ-UNZHEBM",
    "name": "TetraSink Мултифункционални мивки за кухня",
    "category": "TetraSink Мултифункционални мивки за кухня",
    "formatted_address": "4,6(11)",
    "phone_number": "+359896700521",
    "source_url": "https://www.google.com/maps/place/TetraSink+%D0%9C%D1%83%D0%BB%D1%82%D0%B8%D1%84%D1%83%D0%BD%D0%BA%D1%86%D0%B8%D0%BE%D0%BD%D0%B0%D0%BB%D0%BD%D0%B8+%D0%BC%D0%B8%D0%B2%D0%BA%D0%B8+%D0%B7%D0%B0+%D0%BA%D1%83%D1%85%D0%BD%D1%8F/data=!4m7!3m6!1s0x40ae61e7b0601c75:0x131047d6507eb23c!8m2!3d43.8385365!4d25.9589474!16s%2Fg%2F11l5kh1tcr!19sChIJdRxgsOdhrkARPLJ-UNZHEBM?authuser=0&hl=tr&rclk=1",
    "website_url": "https://tetrasink.com/bg",
    "rating_text": "4,6",
    "stars": null,
    "number_of_reviews": null,
    "price_level": "",
    "open_hours": "",
    "extraction_timestamp": "2025-06-07T13:50:53.147Z",
    "source_name": "google",
    "source_query": "Irrigation Equipment",
    "source_country": "BG",
    "country": "Bulgaria",
    "state": "Ruse Province",
    "city": "Obshtina Ivanovo"
  },
  {
    "source_id": "ChIJfdJMBTBhrkARIL5xusSUNVk",
    "name": "gohce marinov",
    "category": "gohce marinov",
    "formatted_address": "3,0(2)",
    "phone_number": "+359894205672",
    "source_url": "https://www.google.com/maps/place/gohce+marinov/data=!4m7!3m6!1s0x40ae6130054cd27d:0x593594c4ba71be20!8m2!3d43.7979981!4d25.9053209!16s%2Fg%2F11qn14m13k!19sChIJfdJMBTBhrkARIL5xusSUNVk?authuser=0&hl=tr&rclk=1",
    "website_url": "",
    "rating_text": "3,0",
    "stars": null,
    "number_of_reviews": null,
    "price_level": "",
    "open_hours": "",
    "extraction_timestamp": "2025-06-07T13:50:53.148Z",
    "source_name": "google",
    "source_query": "Irrigation Equipment",
    "source_country": "BG",
    "country": "Bulgaria",
    "state": "Ruse Province",
    "city": "Obshtina Ivanovo"
  },
  {
    "source_id": "ChIJu8Tfd6lhrkAR78KtcypkOlk",
    "name": "Автомивка \"МЕГАКАР\" ЕООД",
    "category": "Автомивка \"МЕГАКАР\" ЕООД",
    "formatted_address": "4,4(308)",
    "phone_number": "+359896757513",
    "source_url": "https://www.google.com/maps/place/%D0%90%D0%B2%D1%82%D0%BE%D0%BC%D0%B8%D0%B2%D0%BA%D0%B0+%22%D0%9C%D0%95%D0%93%D0%90%D0%9A%D0%90%D0%A0%22+%D0%95%D0%9E%D0%9E%D0%94/data=!4m7!3m6!1s0x40ae61a977dfc4bb:0x593a642a73adc2ef!8m2!3d43.8339886!4d25.9773693!16s%2Fg%2F11g0h7_3fj!19sChIJu8Tfd6lhrkAR78KtcypkOlk?authuser=0&hl=tr&rclk=1",
    "website_url": "",
    "rating_text": "4,4",
    "stars": null,
    "number_of_reviews": null,
    "price_level": "",
    "open_hours": "",
    "extraction_timestamp": "2025-06-07T13:50:53.148Z",
    "source_name": "google",
    "source_query": "Irrigation Equipment",
    "source_country": "BG",
    "country": "Bulgaria",
    "state": "Ruse Province",
    "city": "Obshtina Ivanovo"
  },
  {
    "source_id": "ChIJSWco0cDzrkARpgDJhGQmEhY",
    "name": "Супермаркет \"КООП\" с. Тръстеник",
    "category": "Супермаркет \"КООП\" с. Тръстеник",
    "formatted_address": "4,5(23)",
    "phone_number": "",
    "source_url": "https://www.google.com/maps/place/%D0%A1%D1%83%D0%BF%D0%B5%D1%80%D0%BC%D0%B0%D1%80%D0%BA%D0%B5%D1%82+%22%D0%9A%D0%9E%D0%9E%D0%9F%22+%D1%81.+%D0%A2%D1%80%D1%8A%D1%81%D1%82%D0%B5%D0%BD%D0%B8%D0%BA/data=!4m7!3m6!1s0x40aef3c0d1286749:0x1612266484c900a6!8m2!3d43.6611157!4d25.8573133!16s%2Fg%2F11q1m84fx9!19sChIJSWco0cDzrkARpgDJhGQmEhY?authuser=0&hl=tr&rclk=1",
    "website_url": "",
    "rating_text": "4,5",
    "stars": null,
    "number_of_reviews": null,
    "price_level": "",
    "open_hours": "",
    "extraction_timestamp": "2025-06-07T13:50:53.148Z",
    "source_name": "google",
    "source_query": "Irrigation Equipment",
    "source_country": "BG",
    "country": "Bulgaria",
    "state": "Ruse Province",
    "city": "Obshtina Ivanovo"
  },
  {
    "source_id": "ChIJEd28lJhgrkAR7WxzhUed4as",
    "name": "когенератори",
    "category": "когенератори",
    "formatted_address": "",
    "phone_number": "+35982823568",
    "source_url": "https://www.google.com/maps/place/%D0%BA%D0%BE%D0%B3%D0%B5%D0%BD%D0%B5%D1%80%D0%B0%D1%82%D0%BE%D1%80%D0%B8/data=!4m7!3m6!1s0x40ae609894bcdd11:0xabe19d4785736ced!8m2!3d43.8347252!4d25.9693126!16s%2Fg%2F11h_6q4ws5!19sChIJEd28lJhgrkAR7WxzhUed4as?authuser=0&hl=tr&rclk=1",
    "website_url": "http://radiatori.bgtherm.com/contact_IPS.html",
    "rating_text": "",
    "stars": null,
    "number_of_reviews": null,
    "price_level": "",
    "open_hours": "",
    "extraction_timestamp": "2025-06-07T13:50:53.148Z",
    "source_name": "google",
    "source_query": "Irrigation Equipment",
    "source_country": "BG",
    "country": "Bulgaria",
    "state": "Ruse Province",
    "city": "Obshtina Ivanovo"
  },
  {
    "source_id": "ChIJz4Mt6L9grkARUnLPetcYEYQ",
    "name": "Акваристика и Зоомагазин в Русе-\"Аквазоо Немо\"",
    "category": "Акваристика и Зоомагазин в Русе-\"Аквазоо Немо\"",
    "formatted_address": "4,8(146)",
    "phone_number": "+359888316917",
    "source_url": "https://www.google.com/maps/place/%D0%90%D0%BA%D0%B2%D0%B0%D1%80%D0%B8%D1%81%D1%82%D0%B8%D0%BA%D0%B0+%D0%B8+%D0%97%D0%BE%D0%BE%D0%BC%D0%B0%D0%B3%D0%B0%D0%B7%D0%B8%D0%BD+%D0%B2+%D0%A0%D1%83%D1%81%D0%B5-%22%D0%90%D0%BA%D0%B2%D0%B0%D0%B7%D0%BE%D0%BE+%D0%9D%D0%B5%D0%BC%D0%BE%22/data=!4m7!3m6!1s0x40ae60bfe82d83cf:0x841118d77acf7252!8m2!3d43.8399207!4d25.9556222!16s%2Fg%2F11f50t2_77!19sChIJz4Mt6L9grkARUnLPetcYEYQ?authuser=0&hl=tr&rclk=1",
    "website_url": "",
    "rating_text": "4,8",
    "stars": null,
    "number_of_reviews": null,
    "price_level": "",
    "open_hours": "",
    "extraction_timestamp": "2025-06-07T13:50:53.148Z",
    "source_name": "google",
    "source_query": "Irrigation Equipment",
    "source_country": "BG",
    "country": "Bulgaria",
    "state": "Ruse Province",
    "city": "Obshtina Ivanovo"
  }
]
