[
  {
    "source_id": "ChIJ85galgoZq0AR960gPuJzhBE",
    "name": "МИРЕН 07 ЕООД",
    "category": "МИРЕН 07 ЕООД",
    "formatted_address": "5,0(9)",
    "phone_number": "+359888007588",
    "source_url": "https://www.google.com/maps/place/%D0%9C%D0%98%D0%A0%D0%95%D0%9D+07+%D0%95%D0%9E%D0%9E%D0%94/data=!4m7!3m6!1s0x40ab190a961a98f3:0x118473e23e20adf7!8m2!3d43.2084473!4d23.5483263!16s%2Fg%2F11lv7gmrf_!19sChIJ85galgoZq0AR960gPuJzhBE?authuser=0&hl=tr&rclk=1",
    "website_url": "",
    "rating_text": "5,0",
    "stars": null,
    "number_of_reviews": null,
    "price_level": "",
    "open_hours": "",
    "extraction_timestamp": "2025-06-07T15:09:17.364Z",
    "source_name": "google",
    "source_query": "Irrigation Equipment",
    "source_country": "BG",
    "country": "Bulgaria",
    "state": "Vratsa Province",
    "city": "Roman"
  },
  {
    "source_id": "ChIJn24eTuYYq0ARVNV2aGxbi9A",
    "name": "Irrigation Systems",
    "category": "Irrigation Systems",
    "formatted_address": "2,0(3)",
    "phone_number": "+35992653044",
    "source_url": "https://www.google.com/maps/place/Irrigation+Systems/data=!4m7!3m6!1s0x40ab18e64e1e6e9f:0xd08b5b6c6876d554!8m2!3d43.208899!4d23.5464445!16s%2Fg%2F11gz6900p!19sChIJn24eTuYYq0ARVNV2aGxbi9A?authuser=0&hl=tr&rclk=1",
    "website_url": "https://nps.bg/%D0%BA%D0%BB%D0%BE%D0%BD-%D0%BC%D0%B8%D0%B7%D0%B8%D1%8F/",
    "rating_text": "2,0",
    "stars": null,
    "number_of_reviews": null,
    "price_level": "",
    "open_hours": "",
    "extraction_timestamp": "2025-06-07T15:09:17.366Z",
    "source_name": "google",
    "source_query": "Irrigation Equipment",
    "source_country": "BG",
    "country": "Bulgaria",
    "state": "Vratsa Province",
    "city": "Roman"
  },
  {
    "source_id": "ChIJM6yvwySvrEARwAfpg-O3Pto",
    "name": "ET HIT Todor Todorov. Building materials, hardware ...",
    "category": "ET HIT Todor Todorov. Building materials, hardware ...",
    "formatted_address": "ET HIT Todor Todorov. Building materials, hardware ...",
    "phone_number": "+359884011448",
    "source_url": "https://www.google.com/maps/place/ET+HIT+Todor+Todorov.+Building+materials,+hardware+.../data=!4m7!3m6!1s0x40acaf24c3afac33:0xda3eb7e383e907c0!8m2!3d43.7718447!4d23.7154705!16s%2Fg%2F11dxmb2sc7!19sChIJM6yvwySvrEARwAfpg-O3Pto?authuser=0&hl=tr&rclk=1",
    "website_url": "",
    "rating_text": "4,4",
    "stars": null,
    "number_of_reviews": null,
    "price_level": "",
    "open_hours": "",
    "extraction_timestamp": "2025-06-07T15:09:27.440Z",
    "source_name": "google",
    "source_query": "Irrigation Equipment",
    "source_country": "BG",
    "country": "Bulgaria",
    "state": "Vratsa Province",
    "city": "Kozloduy"
  },
  {
    "source_id": "ChIJt1I0OhivrEARc2QVcjTjpjo",
    "name": "Zornitsa",
    "category": "Zornitsa",
    "formatted_address": "4,4(248)",
    "phone_number": "+35997384145",
    "source_url": "https://www.google.com/maps/place/Zornitsa/data=!4m7!3m6!1s0x40acaf183a3452b7:0x3aa6e33472156473!8m2!3d43.7735435!4d23.7291725!16s%2Fg%2F1thwyymh!19sChIJt1I0OhivrEARc2QVcjTjpjo?authuser=0&hl=tr&rclk=1",
    "website_url": "",
    "rating_text": "4,4",
    "stars": null,
    "number_of_reviews": null,
    "price_level": "",
    "open_hours": "",
    "extraction_timestamp": "2025-06-07T15:09:27.442Z",
    "source_name": "google",
    "source_query": "Irrigation Equipment",
    "source_country": "BG",
    "country": "Bulgaria",
    "state": "Vratsa Province",
    "city": "Kozloduy"
  },
  {
    "source_id": "ChIJ85galgoZq0AR960gPuJzhBE",
    "name": "МИРЕН 07 ЕООД",
    "category": "МИРЕН 07 ЕООД",
    "formatted_address": "5,0(9)",
    "phone_number": "+359888007588",
    "source_url": "https://www.google.com/maps/place/%D0%9C%D0%98%D0%A0%D0%95%D0%9D+07+%D0%95%D0%9E%D0%9E%D0%94/data=!4m7!3m6!1s0x40ab190a961a98f3:0x118473e23e20adf7!8m2!3d43.2084473!4d23.5483263!16s%2Fg%2F11lv7gmrf_!19sChIJ85galgoZq0AR960gPuJzhBE?authuser=0&hl=tr&rclk=1",
    "website_url": "",
    "rating_text": "5,0",
    "stars": null,
    "number_of_reviews": null,
    "price_level": "",
    "open_hours": "",
    "extraction_timestamp": "2025-06-07T15:09:27.443Z",
    "source_name": "google",
    "source_query": "Irrigation Equipment",
    "source_country": "BG",
    "country": "Bulgaria",
    "state": "Vratsa Province",
    "city": "Kozloduy"
  },
  {
    "source_id": "ChIJSYwhD4-vrEARtzn4SaGdoic",
    "name": "\"SLICK\" SHOP-whiskey,wine&tabacco",
    "category": "\"SLICK\" SHOP-whiskey,wine&tabacco",
    "formatted_address": "\"SLICK\" SHOP-whiskey,wine&tabacco",
    "phone_number": "+359878342001",
    "source_url": "https://www.google.com/maps/place/%22SLICK%22+SHOP-whiskey,wine%26tabacco/data=!4m7!3m6!1s0x40acaf8f0f218c49:0x27a29da149f839b7!8m2!3d43.779749!4d23.7245132!16s%2Fg%2F11j3fq_7r1!19sChIJSYwhD4-vrEARtzn4SaGdoic?authuser=0&hl=tr&rclk=1",
    "website_url": "",
    "rating_text": "4,9",
    "stars": null,
    "number_of_reviews": null,
    "price_level": "",
    "open_hours": "",
    "extraction_timestamp": "2025-06-07T15:09:27.445Z",
    "source_name": "google",
    "source_query": "Irrigation Equipment",
    "source_country": "BG",
    "country": "Bulgaria",
    "state": "Vratsa Province",
    "city": "Kozloduy"
  },
  {
    "source_id": "ChIJ-fSCf92vrEAREFL_wOBSFxc",
    "name": "Супермаркет Life",
    "category": "Супермаркет Life",
    "formatted_address": "4,1(131)",
    "phone_number": "",
    "source_url": "https://www.google.com/maps/place/%D0%A1%D1%83%D0%BF%D0%B5%D1%80%D0%BC%D0%B0%D1%80%D0%BA%D0%B5%D1%82+Life/data=!4m7!3m6!1s0x40acafdd7f82f4f9:0x171752e0c0ff5210!8m2!3d43.7739151!4d23.7272768!16s%2Fg%2F11sbsxm3v6!19sChIJ-fSCf92vrEAREFL_wOBSFxc?authuser=0&hl=tr&rclk=1",
    "website_url": "",
    "rating_text": "4,1",
    "stars": null,
    "number_of_reviews": null,
    "price_level": "",
    "open_hours": "",
    "extraction_timestamp": "2025-06-07T15:09:27.447Z",
    "source_name": "google",
    "source_query": "Irrigation Equipment",
    "source_country": "BG",
    "country": "Bulgaria",
    "state": "Vratsa Province",
    "city": "Kozloduy"
  },
  {
    "source_id": "ChIJH02PvcavrEARnhzFA826G_E",
    "name": "Hardware Store Железария",
    "category": "Hardware Store Железария",
    "formatted_address": "4,7(103)",
    "phone_number": "",
    "source_url": "https://www.google.com/maps/place/Hardware+Store+%D0%96%D0%B5%D0%BB%D0%B5%D0%B7%D0%B0%D1%80%D0%B8%D1%8F/data=!4m7!3m6!1s0x40acafc6bd8f4d1f:0xf11bbacd03c51c9e!8m2!3d43.7745463!4d23.726533!16s%2Fg%2F11f6y34fy6!19sChIJH02PvcavrEARnhzFA826G_E?authuser=0&hl=tr&rclk=1",
    "website_url": "",
    "rating_text": "4,7",
    "stars": null,
    "number_of_reviews": null,
    "price_level": "",
    "open_hours": "",
    "extraction_timestamp": "2025-06-07T15:09:27.472Z",
    "source_name": "google",
    "source_query": "Irrigation Equipment",
    "source_country": "BG",
    "country": "Bulgaria",
    "state": "Vratsa Province",
    "city": "Kozloduy"
  },
  {
    "source_id": "ChIJbbdFm74Zq0AROf38NUPzryQ",
    "name": "Water BG - Сондажи и Хидрогеоложки проучвания Враца",
    "category": "Water BG - Сондажи и Хидрогеоложки проучвания Враца",
    "formatted_address": "5,0(1)",
    "phone_number": "+359876778357",
    "source_url": "https://www.google.com/maps/place/Water+BG+-+%D0%A1%D0%BE%D0%BD%D0%B4%D0%B0%D0%B6%D0%B8+%D0%B8+%D0%A5%D0%B8%D0%B4%D1%80%D0%BE%D0%B3%D0%B5%D0%BE%D0%BB%D0%BE%D0%B6%D0%BA%D0%B8+%D0%BF%D1%80%D0%BE%D1%83%D1%87%D0%B2%D0%B0%D0%BD%D0%B8%D1%8F+%D0%92%D1%80%D0%B0%D1%86%D0%B0/data=!4m7!3m6!1s0x40ab19be9b45b76d:0x24aff34335fcfd39!8m2!3d43.2256122!4d23.5438669!16s%2Fg%2F11qq36y9_1!19sChIJbbdFm74Zq0AROf38NUPzryQ?authuser=0&hl=tr&rclk=1",
    "website_url": "",
    "rating_text": "5,0",
    "stars": null,
    "number_of_reviews": null,
    "price_level": "",
    "open_hours": "",
    "extraction_timestamp": "2025-06-07T15:09:27.473Z",
    "source_name": "google",
    "source_query": "Irrigation Equipment",
    "source_country": "BG",
    "country": "Bulgaria",
    "state": "Vratsa Province",
    "city": "Kozloduy"
  },
  {
    "source_id": "ChIJn3chwfoYq0ARqYEZPmbMaZs",
    "name": "Construction of solar systems for hot water and electricity",
    "category": "Construction of solar systems for hot water and electricity",
    "formatted_address": "4,0(5)",
    "phone_number": "+359878686815",
    "source_url": "https://www.google.com/maps/place/Construction+of+solar+systems+for+hot+water+and+electricity/data=!4m7!3m6!1s0x40ab18fac121779f:0x9b69cc663e1981a9!8m2!3d43.2976889!4d23.6617497!16s%2Fg%2F11bt_lwpn3!19sChIJn3chwfoYq0ARqYEZPmbMaZs?authuser=0&hl=tr&rclk=1",
    "website_url": "",
    "rating_text": "4,0",
    "stars": null,
    "number_of_reviews": null,
    "price_level": "",
    "open_hours": "",
    "extraction_timestamp": "2025-06-07T15:09:27.474Z",
    "source_name": "google",
    "source_query": "Irrigation Equipment",
    "source_country": "BG",
    "country": "Bulgaria",
    "state": "Vratsa Province",
    "city": "Kozloduy"
  },
  {
    "source_id": "ChIJ76NBJRivrEARPBneLfm9Njc",
    "name": "Супермаркет Корона",
    "category": "Супермаркет Корона",
    "formatted_address": "4,1(290)",
    "phone_number": "",
    "source_url": "https://www.google.com/maps/place/%D0%A1%D1%83%D0%BF%D0%B5%D1%80%D0%BC%D0%B0%D1%80%D0%BA%D0%B5%D1%82+%D0%9A%D0%BE%D1%80%D0%BE%D0%BD%D0%B0/data=!4m7!3m6!1s0x40acaf182541a3ef:0x3736bdf92dde193c!8m2!3d43.7785362!4d23.7221013!16s%2Fg%2F11fx95v8bk!19sChIJ76NBJRivrEARPBneLfm9Njc?authuser=0&hl=tr&rclk=1",
    "website_url": "",
    "rating_text": "4,1",
    "stars": null,
    "number_of_reviews": null,
    "price_level": "",
    "open_hours": "",
    "extraction_timestamp": "2025-06-07T15:09:27.475Z",
    "source_name": "google",
    "source_query": "Irrigation Equipment",
    "source_country": "BG",
    "country": "Bulgaria",
    "state": "Vratsa Province",
    "city": "Kozloduy"
  },
  {
    "source_id": "ChIJceqv6MuEqkAR45AXk38sGOE",
    "name": "Irrigation Systems",
    "category": "Irrigation Systems",
    "formatted_address": "4,4(10)",
    "phone_number": "+35928085001",
    "source_url": "https://www.google.com/maps/place/Irrigation+Systems/data=!4m7!3m6!1s0x40aa84cbe8afea71:0xe1182c7f931790e3!8m2!3d42.6700035!4d23.2681798!16s%2Fg%2F1thtbmsl!19sChIJceqv6MuEqkAR45AXk38sGOE?authuser=0&hl=tr&rclk=1",
    "website_url": "",
    "rating_text": "4,4",
    "stars": null,
    "number_of_reviews": null,
    "price_level": "",
    "open_hours": "",
    "extraction_timestamp": "2025-06-07T15:09:27.476Z",
    "source_name": "google",
    "source_query": "Irrigation Equipment",
    "source_country": "BG",
    "country": "Bulgaria",
    "state": "Vratsa Province",
    "city": "Kozloduy"
  },
  {
    "source_id": "ChIJOfSHdBWvrEAR-T_h0uRPjww",
    "name": "Korona",
    "category": "Korona",
    "formatted_address": "3,8(403)",
    "phone_number": "",
    "source_url": "https://www.google.com/maps/place/Korona/data=!4m7!3m6!1s0x40acaf157487f439:0xc8f4fe4d2e13ff9!8m2!3d43.7757111!4d23.7318419!16s%2Fg%2F1pv07hfz2!19sChIJOfSHdBWvrEAR-T_h0uRPjww?authuser=0&hl=tr&rclk=1",
    "website_url": "",
    "rating_text": "3,8",
    "stars": null,
    "number_of_reviews": null,
    "price_level": "",
    "open_hours": "",
    "extraction_timestamp": "2025-06-07T15:09:27.477Z",
    "source_name": "google",
    "source_query": "Irrigation Equipment",
    "source_country": "BG",
    "country": "Bulgaria",
    "state": "Vratsa Province",
    "city": "Kozloduy"
  },
  {
    "source_id": "ChIJ7fpaRD6vrEAR2pJqrZUzLO4",
    "name": "T MARKET",
    "category": "T MARKET",
    "formatted_address": "3,8(596)",
    "phone_number": "+35970070171",
    "source_url": "https://www.google.com/maps/place/T+MARKET/data=!4m7!3m6!1s0x40acaf3e445afaed:0xee2c3395ad6a92da!8m2!3d43.7737744!4d23.7285158!16s%2Fg%2F11c6q8kmmk!19sChIJ7fpaRD6vrEAR2pJqrZUzLO4?authuser=0&hl=tr&rclk=1",
    "website_url": "",
    "rating_text": "3,8",
    "stars": null,
    "number_of_reviews": null,
    "price_level": "",
    "open_hours": "",
    "extraction_timestamp": "2025-06-07T15:09:27.478Z",
    "source_name": "google",
    "source_query": "Irrigation Equipment",
    "source_country": "BG",
    "country": "Bulgaria",
    "state": "Vratsa Province",
    "city": "Kozloduy"
  },
  {
    "source_id": "ChIJ74mnhwOvrEARG7zuSbLmL3g",
    "name": "Зоомагазин \"Мър-Дог\"",
    "category": "Зоомагазин \"Мър-Дог\"",
    "formatted_address": "5,0(2)",
    "phone_number": "+359878785166",
    "source_url": "https://www.google.com/maps/place/%D0%97%D0%BE%D0%BE%D0%BC%D0%B0%D0%B3%D0%B0%D0%B7%D0%B8%D0%BD+%22%D0%9C%D1%8A%D1%80-%D0%94%D0%BE%D0%B3%22/data=!4m7!3m6!1s0x40acaf0387a789ef:0x782fe6b249eebc1b!8m2!3d43.7807904!4d23.7243365!16s%2Fg%2F11qgfb043c!19sChIJ74mnhwOvrEARG7zuSbLmL3g?authuser=0&hl=tr&rclk=1",
    "website_url": "",
    "rating_text": "5,0",
    "stars": null,
    "number_of_reviews": null,
    "price_level": "",
    "open_hours": "",
    "extraction_timestamp": "2025-06-07T15:09:27.479Z",
    "source_name": "google",
    "source_query": "Irrigation Equipment",
    "source_country": "BG",
    "country": "Bulgaria",
    "state": "Vratsa Province",
    "city": "Kozloduy"
  },
  {
    "source_id": "ChIJy1iCdx2vrEAROukToxxWU4k",
    "name": "Lidl",
    "category": "Lidl",
    "formatted_address": "4,3(1.207)",
    "phone_number": "+35929066444",
    "source_url": "https://www.google.com/maps/place/Lidl/data=!4m7!3m6!1s0x40acaf1d778258cb:0x8953561ca313e93a!8m2!3d43.7757031!4d23.734152!16s%2Fg%2F1pp2tzfmn!19sChIJy1iCdx2vrEAROukToxxWU4k?authuser=0&hl=tr&rclk=1",
    "website_url": "",
    "rating_text": "4,3",
    "stars": null,
    "number_of_reviews": null,
    "price_level": "",
    "open_hours": "",
    "extraction_timestamp": "2025-06-07T15:09:27.482Z",
    "source_name": "google",
    "source_query": "Irrigation Equipment",
    "source_country": "BG",
    "country": "Bulgaria",
    "state": "Vratsa Province",
    "city": "Kozloduy"
  },
  {
    "source_id": "ChIJifPBoXGGqkARA5U1ZnLt0t4",
    "name": "Ямато ЕООД Поливни системи",
    "category": "Ямато ЕООД Поливни системи",
    "formatted_address": "5,0(4)",
    "phone_number": "+359899535964",
    "source_url": "https://www.google.com/maps/place/%D0%AF%D0%BC%D0%B0%D1%82%D0%BE+%D0%95%D0%9E%D0%9E%D0%94+%D0%9F%D0%BE%D0%BB%D0%B8%D0%B2%D0%BD%D0%B8+%D1%81%D0%B8%D1%81%D1%82%D0%B5%D0%BC%D0%B8/data=!4m7!3m6!1s0x40aa8671a1c1f389:0xded2ed7266359503!8m2!3d42.6714845!4d23.3871234!16s%2Fg%2F11f1s58kx5!19sChIJifPBoXGGqkARA5U1ZnLt0t4?authuser=0&hl=tr&rclk=1",
    "website_url": "",
    "rating_text": "5,0",
    "stars": null,
    "number_of_reviews": null,
    "price_level": "",
    "open_hours": "",
    "extraction_timestamp": "2025-06-07T15:09:27.483Z",
    "source_name": "google",
    "source_query": "Irrigation Equipment",
    "source_country": "BG",
    "country": "Bulgaria",
    "state": "Vratsa Province",
    "city": "Kozloduy"
  },
  {
    "source_id": "ChIJOX3ORxivrEARM2ymnaRmjRQ",
    "name": "Vianor",
    "category": "Vianor",
    "formatted_address": "4,0(59)",
    "phone_number": "+359888000103",
    "source_url": "https://www.google.com/maps/place/Vianor/data=!4m7!3m6!1s0x40acaf1847ce7d39:0x148d66a49da66c33!8m2!3d43.7789828!4d23.7211823!16s%2Fg%2F11f01zjnjm!19sChIJOX3ORxivrEARM2ymnaRmjRQ?authuser=0&hl=tr&rclk=1",
    "website_url": "",
    "rating_text": "4,0",
    "stars": null,
    "number_of_reviews": null,
    "price_level": "",
    "open_hours": "",
    "extraction_timestamp": "2025-06-07T15:09:27.484Z",
    "source_name": "google",
    "source_query": "Irrigation Equipment",
    "source_country": "BG",
    "country": "Bulgaria",
    "state": "Vratsa Province",
    "city": "Kozloduy"
  },
  {
    "source_id": "ChIJYUTJ6ZuvrEARoCGcYGs5BSU",
    "name": "Nedelya",
    "category": "Nedelya",
    "formatted_address": "3,6(5) · ₺₺",
    "phone_number": "+359896807575",
    "source_url": "https://www.google.com/maps/place/Nedelya/data=!4m7!3m6!1s0x40acaf9be9c94461:0x2505396b609c21a0!8m2!3d43.7755472!4d23.73161!16s%2Fg%2F11rf7mbjgm!19sChIJYUTJ6ZuvrEARoCGcYGs5BSU?authuser=0&hl=tr&rclk=1",
    "website_url": "",
    "rating_text": "3,6",
    "stars": null,
    "number_of_reviews": null,
    "price_level": "",
    "open_hours": "",
    "extraction_timestamp": "2025-06-07T15:09:27.486Z",
    "source_name": "google",
    "source_query": "Irrigation Equipment",
    "source_country": "BG",
    "country": "Bulgaria",
    "state": "Vratsa Province",
    "city": "Kozloduy"
  },
  {
    "source_id": "ChIJh15307uvrEARaOZ7Gswf0mo",
    "name": "Аптека Момина Сълза",
    "category": "Аптека Момина Сълза",
    "formatted_address": "4,4(8)",
    "phone_number": "+35997380202",
    "source_url": "https://www.google.com/maps/place/%D0%90%D0%BF%D1%82%D0%B5%D0%BA%D0%B0+%D0%9C%D0%BE%D0%BC%D0%B8%D0%BD%D0%B0+%D0%A1%D1%8A%D0%BB%D0%B7%D0%B0/data=!4m7!3m6!1s0x40acafbbd3775e87:0x6ad21fcc1a7be668!8m2!3d43.7781418!4d23.728842!16s%2Fg%2F11f8k264p4!19sChIJh15307uvrEARaOZ7Gswf0mo?authuser=0&hl=tr&rclk=1",
    "website_url": "",
    "rating_text": "4,4",
    "stars": null,
    "number_of_reviews": null,
    "price_level": "",
    "open_hours": "",
    "extraction_timestamp": "2025-06-07T15:09:27.487Z",
    "source_name": "google",
    "source_query": "Irrigation Equipment",
    "source_country": "BG",
    "country": "Bulgaria",
    "state": "Vratsa Province",
    "city": "Kozloduy"
  },
  {
    "source_id": "ChIJt9wqKgCvrEARjArE7Gi2vmE",
    "name": "Party Food Магазин 3",
    "category": "Party Food Магазин 3",
    "formatted_address": "Bakkal · 1, ул. Стефан Караджа 1371Kapanmak üzere ⋅ 19:00 ⋅ Açılış zamanı: Paz 09:00 · +359 88 844 4479",
    "phone_number": "+359888444479",
    "source_url": "https://www.google.com/maps/place/Party+Food+%D0%9C%D0%B0%D0%B3%D0%B0%D0%B7%D0%B8%D0%BD+3/data=!4m7!3m6!1s0x40acaf002a2adcb7:0x61beb668ecc40a8c!8m2!3d43.779214!4d23.7285694!16s%2Fg%2F11mdq0dh19!19sChIJt9wqKgCvrEARjArE7Gi2vmE?authuser=0&hl=tr&rclk=1",
    "website_url": "",
    "rating_text": "",
    "stars": null,
    "number_of_reviews": null,
    "price_level": "",
    "open_hours": "",
    "extraction_timestamp": "2025-06-07T15:09:27.488Z",
    "source_name": "google",
    "source_query": "Irrigation Equipment",
    "source_country": "BG",
    "country": "Bulgaria",
    "state": "Vratsa Province",
    "city": "Kozloduy"
  },
  {
    "source_id": "ChIJW1WNE-AYq0ARUPzn0aH8ZPU",
    "name": "NON STOP REFINE",
    "category": "NON STOP REFINE",
    "formatted_address": "4,6(22)",
    "phone_number": "+359887080826",
    "source_url": "https://www.google.com/maps/place/NON+STOP+REFINE/data=!4m7!3m6!1s0x40ab18e0138d555b:0xf564fca1d1e7fc50!8m2!3d43.2053276!4d23.5534695!16s%2Fg%2F11g86nzl43!19sChIJW1WNE-AYq0ARUPzn0aH8ZPU?authuser=0&hl=tr&rclk=1",
    "website_url": "",
    "rating_text": "4,6",
    "stars": null,
    "number_of_reviews": null,
    "price_level": "",
    "open_hours": "",
    "extraction_timestamp": "2025-06-07T15:09:27.490Z",
    "source_name": "google",
    "source_query": "Irrigation Equipment",
    "source_country": "BG",
    "country": "Bulgaria",
    "state": "Vratsa Province",
    "city": "Kozloduy"
  },
  {
    "source_id": "ChIJX5w9_kIZq0ARC3DJEldthto",
    "name": "Нон Стоп Алван",
    "category": "Нон Стоп Алван",
    "formatted_address": "5,0(2)",
    "phone_number": "+359876989869",
    "source_url": "https://www.google.com/maps/place/%D0%9D%D0%BE%D0%BD+%D0%A1%D1%82%D0%BE%D0%BF+%D0%90%D0%BB%D0%B2%D0%B0%D0%BD/data=!4m7!3m6!1s0x40ab1942fe3d9c5f:0xda866d5712c9700b!8m2!3d43.2227843!4d23.5556166!16s%2Fg%2F11wjrfqpzz!19sChIJX5w9_kIZq0ARC3DJEldthto?authuser=0&hl=tr&rclk=1",
    "website_url": "",
    "rating_text": "5,0",
    "stars": null,
    "number_of_reviews": null,
    "price_level": "",
    "open_hours": "",
    "extraction_timestamp": "2025-06-07T15:09:27.491Z",
    "source_name": "google",
    "source_query": "Irrigation Equipment",
    "source_country": "BG",
    "country": "Bulgaria",
    "state": "Vratsa Province",
    "city": "Kozloduy"
  },
  {
    "source_id": "ChIJlW0rxfkZq0ARIP6YUIY74ic",
    "name": "FAST MARKET",
    "category": "FAST MARKET",
    "formatted_address": "4,4(13)",
    "phone_number": "",
    "source_url": "https://www.google.com/maps/place/FAST+MARKET/data=!4m7!3m6!1s0x40ab19f9c52b6d95:0x27e23b865098fe20!8m2!3d43.2045914!4d23.5590439!16s%2Fg%2F11q4bykjxx!19sChIJlW0rxfkZq0ARIP6YUIY74ic?authuser=0&hl=tr&rclk=1",
    "website_url": "",
    "rating_text": "4,4",
    "stars": null,
    "number_of_reviews": null,
    "price_level": "",
    "open_hours": "",
    "extraction_timestamp": "2025-06-07T15:09:27.491Z",
    "source_name": "google",
    "source_query": "Irrigation Equipment",
    "source_country": "BG",
    "country": "Bulgaria",
    "state": "Vratsa Province",
    "city": "Kozloduy"
  },
  {
    "source_id": "ChIJkybxTVsZq0ARPRMqfIaDQz8",
    "name": "ХРАНИТЕЛ МАГАЗИН ТИР ПАРКИНГ ВРАЦА",
    "category": "ХРАНИТЕЛ МАГАЗИН ТИР ПАРКИНГ ВРАЦА",
    "formatted_address": "4,5(132)",
    "phone_number": "+359888407350",
    "source_url": "https://www.google.com/maps/place/%D0%A5%D0%A0%D0%90%D0%9D%D0%98%D0%A2%D0%95%D0%9B+%D0%9C%D0%90%D0%93%D0%90%D0%97%D0%98%D0%9D+%D0%A2%D0%98%D0%A0+%D0%9F%D0%90%D0%A0%D0%9A%D0%98%D0%9D%D0%93+%D0%92%D0%A0%D0%90%D0%A6%D0%90/data=!4m7!3m6!1s0x40ab195b4df12693:0x3f4383867c2a133d!8m2!3d43.1877335!4d23.59697!16s%2Fg%2F11q21dv3fz!19sChIJkybxTVsZq0ARPRMqfIaDQz8?authuser=0&hl=tr&rclk=1",
    "website_url": "",
    "rating_text": "4,5",
    "stars": null,
    "number_of_reviews": null,
    "price_level": "",
    "open_hours": "",
    "extraction_timestamp": "2025-06-07T15:09:27.493Z",
    "source_name": "google",
    "source_query": "Irrigation Equipment",
    "source_country": "BG",
    "country": "Bulgaria",
    "state": "Vratsa Province",
    "city": "Kozloduy"
  },
  {
    "source_id": "ChIJUz9nOj8Zq0ARaUAxT-OaftQ",
    "name": "Строймаркет ИНЕКС",
    "category": "Строймаркет ИНЕКС",
    "formatted_address": "4,4(518)",
    "phone_number": "",
    "source_url": "https://www.google.com/maps/place/%D0%A1%D1%82%D1%80%D0%BE%D0%B9%D0%BC%D0%B0%D1%80%D0%BA%D0%B5%D1%82+%D0%98%D0%9D%D0%95%D0%9A%D0%A1/data=!4m7!3m6!1s0x40ab193f3a673f53:0xd47e9ae34f314069!8m2!3d43.1960379!4d23.5733205!16s%2Fg%2F11gdq16rlp!19sChIJUz9nOj8Zq0ARaUAxT-OaftQ?authuser=0&hl=tr&rclk=1",
    "website_url": "",
    "rating_text": "4,4",
    "stars": null,
    "number_of_reviews": null,
    "price_level": "",
    "open_hours": "",
    "extraction_timestamp": "2025-06-07T15:09:27.493Z",
    "source_name": "google",
    "source_query": "Irrigation Equipment",
    "source_country": "BG",
    "country": "Bulgaria",
    "state": "Vratsa Province",
    "city": "Kozloduy"
  },
  {
    "source_id": "ChIJrxL10foYq0ARWGmgX718G0Y",
    "name": "Supermarket \"Universe\" Супермаркет \"Юнивърс\"",
    "category": "Supermarket \"Universe\" Супермаркет \"Юнивърс\"",
    "formatted_address": "4,2(187)",
    "phone_number": "",
    "source_url": "https://www.google.com/maps/place/Supermarket+%22Universe%22+%D0%A1%D1%83%D0%BF%D0%B5%D1%80%D0%BC%D0%B0%D1%80%D0%BA%D0%B5%D1%82+%22%D0%AE%D0%BD%D0%B8%D0%B2%D1%8A%D1%80%D1%81%22/data=!4m7!3m6!1s0x40ab18fad1f512af:0x461b7cbd5fa06958!8m2!3d43.2146614!4d23.5514764!16s%2Fg%2F11g8nlwfq8!19sChIJrxL10foYq0ARWGmgX718G0Y?authuser=0&hl=tr&rclk=1",
    "website_url": "",
    "rating_text": "4,2",
    "stars": null,
    "number_of_reviews": null,
    "price_level": "",
    "open_hours": "",
    "extraction_timestamp": "2025-06-07T15:09:27.494Z",
    "source_name": "google",
    "source_query": "Irrigation Equipment",
    "source_country": "BG",
    "country": "Bulgaria",
    "state": "Vratsa Province",
    "city": "Kozloduy"
  },
  {
    "source_id": "ChIJE6XTYwoZq0AR_9hAjNYJTAo",
    "name": "Стройцентър \"Айвазов\"",
    "category": "Стройцентър \"Айвазов\"",
    "formatted_address": "4,4(77)",
    "phone_number": "+359878828587",
    "source_url": "https://www.google.com/maps/place/%D0%A1%D1%82%D1%80%D0%BE%D0%B9%D1%86%D0%B5%D0%BD%D1%82%D1%8A%D1%80+%22%D0%90%D0%B9%D0%B2%D0%B0%D0%B7%D0%BE%D0%B2%22/data=!4m7!3m6!1s0x40ab190a63d3a513:0xa4c09d68c40d8ff!8m2!3d43.214825!4d23.5882419!16s%2Fg%2F11fzj8myw_!19sChIJE6XTYwoZq0AR_9hAjNYJTAo?authuser=0&hl=tr&rclk=1",
    "website_url": "",
    "rating_text": "4,4",
    "stars": null,
    "number_of_reviews": null,
    "price_level": "",
    "open_hours": "",
    "extraction_timestamp": "2025-06-07T15:09:27.495Z",
    "source_name": "google",
    "source_query": "Irrigation Equipment",
    "source_country": "BG",
    "country": "Bulgaria",
    "state": "Vratsa Province",
    "city": "Kozloduy"
  },
  {
    "source_id": "ChIJ4Q7rmgIZq0AREtGoLe12ZcA",
    "name": "Супермаркет Вежен",
    "category": "Супермаркет Вежен",
    "formatted_address": "4,6(105)",
    "phone_number": "",
    "source_url": "https://www.google.com/maps/place/%D0%A1%D1%83%D0%BF%D0%B5%D1%80%D0%BC%D0%B0%D1%80%D0%BA%D0%B5%D1%82+%D0%92%D0%B5%D0%B6%D0%B5%D0%BD/data=!4m7!3m6!1s0x40ab19029aeb0ee1:0xc06576ed2da8d112!8m2!3d43.1950003!4d23.5638805!16s%2Fg%2F11nmjl79zt!19sChIJ4Q7rmgIZq0AREtGoLe12ZcA?authuser=0&hl=tr&rclk=1",
    "website_url": "",
    "rating_text": "4,6",
    "stars": null,
    "number_of_reviews": null,
    "price_level": "",
    "open_hours": "",
    "extraction_timestamp": "2025-06-07T15:09:27.496Z",
    "source_name": "google",
    "source_query": "Irrigation Equipment",
    "source_country": "BG",
    "country": "Bulgaria",
    "state": "Vratsa Province",
    "city": "Kozloduy"
  },
  {
    "source_id": "ChIJd2MofrIZq0ARvzzq_An4akQ",
    "name": "Фифона Кейк",
    "category": "Фифона Кейк",
    "formatted_address": "4,7(35)",
    "phone_number": "+359876545554",
    "source_url": "https://www.google.com/maps/place/%D0%A4%D0%B8%D1%84%D0%BE%D0%BD%D0%B0+%D0%9A%D0%B5%D0%B9%D0%BA/data=!4m7!3m6!1s0x40ab19b27e286377:0x446af809fcea3cbf!8m2!3d43.2033793!4d23.5488121!16s%2Fg%2F11sysf4qs9!19sChIJd2MofrIZq0ARvzzq_An4akQ?authuser=0&hl=tr&rclk=1",
    "website_url": "",
    "rating_text": "4,7",
    "stars": null,
    "number_of_reviews": null,
    "price_level": "",
    "open_hours": "",
    "extraction_timestamp": "2025-06-07T15:09:27.497Z",
    "source_name": "google",
    "source_query": "Irrigation Equipment",
    "source_country": "BG",
    "country": "Bulgaria",
    "state": "Vratsa Province",
    "city": "Kozloduy"
  },
  {
    "source_id": "ChIJB1H3NjUZq0AR3asv-wT1RsY",
    "name": "Home Made by Maria",
    "category": "Home Made by Maria",
    "formatted_address": "4,7(97)",
    "phone_number": "",
    "source_url": "https://www.google.com/maps/place/Home+Made+by+Maria/data=!4m7!3m6!1s0x40ab193536f75107:0xc646f504fb2fabdd!8m2!3d43.1997939!4d23.5593233!16s%2Fg%2F11j22lp8zf!19sChIJB1H3NjUZq0AR3asv-wT1RsY?authuser=0&hl=tr&rclk=1",
    "website_url": "",
    "rating_text": "4,7",
    "stars": null,
    "number_of_reviews": null,
    "price_level": "",
    "open_hours": "",
    "extraction_timestamp": "2025-06-07T15:09:27.497Z",
    "source_name": "google",
    "source_query": "Irrigation Equipment",
    "source_country": "BG",
    "country": "Bulgaria",
    "state": "Vratsa Province",
    "city": "Kozloduy"
  },
  {
    "source_id": "ChIJ85galgoZq0AR960gPuJzhBE",
    "name": "МИРЕН 07 ЕООД",
    "category": "МИРЕН 07 ЕООД",
    "formatted_address": "5,0(9)",
    "phone_number": "+359888007588",
    "source_url": "https://www.google.com/maps/place/%D0%9C%D0%98%D0%A0%D0%95%D0%9D+07+%D0%95%D0%9E%D0%9E%D0%94/data=!4m7!3m6!1s0x40ab190a961a98f3:0x118473e23e20adf7!8m2!3d43.2084473!4d23.5483263!16s%2Fg%2F11lv7gmrf_!19sChIJ85galgoZq0AR960gPuJzhBE?authuser=0&hl=tr&rclk=1",
    "website_url": "",
    "rating_text": "5,0",
    "stars": null,
    "number_of_reviews": null,
    "price_level": "",
    "open_hours": "",
    "extraction_timestamp": "2025-06-07T15:10:04.348Z",
    "source_name": "google",
    "source_query": "Irrigation Equipment",
    "source_country": "BG",
    "country": "Bulgaria",
    "state": "Vratsa Province",
    "city": "Obshtina Vratsa"
  },
  {
    "source_id": "ChIJn24eTuYYq0ARVNV2aGxbi9A",
    "name": "Irrigation Systems",
    "category": "Irrigation Systems",
    "formatted_address": "2,0(3)",
    "phone_number": "+35992653044",
    "source_url": "https://www.google.com/maps/place/Irrigation+Systems/data=!4m7!3m6!1s0x40ab18e64e1e6e9f:0xd08b5b6c6876d554!8m2!3d43.208899!4d23.5464445!16s%2Fg%2F11gz6900p!19sChIJn24eTuYYq0ARVNV2aGxbi9A?authuser=0&hl=tr&rclk=1",
    "website_url": "https://nps.bg/%D0%BA%D0%BB%D0%BE%D0%BD-%D0%BC%D0%B8%D0%B7%D0%B8%D1%8F/",
    "rating_text": "2,0",
    "stars": null,
    "number_of_reviews": null,
    "price_level": "",
    "open_hours": "",
    "extraction_timestamp": "2025-06-07T15:10:04.350Z",
    "source_name": "google",
    "source_query": "Irrigation Equipment",
    "source_country": "BG",
    "country": "Bulgaria",
    "state": "Vratsa Province",
    "city": "Obshtina Vratsa"
  },
  {
    "source_id": "ChIJVx54CS6jrEAR0Hhjmwfe1OM",
    "name": "Магазин за строителни, ВИК и електро материали - Оряхово",
    "category": "Магазин за строителни, ВИК и електро материали - Оряхово",
    "formatted_address": "Магазин за строителни, ВИК и електро материали - Оряхово",
    "phone_number": "+359878675562",
    "source_url": "https://www.google.com/maps/place/%D0%9C%D0%B0%D0%B3%D0%B0%D0%B7%D0%B8%D0%BD+%D0%B7%D0%B0+%D1%81%D1%82%D1%80%D0%BE%D0%B8%D1%82%D0%B5%D0%BB%D0%BD%D0%B8,+%D0%92%D0%98%D0%9A+%D0%B8+%D0%B5%D0%BB%D0%B5%D0%BA%D1%82%D1%80%D0%BE+%D0%BC%D0%B0%D1%82%D0%B5%D1%80%D0%B8%D0%B0%D0%BB%D0%B8+-+%D0%9E%D1%80%D1%8F%D1%85%D0%BE%D0%B2%D0%BE/data=!4m7!3m6!1s0x40aca32e09781e57:0xe3d4de079b6378d0!8m2!3d43.738186!4d23.9585068!16s%2Fg%2F11q24yhtkx!19sChIJVx54CS6jrEAR0Hhjmwfe1OM?authuser=0&hl=tr&rclk=1",
    "website_url": "https://www.facebook.com/profile.php?id=100077974465963",
    "rating_text": "5,0",
    "stars": null,
    "number_of_reviews": null,
    "price_level": "",
    "open_hours": "",
    "extraction_timestamp": "2025-06-07T15:10:12.985Z",
    "source_name": "google",
    "source_query": "Irrigation Equipment",
    "source_country": "BG",
    "country": "Bulgaria",
    "state": "Vratsa Province",
    "city": "Obshtina Oryahovo"
  },
  {
    "source_id": "ChIJZdl2qXmirEARDwmonjR7ye4",
    "name": "ХРАНИТЕЛЕН МАГАЗИН CVETI COMMERCE",
    "category": "ХРАНИТЕЛЕН МАГАЗИН CVETI COMMERCE",
    "formatted_address": "4,1(161)",
    "phone_number": "+359877036969",
    "source_url": "https://www.google.com/maps/place/%D0%A5%D0%A0%D0%90%D0%9D%D0%98%D0%A2%D0%95%D0%9B%D0%95%D0%9D+%D0%9C%D0%90%D0%93%D0%90%D0%97%D0%98%D0%9D+CVETI+COMMERCE/data=!4m7!3m6!1s0x40aca279a976d965:0xeec97b349ea8090f!8m2!3d43.7358621!4d23.9602821!16s%2Fg%2F11ggs_ym5f!19sChIJZdl2qXmirEARDwmonjR7ye4?authuser=0&hl=tr&rclk=1",
    "website_url": "",
    "rating_text": "4,1",
    "stars": null,
    "number_of_reviews": null,
    "price_level": "",
    "open_hours": "",
    "extraction_timestamp": "2025-06-07T15:10:12.988Z",
    "source_name": "google",
    "source_query": "Irrigation Equipment",
    "source_country": "BG",
    "country": "Bulgaria",
    "state": "Vratsa Province",
    "city": "Obshtina Oryahovo"
  },
  {
    "source_id": "ChIJ85galgoZq0AR960gPuJzhBE",
    "name": "МИРЕН 07 ЕООД",
    "category": "МИРЕН 07 ЕООД",
    "formatted_address": "5,0(9)",
    "phone_number": "+359888007588",
    "source_url": "https://www.google.com/maps/place/%D0%9C%D0%98%D0%A0%D0%95%D0%9D+07+%D0%95%D0%9E%D0%9E%D0%94/data=!4m7!3m6!1s0x40ab190a961a98f3:0x118473e23e20adf7!8m2!3d43.2084473!4d23.5483263!16s%2Fg%2F11lv7gmrf_!19sChIJ85galgoZq0AR960gPuJzhBE?authuser=0&hl=tr&rclk=1",
    "website_url": "",
    "rating_text": "5,0",
    "stars": null,
    "number_of_reviews": null,
    "price_level": "",
    "open_hours": "",
    "extraction_timestamp": "2025-06-07T15:10:12.991Z",
    "source_name": "google",
    "source_query": "Irrigation Equipment",
    "source_country": "BG",
    "country": "Bulgaria",
    "state": "Vratsa Province",
    "city": "Obshtina Oryahovo"
  },
  {
    "source_id": "ChIJceqv6MuEqkAR45AXk38sGOE",
    "name": "Irrigation Systems",
    "category": "Irrigation Systems",
    "formatted_address": "4,4(10)",
    "phone_number": "+35928085001",
    "source_url": "https://www.google.com/maps/place/Irrigation+Systems/data=!4m7!3m6!1s0x40aa84cbe8afea71:0xe1182c7f931790e3!8m2!3d42.6700035!4d23.2681798!16s%2Fg%2F1thtbmsl!19sChIJceqv6MuEqkAR45AXk38sGOE?authuser=0&hl=tr&rclk=1",
    "website_url": "https://nps.bg/",
    "rating_text": "4,4",
    "stars": null,
    "number_of_reviews": null,
    "price_level": "",
    "open_hours": "",
    "extraction_timestamp": "2025-06-07T15:10:12.993Z",
    "source_name": "google",
    "source_query": "Irrigation Equipment",
    "source_country": "BG",
    "country": "Bulgaria",
    "state": "Vratsa Province",
    "city": "Obshtina Oryahovo"
  },
  {
    "source_id": "ChIJLQCyO4qjrEARa8oHgI5VdP8",
    "name": "Хранителен магазин \"Томи\"",
    "category": "Хранителен магазин \"Томи\"",
    "formatted_address": "3,7(3)",
    "phone_number": "+35991712401",
    "source_url": "https://www.google.com/maps/place/%D0%A5%D1%80%D0%B0%D0%BD%D0%B8%D1%82%D0%B5%D0%BB%D0%B5%D0%BD+%D0%BC%D0%B0%D0%B3%D0%B0%D0%B7%D0%B8%D0%BD+%22%D0%A2%D0%BE%D0%BC%D0%B8%22/data=!4m7!3m6!1s0x40aca38a3bb2002d:0xff74558e8007ca6b!8m2!3d43.7295758!4d23.9512004!16s%2Fg%2F11h9pdfsnl!19sChIJLQCyO4qjrEARa8oHgI5VdP8?authuser=0&hl=tr&rclk=1",
    "website_url": "",
    "rating_text": "3,7",
    "stars": null,
    "number_of_reviews": null,
    "price_level": "",
    "open_hours": "",
    "extraction_timestamp": "2025-06-07T15:10:12.995Z",
    "source_name": "google",
    "source_query": "Irrigation Equipment",
    "source_country": "BG",
    "country": "Bulgaria",
    "state": "Vratsa Province",
    "city": "Obshtina Oryahovo"
  },
  {
    "source_id": "ChIJbbdFm74Zq0AROf38NUPzryQ",
    "name": "Water BG - Сондажи и Хидрогеоложки проучвания Враца",
    "category": "Water BG - Сондажи и Хидрогеоложки проучвания Враца",
    "formatted_address": "5,0(1)",
    "phone_number": "+359876778357",
    "source_url": "https://www.google.com/maps/place/Water+BG+-+%D0%A1%D0%BE%D0%BD%D0%B4%D0%B0%D0%B6%D0%B8+%D0%B8+%D0%A5%D0%B8%D0%B4%D1%80%D0%BE%D0%B3%D0%B5%D0%BE%D0%BB%D0%BE%D0%B6%D0%BA%D0%B8+%D0%BF%D1%80%D0%BE%D1%83%D1%87%D0%B2%D0%B0%D0%BD%D0%B8%D1%8F+%D0%92%D1%80%D0%B0%D1%86%D0%B0/data=!4m7!3m6!1s0x40ab19be9b45b76d:0x24aff34335fcfd39!8m2!3d43.2256122!4d23.5438669!16s%2Fg%2F11qq36y9_1!19sChIJbbdFm74Zq0AROf38NUPzryQ?authuser=0&hl=tr&rclk=1",
    "website_url": "https://waterbg.net/",
    "rating_text": "5,0",
    "stars": null,
    "number_of_reviews": null,
    "price_level": "",
    "open_hours": "",
    "extraction_timestamp": "2025-06-07T15:10:12.996Z",
    "source_name": "google",
    "source_query": "Irrigation Equipment",
    "source_country": "BG",
    "country": "Bulgaria",
    "state": "Vratsa Province",
    "city": "Obshtina Oryahovo"
  },
  {
    "source_id": "ChIJFTVLpBRMV0ARHAlXQBgBeuo",
    "name": "Obshtina Oryahovo",
    "category": "Obshtina Oryahovo",
    "formatted_address": "4,7(9)",
    "phone_number": "+35991712131",
    "source_url": "https://www.google.com/maps/place/Obshtina+Oryahovo/data=!4m7!3m6!1s0x40574c14a44b3515:0xea7a01184057091c!8m2!3d43.7368687!4d23.9585397!16s%2Fg%2F11b73k_lqf!19sChIJFTVLpBRMV0ARHAlXQBgBeuo?authuser=0&hl=tr&rclk=1",
    "website_url": "",
    "rating_text": "4,7",
    "stars": null,
    "number_of_reviews": null,
    "price_level": "",
    "open_hours": "",
    "extraction_timestamp": "2025-06-07T15:10:12.998Z",
    "source_name": "google",
    "source_query": "Irrigation Equipment",
    "source_country": "BG",
    "country": "Bulgaria",
    "state": "Vratsa Province",
    "city": "Obshtina Oryahovo"
  },
  {
    "source_id": "ChIJEw2OMYGDqkARxHFSeX0-D_I",
    "name": "RHINE SYSTEMS LTD Shop for irrigation systems, pumping equipment, plumbing and electrical materials",
    "category": "RHINE SYSTEMS LTD Shop for irrigation systems, pumping equipment, plumbing and electrical materials",
    "formatted_address": "RHINE SYSTEMS LTD Shop for irrigation systems, pumping equipment, plumbing and electrical materials",
    "phone_number": "+35924501010",
    "source_url": "https://www.google.com/maps/place/RHINE+SYSTEMS+LTD+Shop+for+irrigation+systems,+pumping+equipment,+plumbing+and+electrical+materials/data=!4m7!3m6!1s0x40aa8381318e0d13:0xf20f3e7d795271c4!8m2!3d42.6376675!4d23.2966491!16s%2Fg%2F11g8p3tdk_!19sChIJEw2OMYGDqkARxHFSeX0-D_I?authuser=0&hl=tr&rclk=1",
    "website_url": "http://rainsystems.eu/",
    "rating_text": "4,3",
    "stars": null,
    "number_of_reviews": null,
    "price_level": "",
    "open_hours": "",
    "extraction_timestamp": "2025-06-07T15:10:12.999Z",
    "source_name": "google",
    "source_query": "Irrigation Equipment",
    "source_country": "BG",
    "country": "Bulgaria",
    "state": "Vratsa Province",
    "city": "Obshtina Oryahovo"
  },
  {
    "source_id": "ChIJn3chwfoYq0ARqYEZPmbMaZs",
    "name": "Construction of solar systems for hot water and electricity",
    "category": "Construction of solar systems for hot water and electricity",
    "formatted_address": "4,0(5)",
    "phone_number": "+359878686815",
    "source_url": "https://www.google.com/maps/place/Construction+of+solar+systems+for+hot+water+and+electricity/data=!4m7!3m6!1s0x40ab18fac121779f:0x9b69cc663e1981a9!8m2!3d43.2976889!4d23.6617497!16s%2Fg%2F11bt_lwpn3!19sChIJn3chwfoYq0ARqYEZPmbMaZs?authuser=0&hl=tr&rclk=1",
    "website_url": "",
    "rating_text": "4,0",
    "stars": null,
    "number_of_reviews": null,
    "price_level": "",
    "open_hours": "",
    "extraction_timestamp": "2025-06-07T15:10:13.001Z",
    "source_name": "google",
    "source_query": "Irrigation Equipment",
    "source_country": "BG",
    "country": "Bulgaria",
    "state": "Vratsa Province",
    "city": "Obshtina Oryahovo"
  },
  {
    "source_id": "ChIJ85galgoZq0AR960gPuJzhBE",
    "name": "МИРЕН 07 ЕООД",
    "category": "МИРЕН 07 ЕООД",
    "formatted_address": "5,0(9)",
    "phone_number": "+359888007588",
    "source_url": "https://www.google.com/maps/place/%D0%9C%D0%98%D0%A0%D0%95%D0%9D+07+%D0%95%D0%9E%D0%9E%D0%94/data=!4m7!3m6!1s0x40ab190a961a98f3:0x118473e23e20adf7!8m2!3d43.2084473!4d23.5483263!16s%2Fg%2F11lv7gmrf_!19sChIJ85galgoZq0AR960gPuJzhBE?authuser=0&hl=tr&rclk=1",
    "website_url": "",
    "rating_text": "5,0",
    "stars": null,
    "number_of_reviews": null,
    "price_level": "",
    "open_hours": "",
    "extraction_timestamp": "2025-06-07T15:11:17.738Z",
    "source_name": "google",
    "source_query": "Irrigation Equipment",
    "source_country": "BG",
    "country": "Bulgaria",
    "state": "Vratsa Province",
    "city": "Krivodol"
  },
  {
    "source_id": "ChIJbbdFm74Zq0AROf38NUPzryQ",
    "name": "Water BG - Сондажи и Хидрогеоложки проучвания Враца",
    "category": "Water BG - Сондажи и Хидрогеоложки проучвания Враца",
    "formatted_address": "5,0(1)",
    "phone_number": "+359876778357",
    "source_url": "https://www.google.com/maps/place/Water+BG+-+%D0%A1%D0%BE%D0%BD%D0%B4%D0%B0%D0%B6%D0%B8+%D0%B8+%D0%A5%D0%B8%D0%B4%D1%80%D0%BE%D0%B3%D0%B5%D0%BE%D0%BB%D0%BE%D0%B6%D0%BA%D0%B8+%D0%BF%D1%80%D0%BE%D1%83%D1%87%D0%B2%D0%B0%D0%BD%D0%B8%D1%8F+%D0%92%D1%80%D0%B0%D1%86%D0%B0/data=!4m7!3m6!1s0x40ab19be9b45b76d:0x24aff34335fcfd39!8m2!3d43.2256122!4d23.5438669!16s%2Fg%2F11qq36y9_1!19sChIJbbdFm74Zq0AROf38NUPzryQ?authuser=0&hl=tr&rclk=1",
    "website_url": "https://waterbg.net/",
    "rating_text": "5,0",
    "stars": null,
    "number_of_reviews": null,
    "price_level": "",
    "open_hours": "",
    "extraction_timestamp": "2025-06-07T15:11:17.740Z",
    "source_name": "google",
    "source_query": "Irrigation Equipment",
    "source_country": "BG",
    "country": "Bulgaria",
    "state": "Vratsa Province",
    "city": "Krivodol"
  },
  {
    "source_id": "ChIJn3chwfoYq0ARqYEZPmbMaZs",
    "name": "Construction of solar systems for hot water and electricity",
    "category": "Construction of solar systems for hot water and electricity",
    "formatted_address": "4,0(5)",
    "phone_number": "+359878686815",
    "source_url": "https://www.google.com/maps/place/Construction+of+solar+systems+for+hot+water+and+electricity/data=!4m7!3m6!1s0x40ab18fac121779f:0x9b69cc663e1981a9!8m2!3d43.2976889!4d23.6617497!16s%2Fg%2F11bt_lwpn3!19sChIJn3chwfoYq0ARqYEZPmbMaZs?authuser=0&hl=tr&rclk=1",
    "website_url": "",
    "rating_text": "4,0",
    "stars": null,
    "number_of_reviews": null,
    "price_level": "",
    "open_hours": "",
    "extraction_timestamp": "2025-06-07T15:11:17.742Z",
    "source_name": "google",
    "source_query": "Irrigation Equipment",
    "source_country": "BG",
    "country": "Bulgaria",
    "state": "Vratsa Province",
    "city": "Krivodol"
  },
  {
    "source_id": "ChIJ-91ZJFQ5q0ARHBjpRxnlaZs",
    "name": "Склад-Магазин строителни материали \"ПЕТРОВИ ИНТЕРНЕШЪНЪЛ\"",
    "category": "Склад-Магазин строителни материали \"ПЕТРОВИ ИНТЕРНЕШЪНЪЛ\"",
    "formatted_address": "5,0(1)",
    "phone_number": "+359886609252",
    "source_url": "https://www.google.com/maps/place/%D0%A1%D0%BA%D0%BB%D0%B0%D0%B4-%D0%9C%D0%B0%D0%B3%D0%B0%D0%B7%D0%B8%D0%BD+%D1%81%D1%82%D1%80%D0%BE%D0%B8%D1%82%D0%B5%D0%BB%D0%BD%D0%B8+%D0%BC%D0%B0%D1%82%D0%B5%D1%80%D0%B8%D0%B0%D0%BB%D0%B8+%22%D0%9F%D0%95%D0%A2%D0%A0%D0%9E%D0%92%D0%98+%D0%98%D0%9D%D0%A2%D0%95%D0%A0%D0%9D%D0%95%D0%A8%D0%AA%D0%9D%D0%AA%D0%9B%22/data=!4m7!3m6!1s0x40ab39542459ddfb:0x9b69e51947e9181c!8m2!3d43.3680638!4d23.4748536!16s%2Fg%2F11vbp4p8fm!19sChIJ-91ZJFQ5q0ARHBjpRxnlaZs?authuser=0&hl=tr&rclk=1",
    "website_url": "",
    "rating_text": "5,0",
    "stars": null,
    "number_of_reviews": null,
    "price_level": "",
    "open_hours": "",
    "extraction_timestamp": "2025-06-07T15:11:17.744Z",
    "source_name": "google",
    "source_query": "Irrigation Equipment",
    "source_country": "BG",
    "country": "Bulgaria",
    "state": "Vratsa Province",
    "city": "Krivodol"
  },
  {
    "source_id": "ChIJlTl-Cx0Zq0ARFZhlJmM_d18",
    "name": "Georadarbg.com - Проучване И Откриване На Вода За Сондаж",
    "category": "Georadarbg.com - Проучване И Откриване На Вода За Сондаж",
    "formatted_address": "5,0(1)",
    "phone_number": "+359877818331",
    "source_url": "https://www.google.com/maps/place/Georadarbg.com+-+%D0%9F%D1%80%D0%BE%D1%83%D1%87%D0%B2%D0%B0%D0%BD%D0%B5+%D0%98+%D0%9E%D1%82%D0%BA%D1%80%D0%B8%D0%B2%D0%B0%D0%BD%D0%B5+%D0%9D%D0%B0+%D0%92%D0%BE%D0%B4%D0%B0+%D0%97%D0%B0+%D0%A1%D0%BE%D0%BD%D0%B4%D0%B0%D0%B6/data=!4m7!3m6!1s0x40ab191d0b7e3995:0x5f773f6326659815!8m2!3d43.2031771!4d23.5492707!16s%2Fg%2F11wn5bdmn2!19sChIJlTl-Cx0Zq0ARFZhlJmM_d18?authuser=0&hl=tr&rclk=1",
    "website_url": "https://georadarbg.com/",
    "rating_text": "5,0",
    "stars": null,
    "number_of_reviews": null,
    "price_level": "",
    "open_hours": "",
    "extraction_timestamp": "2025-06-07T15:11:17.746Z",
    "source_name": "google",
    "source_query": "Irrigation Equipment",
    "source_country": "BG",
    "country": "Bulgaria",
    "state": "Vratsa Province",
    "city": "Krivodol"
  },
  {
    "source_id": "ChIJk7m2N3E5q0ARSv5u5nBU8wI",
    "name": "Строителен магазин / Construction Shop",
    "category": "Строителен магазин / Construction Shop",
    "formatted_address": "3,4(9)",
    "phone_number": "",
    "source_url": "https://www.google.com/maps/place/%D0%A1%D1%82%D1%80%D0%BE%D0%B8%D1%82%D0%B5%D0%BB%D0%B5%D0%BD+%D0%BC%D0%B0%D0%B3%D0%B0%D0%B7%D0%B8%D0%BD+%2F+Construction+Shop/data=!4m7!3m6!1s0x40ab397137b6b993:0x2f35470e66efe4a!8m2!3d43.3671883!4d23.4733585!16s%2Fg%2F11c6vqjr5x!19sChIJk7m2N3E5q0ARSv5u5nBU8wI?authuser=0&hl=tr&rclk=1",
    "website_url": "",
    "rating_text": "3,4",
    "stars": null,
    "number_of_reviews": null,
    "price_level": "",
    "open_hours": "",
    "extraction_timestamp": "2025-06-07T15:11:17.748Z",
    "source_name": "google",
    "source_query": "Irrigation Equipment",
    "source_country": "BG",
    "country": "Bulgaria",
    "state": "Vratsa Province",
    "city": "Krivodol"
  },
  {
    "source_id": "ChIJyfKFo2-lrEAReK1gCksRUZc",
    "name": "Water power plant Kozloduy",
    "category": "Water power plant Kozloduy",
    "formatted_address": "5,0(1)",
    "phone_number": "",
    "source_url": "https://www.google.com/maps/place/Water+power+plant+Kozloduy/data=!4m7!3m6!1s0x40aca56fa385f2c9:0x9751114b0a60ad78!8m2!3d43.7497065!4d23.8540063!16s%2Fg%2F11mw4nntvb!19sChIJyfKFo2-lrEAReK1gCksRUZc?authuser=0&hl=tr&rclk=1",
    "website_url": "",
    "rating_text": "5,0",
    "stars": null,
    "number_of_reviews": null,
    "price_level": "",
    "open_hours": "",
    "extraction_timestamp": "2025-06-07T15:11:26.524Z",
    "source_name": "google",
    "source_query": "Irrigation Equipment",
    "source_country": "BG",
    "country": "Bulgaria",
    "state": "Vratsa Province",
    "city": "Obshtina Kozloduy"
  },
  {
    "source_id": "ChIJO3278TyvrEARg1h2xvZpOZ8",
    "name": "Водоснабдяване и канализация ООД",
    "category": "Водоснабдяване и канализация ООД",
    "formatted_address": "2,2(5)",
    "phone_number": "+359882291796",
    "source_url": "https://www.google.com/maps/place/%D0%92%D0%BE%D0%B4%D0%BE%D1%81%D0%BD%D0%B0%D0%B1%D0%B4%D1%8F%D0%B2%D0%B0%D0%BD%D0%B5+%D0%B8+%D0%BA%D0%B0%D0%BD%D0%B0%D0%BB%D0%B8%D0%B7%D0%B0%D1%86%D0%B8%D1%8F+%D0%9E%D0%9E%D0%94/data=!4m7!3m6!1s0x40acaf3cf1bb7d3b:0x9f3969f6c6765883!8m2!3d43.7798646!4d23.7192226!16s%2Fg%2F11h84_fy21!19sChIJO3278TyvrEARg1h2xvZpOZ8?authuser=0&hl=tr&rclk=1",
    "website_url": "",
    "rating_text": "2,2",
    "stars": null,
    "number_of_reviews": null,
    "price_level": "",
    "open_hours": "",
    "extraction_timestamp": "2025-06-07T15:11:26.525Z",
    "source_name": "google",
    "source_query": "Irrigation Equipment",
    "source_country": "BG",
    "country": "Bulgaria",
    "state": "Vratsa Province",
    "city": "Obshtina Kozloduy"
  },
  {
    "source_id": "ChIJVx54CS6jrEAR0Hhjmwfe1OM",
    "name": "Магазин за строителни, ВИК и електро материали - Оряхово",
    "category": "Магазин за строителни, ВИК и електро материали - Оряхово",
    "formatted_address": "Магазин за строителни, ВИК и електро материали - Оряхово",
    "phone_number": "+359878675562",
    "source_url": "https://www.google.com/maps/place/%D0%9C%D0%B0%D0%B3%D0%B0%D0%B7%D0%B8%D0%BD+%D0%B7%D0%B0+%D1%81%D1%82%D1%80%D0%BE%D0%B8%D1%82%D0%B5%D0%BB%D0%BD%D0%B8,+%D0%92%D0%98%D0%9A+%D0%B8+%D0%B5%D0%BB%D0%B5%D0%BA%D1%82%D1%80%D0%BE+%D0%BC%D0%B0%D1%82%D0%B5%D1%80%D0%B8%D0%B0%D0%BB%D0%B8+-+%D0%9E%D1%80%D1%8F%D1%85%D0%BE%D0%B2%D0%BE/data=!4m7!3m6!1s0x40aca32e09781e57:0xe3d4de079b6378d0!8m2!3d43.738186!4d23.9585068!16s%2Fg%2F11q24yhtkx!19sChIJVx54CS6jrEAR0Hhjmwfe1OM?authuser=0&hl=tr&rclk=1",
    "website_url": "",
    "rating_text": "5,0",
    "stars": null,
    "number_of_reviews": null,
    "price_level": "",
    "open_hours": "",
    "extraction_timestamp": "2025-06-07T15:11:35.007Z",
    "source_name": "google",
    "source_query": "Irrigation Equipment",
    "source_country": "BG",
    "country": "Bulgaria",
    "state": "Vratsa Province",
    "city": "Oryahovo"
  },
  {
    "source_id": "ChIJZdl2qXmirEARDwmonjR7ye4",
    "name": "ХРАНИТЕЛЕН МАГАЗИН CVETI COMMERCE",
    "category": "ХРАНИТЕЛЕН МАГАЗИН CVETI COMMERCE",
    "formatted_address": "4,1(161)",
    "phone_number": "+359877036969",
    "source_url": "https://www.google.com/maps/place/%D0%A5%D0%A0%D0%90%D0%9D%D0%98%D0%A2%D0%95%D0%9B%D0%95%D0%9D+%D0%9C%D0%90%D0%93%D0%90%D0%97%D0%98%D0%9D+CVETI+COMMERCE/data=!4m7!3m6!1s0x40aca279a976d965:0xeec97b349ea8090f!8m2!3d43.7358621!4d23.9602821!16s%2Fg%2F11ggs_ym5f!19sChIJZdl2qXmirEARDwmonjR7ye4?authuser=0&hl=tr&rclk=1",
    "website_url": "",
    "rating_text": "4,1",
    "stars": null,
    "number_of_reviews": null,
    "price_level": "",
    "open_hours": "",
    "extraction_timestamp": "2025-06-07T15:11:35.031Z",
    "source_name": "google",
    "source_query": "Irrigation Equipment",
    "source_country": "BG",
    "country": "Bulgaria",
    "state": "Vratsa Province",
    "city": "Oryahovo"
  },
  {
    "source_id": "ChIJ85galgoZq0AR960gPuJzhBE",
    "name": "МИРЕН 07 ЕООД",
    "category": "МИРЕН 07 ЕООД",
    "formatted_address": "5,0(9)",
    "phone_number": "+359888007588",
    "source_url": "https://www.google.com/maps/place/%D0%9C%D0%98%D0%A0%D0%95%D0%9D+07+%D0%95%D0%9E%D0%9E%D0%94/data=!4m7!3m6!1s0x40ab190a961a98f3:0x118473e23e20adf7!8m2!3d43.2084473!4d23.5483263!16s%2Fg%2F11lv7gmrf_!19sChIJ85galgoZq0AR960gPuJzhBE?authuser=0&hl=tr&rclk=1",
    "website_url": "",
    "rating_text": "5,0",
    "stars": null,
    "number_of_reviews": null,
    "price_level": "",
    "open_hours": "",
    "extraction_timestamp": "2025-06-07T15:11:35.034Z",
    "source_name": "google",
    "source_query": "Irrigation Equipment",
    "source_country": "BG",
    "country": "Bulgaria",
    "state": "Vratsa Province",
    "city": "Oryahovo"
  },
  {
    "source_id": "ChIJLQCyO4qjrEARa8oHgI5VdP8",
    "name": "Хранителен магазин \"Томи\"",
    "category": "Хранителен магазин \"Томи\"",
    "formatted_address": "3,7(3)",
    "phone_number": "+35991712401",
    "source_url": "https://www.google.com/maps/place/%D0%A5%D1%80%D0%B0%D0%BD%D0%B8%D1%82%D0%B5%D0%BB%D0%B5%D0%BD+%D0%BC%D0%B0%D0%B3%D0%B0%D0%B7%D0%B8%D0%BD+%22%D0%A2%D0%BE%D0%BC%D0%B8%22/data=!4m7!3m6!1s0x40aca38a3bb2002d:0xff74558e8007ca6b!8m2!3d43.7295758!4d23.9512004!16s%2Fg%2F11h9pdfsnl!19sChIJLQCyO4qjrEARa8oHgI5VdP8?authuser=0&hl=tr&rclk=1",
    "website_url": "",
    "rating_text": "3,7",
    "stars": null,
    "number_of_reviews": null,
    "price_level": "",
    "open_hours": "",
    "extraction_timestamp": "2025-06-07T15:11:35.035Z",
    "source_name": "google",
    "source_query": "Irrigation Equipment",
    "source_country": "BG",
    "country": "Bulgaria",
    "state": "Vratsa Province",
    "city": "Oryahovo"
  },
  {
    "source_id": "ChIJbbdFm74Zq0AROf38NUPzryQ",
    "name": "Water BG - Сондажи и Хидрогеоложки проучвания Враца",
    "category": "Water BG - Сондажи и Хидрогеоложки проучвания Враца",
    "formatted_address": "5,0(1)",
    "phone_number": "+359876778357",
    "source_url": "https://www.google.com/maps/place/Water+BG+-+%D0%A1%D0%BE%D0%BD%D0%B4%D0%B0%D0%B6%D0%B8+%D0%B8+%D0%A5%D0%B8%D0%B4%D1%80%D0%BE%D0%B3%D0%B5%D0%BE%D0%BB%D0%BE%D0%B6%D0%BA%D0%B8+%D0%BF%D1%80%D0%BE%D1%83%D1%87%D0%B2%D0%B0%D0%BD%D0%B8%D1%8F+%D0%92%D1%80%D0%B0%D1%86%D0%B0/data=!4m7!3m6!1s0x40ab19be9b45b76d:0x24aff34335fcfd39!8m2!3d43.2256122!4d23.5438669!16s%2Fg%2F11qq36y9_1!19sChIJbbdFm74Zq0AROf38NUPzryQ?authuser=0&hl=tr&rclk=1",
    "website_url": "",
    "rating_text": "5,0",
    "stars": null,
    "number_of_reviews": null,
    "price_level": "",
    "open_hours": "",
    "extraction_timestamp": "2025-06-07T15:11:35.036Z",
    "source_name": "google",
    "source_query": "Irrigation Equipment",
    "source_country": "BG",
    "country": "Bulgaria",
    "state": "Vratsa Province",
    "city": "Oryahovo"
  },
  {
    "source_id": "ChIJceqv6MuEqkAR45AXk38sGOE",
    "name": "Irrigation Systems",
    "category": "Irrigation Systems",
    "formatted_address": "4,4(10)",
    "phone_number": "+35928085001",
    "source_url": "https://www.google.com/maps/place/Irrigation+Systems/data=!4m7!3m6!1s0x40aa84cbe8afea71:0xe1182c7f931790e3!8m2!3d42.6700035!4d23.2681798!16s%2Fg%2F1thtbmsl!19sChIJceqv6MuEqkAR45AXk38sGOE?authuser=0&hl=tr&rclk=1",
    "website_url": "",
    "rating_text": "4,4",
    "stars": null,
    "number_of_reviews": null,
    "price_level": "",
    "open_hours": "",
    "extraction_timestamp": "2025-06-07T15:11:35.038Z",
    "source_name": "google",
    "source_query": "Irrigation Equipment",
    "source_country": "BG",
    "country": "Bulgaria",
    "state": "Vratsa Province",
    "city": "Oryahovo"
  },
  {
    "source_id": "ChIJn3chwfoYq0ARqYEZPmbMaZs",
    "name": "Construction of solar systems for hot water and electricity",
    "category": "Construction of solar systems for hot water and electricity",
    "formatted_address": "4,0(5)",
    "phone_number": "+359878686815",
    "source_url": "https://www.google.com/maps/place/Construction+of+solar+systems+for+hot+water+and+electricity/data=!4m7!3m6!1s0x40ab18fac121779f:0x9b69cc663e1981a9!8m2!3d43.2976889!4d23.6617497!16s%2Fg%2F11bt_lwpn3!19sChIJn3chwfoYq0ARqYEZPmbMaZs?authuser=0&hl=tr&rclk=1",
    "website_url": "",
    "rating_text": "4,0",
    "stars": null,
    "number_of_reviews": null,
    "price_level": "",
    "open_hours": "",
    "extraction_timestamp": "2025-06-07T15:11:35.039Z",
    "source_name": "google",
    "source_query": "Irrigation Equipment",
    "source_country": "BG",
    "country": "Bulgaria",
    "state": "Vratsa Province",
    "city": "Oryahovo"
  },
  {
    "source_id": "ChIJEw2OMYGDqkARxHFSeX0-D_I",
    "name": "RHINE SYSTEMS LTD Shop for irrigation systems, pumping equipment, plumbing and electrical materials",
    "category": "RHINE SYSTEMS LTD Shop for irrigation systems, pumping equipment, plumbing and electrical materials",
    "formatted_address": "RHINE SYSTEMS LTD Shop for irrigation systems, pumping equipment, plumbing and electrical materials",
    "phone_number": "+35924501010",
    "source_url": "https://www.google.com/maps/place/RHINE+SYSTEMS+LTD+Shop+for+irrigation+systems,+pumping+equipment,+plumbing+and+electrical+materials/data=!4m7!3m6!1s0x40aa8381318e0d13:0xf20f3e7d795271c4!8m2!3d42.6376675!4d23.2966491!16s%2Fg%2F11g8p3tdk_!19sChIJEw2OMYGDqkARxHFSeX0-D_I?authuser=0&hl=tr&rclk=1",
    "website_url": "",
    "rating_text": "4,3",
    "stars": null,
    "number_of_reviews": null,
    "price_level": "",
    "open_hours": "",
    "extraction_timestamp": "2025-06-07T15:11:35.042Z",
    "source_name": "google",
    "source_query": "Irrigation Equipment",
    "source_country": "BG",
    "country": "Bulgaria",
    "state": "Vratsa Province",
    "city": "Oryahovo"
  },
  {
    "source_id": "ChIJn24eTuYYq0ARVNV2aGxbi9A",
    "name": "Irrigation Systems",
    "category": "Irrigation Systems",
    "formatted_address": "2,0(3)",
    "phone_number": "+35992653044",
    "source_url": "https://www.google.com/maps/place/Irrigation+Systems/data=!4m7!3m6!1s0x40ab18e64e1e6e9f:0xd08b5b6c6876d554!8m2!3d43.208899!4d23.5464445!16s%2Fg%2F11gz6900p!19sChIJn24eTuYYq0ARVNV2aGxbi9A?authuser=0&hl=tr&rclk=1",
    "website_url": "https://nps.bg/%D0%BA%D0%BB%D0%BE%D0%BD-%D0%BC%D0%B8%D0%B7%D0%B8%D1%8F/",
    "rating_text": "2,0",
    "stars": null,
    "number_of_reviews": null,
    "price_level": "",
    "open_hours": "",
    "extraction_timestamp": "2025-06-07T15:11:43.618Z",
    "source_name": "google",
    "source_query": "Irrigation Equipment",
    "source_country": "BG",
    "country": "Bulgaria",
    "state": "Vratsa Province",
    "city": "Obshtina Mezdra"
  },
  {
    "source_id": "ChIJR-kxCloDq0ARTDcd9xvHZdA",
    "name": "Железария Тениди",
    "category": "Железария Тениди",
    "formatted_address": "4,4(34)",
    "phone_number": "",
    "source_url": "https://www.google.com/maps/place/%D0%96%D0%B5%D0%BB%D0%B5%D0%B7%D0%B0%D1%80%D0%B8%D1%8F+%D0%A2%D0%B5%D0%BD%D0%B8%D0%B4%D0%B8/data=!4m7!3m6!1s0x40ab035a0a31e947:0xd065c71bf71d374c!8m2!3d43.1422181!4d23.7113673!16s%2Fg%2F11n_wmc730!19sChIJR-kxCloDq0ARTDcd9xvHZdA?authuser=0&hl=tr&rclk=1",
    "website_url": "",
    "rating_text": "4,4",
    "stars": null,
    "number_of_reviews": null,
    "price_level": "",
    "open_hours": "",
    "extraction_timestamp": "2025-06-07T15:11:43.618Z",
    "source_name": "google",
    "source_query": "Irrigation Equipment",
    "source_country": "BG",
    "country": "Bulgaria",
    "state": "Vratsa Province",
    "city": "Obshtina Mezdra"
  },
  {
    "source_id": "ChIJ85galgoZq0AR960gPuJzhBE",
    "name": "МИРЕН 07 ЕООД",
    "category": "МИРЕН 07 ЕООД",
    "formatted_address": "5,0(9)",
    "phone_number": "+359888007588",
    "source_url": "https://www.google.com/maps/place/%D0%9C%D0%98%D0%A0%D0%95%D0%9D+07+%D0%95%D0%9E%D0%9E%D0%94/data=!4m7!3m6!1s0x40ab190a961a98f3:0x118473e23e20adf7!8m2!3d43.2084473!4d23.5483263!16s%2Fg%2F11lv7gmrf_!19sChIJ85galgoZq0AR960gPuJzhBE?authuser=0&hl=tr&rclk=1",
    "website_url": "",
    "rating_text": "5,0",
    "stars": null,
    "number_of_reviews": null,
    "price_level": "",
    "open_hours": "",
    "extraction_timestamp": "2025-06-07T15:11:43.619Z",
    "source_name": "google",
    "source_query": "Irrigation Equipment",
    "source_country": "BG",
    "country": "Bulgaria",
    "state": "Vratsa Province",
    "city": "Obshtina Mezdra"
  },
  {
    "source_id": "ChIJn6KBuFoZq0ARnppIwt9eoQ4",
    "name": "Нелбо АД гр. Враца",
    "category": "Нелбо АД гр. Враца",
    "formatted_address": "4,8(25)",
    "phone_number": "+359882925832",
    "source_url": "https://www.google.com/maps/place/%D0%9D%D0%B5%D0%BB%D0%B1%D0%BE+%D0%90%D0%94+%D0%B3%D1%80.+%D0%92%D1%80%D0%B0%D1%86%D0%B0/data=!4m7!3m6!1s0x40ab195ab881a29f:0xea15edfc2489a9e!8m2!3d43.2035763!4d23.5550292!16s%2Fg%2F11pylk4bwc!19sChIJn6KBuFoZq0ARnppIwt9eoQ4?authuser=0&hl=tr&rclk=1",
    "website_url": "http://www.nelbo.com/",
    "rating_text": "4,8",
    "stars": null,
    "number_of_reviews": null,
    "price_level": "",
    "open_hours": "",
    "extraction_timestamp": "2025-06-07T15:11:43.620Z",
    "source_name": "google",
    "source_query": "Irrigation Equipment",
    "source_country": "BG",
    "country": "Bulgaria",
    "state": "Vratsa Province",
    "city": "Obshtina Mezdra"
  },
  {
    "source_id": "ChIJzxAVmGgDq0ARntcnSmb9n1Y",
    "name": "Supermarket \"Ariel\"",
    "category": "Supermarket \"Ariel\"",
    "formatted_address": "3,8(752)",
    "phone_number": "+359886906997",
    "source_url": "https://www.google.com/maps/place/Supermarket+%22Ariel%22/data=!4m7!3m6!1s0x40ab0368981510cf:0x569ffd664a27d79e!8m2!3d43.1421428!4d23.7067976!16s%2Fg%2F11c59xcxmj!19sChIJzxAVmGgDq0ARntcnSmb9n1Y?authuser=0&hl=tr&rclk=1",
    "website_url": "",
    "rating_text": "3,8",
    "stars": null,
    "number_of_reviews": null,
    "price_level": "",
    "open_hours": "",
    "extraction_timestamp": "2025-06-07T15:11:43.621Z",
    "source_name": "google",
    "source_query": "Irrigation Equipment",
    "source_country": "BG",
    "country": "Bulgaria",
    "state": "Vratsa Province",
    "city": "Obshtina Mezdra"
  },
  {
    "source_id": "ChIJj_ZEE7QZq0AR7OU92WI7bYk",
    "name": "Практикер Враца",
    "category": "Практикер Враца",
    "formatted_address": "4,4(616)",
    "phone_number": "+35992920000",
    "source_url": "https://www.google.com/maps/place/%D0%9F%D1%80%D0%B0%D0%BA%D1%82%D0%B8%D0%BA%D0%B5%D1%80+%D0%92%D1%80%D0%B0%D1%86%D0%B0/data=!4m7!3m6!1s0x40ab19b41344f68f:0x896d3b62d93de5ec!8m2!3d43.187302!4d23.5798365!16s%2Fg%2F11fjvvw0vh!19sChIJj_ZEE7QZq0AR7OU92WI7bYk?authuser=0&hl=tr&rclk=1",
    "website_url": "http://www.praktiker.bg/",
    "rating_text": "4,4",
    "stars": null,
    "number_of_reviews": null,
    "price_level": "",
    "open_hours": "",
    "extraction_timestamp": "2025-06-07T15:11:43.623Z",
    "source_name": "google",
    "source_query": "Irrigation Equipment",
    "source_country": "BG",
    "country": "Bulgaria",
    "state": "Vratsa Province",
    "city": "Obshtina Mezdra"
  },
  {
    "source_id": "ChIJL6_tzjIEq0AR1pG3svksXmg",
    "name": "Biogaz Station",
    "category": "Biogaz Station",
    "formatted_address": "4,5(13)",
    "phone_number": "",
    "source_url": "https://www.google.com/maps/place/Biogaz+Station/data=!4m7!3m6!1s0x40ab0432ceedaf2f:0x685e2cf9b2b791d6!8m2!3d43.1699681!4d23.795864!16s%2Fg%2F11c56bfnhp!19sChIJL6_tzjIEq0AR1pG3svksXmg?authuser=0&hl=tr&rclk=1",
    "website_url": "",
    "rating_text": "4,5",
    "stars": null,
    "number_of_reviews": null,
    "price_level": "",
    "open_hours": "",
    "extraction_timestamp": "2025-06-07T15:11:43.623Z",
    "source_name": "google",
    "source_query": "Irrigation Equipment",
    "source_country": "BG",
    "country": "Bulgaria",
    "state": "Vratsa Province",
    "city": "Obshtina Mezdra"
  },
  {
    "source_id": "ChIJ3yNvfPAYq0AR2vQ9-uxEDbw",
    "name": "Ineks Trade",
    "category": "Ineks Trade",
    "formatted_address": "4,5(225)",
    "phone_number": "+359878111297",
    "source_url": "https://www.google.com/maps/place/Ineks+Trade/data=!4m7!3m6!1s0x40ab18f07c6f23df:0xbc0d44ecfa3df4da!8m2!3d43.1960156!4d23.5735487!16s%2Fg%2F1vn9mlcb!19sChIJ3yNvfPAYq0AR2vQ9-uxEDbw?authuser=0&hl=tr&rclk=1",
    "website_url": "http://www.inex-bg.com/",
    "rating_text": "4,5",
    "stars": null,
    "number_of_reviews": null,
    "price_level": "",
    "open_hours": "",
    "extraction_timestamp": "2025-06-07T15:11:43.625Z",
    "source_name": "google",
    "source_query": "Irrigation Equipment",
    "source_country": "BG",
    "country": "Bulgaria",
    "state": "Vratsa Province",
    "city": "Obshtina Mezdra"
  },
  {
    "source_id": "ChIJ2Z_2mWgDq0ARlyZ0QoYbyr0",
    "name": "Cooperative market",
    "category": "Cooperative market",
    "formatted_address": "4,0(153)",
    "phone_number": "",
    "source_url": "https://www.google.com/maps/place/Cooperative+market/data=!4m7!3m6!1s0x40ab036899f69fd9:0xbdca1b8642742697!8m2!3d43.1427365!4d23.7052071!16s%2Fg%2F11g9q87s19!19sChIJ2Z_2mWgDq0ARlyZ0QoYbyr0?authuser=0&hl=tr&rclk=1",
    "website_url": "",
    "rating_text": "4,0",
    "stars": null,
    "number_of_reviews": null,
    "price_level": "",
    "open_hours": "",
    "extraction_timestamp": "2025-06-07T15:11:43.626Z",
    "source_name": "google",
    "source_query": "Irrigation Equipment",
    "source_country": "BG",
    "country": "Bulgaria",
    "state": "Vratsa Province",
    "city": "Obshtina Mezdra"
  },
  {
    "source_id": "ChIJQUnSkfQYq0ARB2LmFQpclI8",
    "name": "Air would Elite - Irrigation systems",
    "category": "Air would Elite - Irrigation systems",
    "formatted_address": "4,1(12)",
    "phone_number": "+359885501062",
    "source_url": "https://www.google.com/maps/place/Air+would+Elite+-+Irrigation+systems/data=!4m7!3m6!1s0x40ab18f491d24941:0x8f945c0a15e66207!8m2!3d43.221658!4d23.543052!16s%2Fg%2F11b6znk1yh!19sChIJQUnSkfQYq0ARB2LmFQpclI8?authuser=0&hl=tr&rclk=1",
    "website_url": "http://rbvratsa.business.bg/",
    "rating_text": "4,1",
    "stars": null,
    "number_of_reviews": null,
    "price_level": "",
    "open_hours": "",
    "extraction_timestamp": "2025-06-07T15:11:43.627Z",
    "source_name": "google",
    "source_query": "Irrigation Equipment",
    "source_country": "BG",
    "country": "Bulgaria",
    "state": "Vratsa Province",
    "city": "Obshtina Mezdra"
  },
  {
    "source_id": "ChIJp_7C5qUDq0ARF6gw4TLC5x0",
    "name": "Строителен магазин \"Измайстори САМ\"",
    "category": "Строителен магазин \"Измайстори САМ\"",
    "formatted_address": "4,0(4)",
    "phone_number": "+359894787427",
    "source_url": "https://www.google.com/maps/place/%D0%A1%D1%82%D1%80%D0%BE%D0%B8%D1%82%D0%B5%D0%BB%D0%B5%D0%BD+%D0%BC%D0%B0%D0%B3%D0%B0%D0%B7%D0%B8%D0%BD+%22%D0%98%D0%B7%D0%BC%D0%B0%D0%B9%D1%81%D1%82%D0%BE%D1%80%D0%B8+%D0%A1%D0%90%D0%9C%22/data=!4m7!3m6!1s0x40ab03a5e6c2fea7:0x1de7c232e130a817!8m2!3d43.1471645!4d23.7187646!16s%2Fg%2F11spq_k556!19sChIJp_7C5qUDq0ARF6gw4TLC5x0?authuser=0&hl=tr&rclk=1",
    "website_url": "https://monky.bg/listing/magazin-izmaistori-sam-materiali-i-instrumenti-grad-mezdra/",
    "rating_text": "4,0",
    "stars": null,
    "number_of_reviews": null,
    "price_level": "",
    "open_hours": "",
    "extraction_timestamp": "2025-06-07T15:11:43.628Z",
    "source_name": "google",
    "source_query": "Irrigation Equipment",
    "source_country": "BG",
    "country": "Bulgaria",
    "state": "Vratsa Province",
    "city": "Obshtina Mezdra"
  },
  {
    "source_id": "ChIJbbdFm74Zq0AROf38NUPzryQ",
    "name": "Water BG - Сондажи и Хидрогеоложки проучвания Враца",
    "category": "Water BG - Сондажи и Хидрогеоложки проучвания Враца",
    "formatted_address": "5,0(1)",
    "phone_number": "+359876778357",
    "source_url": "https://www.google.com/maps/place/Water+BG+-+%D0%A1%D0%BE%D0%BD%D0%B4%D0%B0%D0%B6%D0%B8+%D0%B8+%D0%A5%D0%B8%D0%B4%D1%80%D0%BE%D0%B3%D0%B5%D0%BE%D0%BB%D0%BE%D0%B6%D0%BA%D0%B8+%D0%BF%D1%80%D0%BE%D1%83%D1%87%D0%B2%D0%B0%D0%BD%D0%B8%D1%8F+%D0%92%D1%80%D0%B0%D1%86%D0%B0/data=!4m7!3m6!1s0x40ab19be9b45b76d:0x24aff34335fcfd39!8m2!3d43.2256122!4d23.5438669!16s%2Fg%2F11qq36y9_1!19sChIJbbdFm74Zq0AROf38NUPzryQ?authuser=0&hl=tr&rclk=1",
    "website_url": "https://waterbg.net/",
    "rating_text": "5,0",
    "stars": null,
    "number_of_reviews": null,
    "price_level": "",
    "open_hours": "",
    "extraction_timestamp": "2025-06-07T15:11:43.629Z",
    "source_name": "google",
    "source_query": "Irrigation Equipment",
    "source_country": "BG",
    "country": "Bulgaria",
    "state": "Vratsa Province",
    "city": "Obshtina Mezdra"
  },
  {
    "source_id": "ChIJuxCfjNgYq0AR8tPYQXT888Q",
    "name": "Sigmaterm Injenering",
    "category": "Sigmaterm Injenering",
    "formatted_address": "4,5(56)",
    "phone_number": "+35992660593",
    "source_url": "https://www.google.com/maps/place/Sigmaterm+Injenering/data=!4m7!3m6!1s0x40ab18d88c9f10bb:0xc4f3fc7441d8d3f2!8m2!3d43.209864!4d23.5670652!16s%2Fg%2F1tdvhp01!19sChIJuxCfjNgYq0AR8tPYQXT888Q?authuser=0&hl=tr&rclk=1",
    "website_url": "http://www.domestico.bg/",
    "rating_text": "4,5",
    "stars": null,
    "number_of_reviews": null,
    "price_level": "",
    "open_hours": "",
    "extraction_timestamp": "2025-06-07T15:11:43.630Z",
    "source_name": "google",
    "source_query": "Irrigation Equipment",
    "source_country": "BG",
    "country": "Bulgaria",
    "state": "Vratsa Province",
    "city": "Obshtina Mezdra"
  },
  {
    "source_id": "ChIJa6oW2-8Yq0AR050NUA1cPtM",
    "name": "Rayski Tsvyat - 91",
    "category": "Rayski Tsvyat - 91",
    "formatted_address": "4,0(58)",
    "phone_number": "+359878503618",
    "source_url": "https://www.google.com/maps/place/Rayski+Tsvyat+-+91/data=!4m7!3m6!1s0x40ab18efdb16aa6b:0xd33e5c0d500d9dd3!8m2!3d43.2146091!4d23.5464462!16s%2Fg%2F1hdzlqbg5!19sChIJa6oW2-8Yq0AR050NUA1cPtM?authuser=0&hl=tr&rclk=1",
    "website_url": "",
    "rating_text": "4,0",
    "stars": null,
    "number_of_reviews": null,
    "price_level": "",
    "open_hours": "",
    "extraction_timestamp": "2025-06-07T15:11:43.631Z",
    "source_name": "google",
    "source_query": "Irrigation Equipment",
    "source_country": "BG",
    "country": "Bulgaria",
    "state": "Vratsa Province",
    "city": "Obshtina Mezdra"
  },
  {
    "source_id": "ChIJkybxTVsZq0ARPRMqfIaDQz8",
    "name": "ХРАНИТЕЛ МАГАЗИН ТИР ПАРКИНГ ВРАЦА",
    "category": "ХРАНИТЕЛ МАГАЗИН ТИР ПАРКИНГ ВРАЦА",
    "formatted_address": "4,5(132)",
    "phone_number": "+359888407350",
    "source_url": "https://www.google.com/maps/place/%D0%A5%D0%A0%D0%90%D0%9D%D0%98%D0%A2%D0%95%D0%9B+%D0%9C%D0%90%D0%93%D0%90%D0%97%D0%98%D0%9D+%D0%A2%D0%98%D0%A0+%D0%9F%D0%90%D0%A0%D0%9A%D0%98%D0%9D%D0%93+%D0%92%D0%A0%D0%90%D0%A6%D0%90/data=!4m7!3m6!1s0x40ab195b4df12693:0x3f4383867c2a133d!8m2!3d43.1877335!4d23.59697!16s%2Fg%2F11q21dv3fz!19sChIJkybxTVsZq0ARPRMqfIaDQz8?authuser=0&hl=tr&rclk=1",
    "website_url": "",
    "rating_text": "4,5",
    "stars": null,
    "number_of_reviews": null,
    "price_level": "",
    "open_hours": "",
    "extraction_timestamp": "2025-06-07T15:11:43.632Z",
    "source_name": "google",
    "source_query": "Irrigation Equipment",
    "source_country": "BG",
    "country": "Bulgaria",
    "state": "Vratsa Province",
    "city": "Obshtina Mezdra"
  },
  {
    "source_id": "ChIJ7xLKxhsZq0ARy5Oq_RuUARM",
    "name": "Топливо АД - склад Враца",
    "category": "Топливо АД - склад Враца",
    "formatted_address": "4,3(26)",
    "phone_number": "+359884704969",
    "source_url": "https://www.google.com/maps/place/%D0%A2%D0%BE%D0%BF%D0%BB%D0%B8%D0%B2%D0%BE+%D0%90%D0%94+-+%D1%81%D0%BA%D0%BB%D0%B0%D0%B4+%D0%92%D1%80%D0%B0%D1%86%D0%B0/data=!4m7!3m6!1s0x40ab191bc6ca12ef:0x1301941bfdaa93cb!8m2!3d43.2073899!4d23.566221!16s%2Fg%2F1q62kkcff!19sChIJ7xLKxhsZq0ARy5Oq_RuUARM?authuser=0&hl=tr&rclk=1",
    "website_url": "https://toplivo.bg/kontakti/Sklad-Vraca",
    "rating_text": "4,3",
    "stars": null,
    "number_of_reviews": null,
    "price_level": "",
    "open_hours": "",
    "extraction_timestamp": "2025-06-07T15:11:43.633Z",
    "source_name": "google",
    "source_query": "Irrigation Equipment",
    "source_country": "BG",
    "country": "Bulgaria",
    "state": "Vratsa Province",
    "city": "Obshtina Mezdra"
  },
  {
    "source_id": "ChIJC3IJ1X0Dq0ARU7evIcx9m9A",
    "name": "Marty-bike",
    "category": "Marty-bike",
    "formatted_address": "5,0(7)",
    "phone_number": "+359876066617",
    "source_url": "https://www.google.com/maps/place/Marty-bike/data=!4m7!3m6!1s0x40ab037dd509720b:0xd09b7dcc21afb753!8m2!3d43.1456889!4d23.7261415!16s%2Fg%2F11c5wjphkl!19sChIJC3IJ1X0Dq0ARU7evIcx9m9A?authuser=0&hl=tr&rclk=1",
    "website_url": "",
    "rating_text": "5,0",
    "stars": null,
    "number_of_reviews": null,
    "price_level": "",
    "open_hours": "",
    "extraction_timestamp": "2025-06-07T15:11:43.634Z",
    "source_name": "google",
    "source_query": "Irrigation Equipment",
    "source_country": "BG",
    "country": "Bulgaria",
    "state": "Vratsa Province",
    "city": "Obshtina Mezdra"
  },
  {
    "source_id": "ChIJn3chwfoYq0ARqYEZPmbMaZs",
    "name": "Construction of solar systems for hot water and electricity",
    "category": "Construction of solar systems for hot water and electricity",
    "formatted_address": "4,0(5)",
    "phone_number": "+359878686815",
    "source_url": "https://www.google.com/maps/place/Construction+of+solar+systems+for+hot+water+and+electricity/data=!4m7!3m6!1s0x40ab18fac121779f:0x9b69cc663e1981a9!8m2!3d43.2976889!4d23.6617497!16s%2Fg%2F11bt_lwpn3!19sChIJn3chwfoYq0ARqYEZPmbMaZs?authuser=0&hl=tr&rclk=1",
    "website_url": "",
    "rating_text": "4,0",
    "stars": null,
    "number_of_reviews": null,
    "price_level": "",
    "open_hours": "",
    "extraction_timestamp": "2025-06-07T15:11:43.635Z",
    "source_name": "google",
    "source_query": "Irrigation Equipment",
    "source_country": "BG",
    "country": "Bulgaria",
    "state": "Vratsa Province",
    "city": "Obshtina Mezdra"
  },
  {
    "source_id": "ChIJ85galgoZq0AR960gPuJzhBE",
    "name": "МИРЕН 07 ЕООД",
    "category": "МИРЕН 07 ЕООД",
    "formatted_address": "5,0(9)",
    "phone_number": "+359888007588",
    "source_url": "https://www.google.com/maps/place/%D0%9C%D0%98%D0%A0%D0%95%D0%9D+07+%D0%95%D0%9E%D0%9E%D0%94/data=!4m7!3m6!1s0x40ab190a961a98f3:0x118473e23e20adf7!8m2!3d43.2084473!4d23.5483263!16s%2Fg%2F11lv7gmrf_!19sChIJ85galgoZq0AR960gPuJzhBE?authuser=0&hl=tr&rclk=1",
    "website_url": "",
    "rating_text": "5,0",
    "stars": null,
    "number_of_reviews": null,
    "price_level": "",
    "open_hours": "",
    "extraction_timestamp": "2025-06-07T15:11:52.103Z",
    "source_name": "google",
    "source_query": "Irrigation Equipment",
    "source_country": "BG",
    "country": "Bulgaria",
    "state": "Vratsa Province",
    "city": "Borovan"
  },
  {
    "source_id": "ChIJn24eTuYYq0ARVNV2aGxbi9A",
    "name": "Irrigation Systems",
    "category": "Irrigation Systems",
    "formatted_address": "2,0(3)",
    "phone_number": "+35992653044",
    "source_url": "https://www.google.com/maps/place/Irrigation+Systems/data=!4m7!3m6!1s0x40ab18e64e1e6e9f:0xd08b5b6c6876d554!8m2!3d43.208899!4d23.5464445!16s%2Fg%2F11gz6900p!19sChIJn24eTuYYq0ARVNV2aGxbi9A?authuser=0&hl=tr&rclk=1",
    "website_url": "https://nps.bg/%D0%BA%D0%BB%D0%BE%D0%BD-%D0%BC%D0%B8%D0%B7%D0%B8%D1%8F/",
    "rating_text": "2,0",
    "stars": null,
    "number_of_reviews": null,
    "price_level": "",
    "open_hours": "",
    "extraction_timestamp": "2025-06-07T15:11:52.103Z",
    "source_name": "google",
    "source_query": "Irrigation Equipment",
    "source_country": "BG",
    "country": "Bulgaria",
    "state": "Vratsa Province",
    "city": "Borovan"
  },
  {
    "source_id": "ChIJbbdFm74Zq0AROf38NUPzryQ",
    "name": "Water BG - Сондажи и Хидрогеоложки проучвания Враца",
    "category": "Water BG - Сондажи и Хидрогеоложки проучвания Враца",
    "formatted_address": "5,0(1)",
    "phone_number": "+359876778357",
    "source_url": "https://www.google.com/maps/place/Water+BG+-+%D0%A1%D0%BE%D0%BD%D0%B4%D0%B0%D0%B6%D0%B8+%D0%B8+%D0%A5%D0%B8%D0%B4%D1%80%D0%BE%D0%B3%D0%B5%D0%BE%D0%BB%D0%BE%D0%B6%D0%BA%D0%B8+%D0%BF%D1%80%D0%BE%D1%83%D1%87%D0%B2%D0%B0%D0%BD%D0%B8%D1%8F+%D0%92%D1%80%D0%B0%D1%86%D0%B0/data=!4m7!3m6!1s0x40ab19be9b45b76d:0x24aff34335fcfd39!8m2!3d43.2256122!4d23.5438669!16s%2Fg%2F11qq36y9_1!19sChIJbbdFm74Zq0AROf38NUPzryQ?authuser=0&hl=tr&rclk=1",
    "website_url": "https://waterbg.net/",
    "rating_text": "5,0",
    "stars": null,
    "number_of_reviews": null,
    "price_level": "",
    "open_hours": "",
    "extraction_timestamp": "2025-06-07T15:11:52.104Z",
    "source_name": "google",
    "source_query": "Irrigation Equipment",
    "source_country": "BG",
    "country": "Bulgaria",
    "state": "Vratsa Province",
    "city": "Borovan"
  },
  {
    "source_id": "ChIJlTl-Cx0Zq0ARFZhlJmM_d18",
    "name": "Georadarbg.com - Проучване И Откриване На Вода За Сондаж",
    "category": "Georadarbg.com - Проучване И Откриване На Вода За Сондаж",
    "formatted_address": "5,0(1)",
    "phone_number": "+359877818331",
    "source_url": "https://www.google.com/maps/place/Georadarbg.com+-+%D0%9F%D1%80%D0%BE%D1%83%D1%87%D0%B2%D0%B0%D0%BD%D0%B5+%D0%98+%D0%9E%D1%82%D0%BA%D1%80%D0%B8%D0%B2%D0%B0%D0%BD%D0%B5+%D0%9D%D0%B0+%D0%92%D0%BE%D0%B4%D0%B0+%D0%97%D0%B0+%D0%A1%D0%BE%D0%BD%D0%B4%D0%B0%D0%B6/data=!4m7!3m6!1s0x40ab191d0b7e3995:0x5f773f6326659815!8m2!3d43.2031771!4d23.5492707!16s%2Fg%2F11wn5bdmn2!19sChIJlTl-Cx0Zq0ARFZhlJmM_d18?authuser=0&hl=tr&rclk=1",
    "website_url": "https://georadarbg.com/",
    "rating_text": "5,0",
    "stars": null,
    "number_of_reviews": null,
    "price_level": "",
    "open_hours": "",
    "extraction_timestamp": "2025-06-07T15:11:52.104Z",
    "source_name": "google",
    "source_query": "Irrigation Equipment",
    "source_country": "BG",
    "country": "Bulgaria",
    "state": "Vratsa Province",
    "city": "Borovan"
  },
  {
    "source_id": "ChIJn3chwfoYq0ARqYEZPmbMaZs",
    "name": "Construction of solar systems for hot water and electricity",
    "category": "Construction of solar systems for hot water and electricity",
    "formatted_address": "4,0(5)",
    "phone_number": "+359878686815",
    "source_url": "https://www.google.com/maps/place/Construction+of+solar+systems+for+hot+water+and+electricity/data=!4m7!3m6!1s0x40ab18fac121779f:0x9b69cc663e1981a9!8m2!3d43.2976889!4d23.6617497!16s%2Fg%2F11bt_lwpn3!19sChIJn3chwfoYq0ARqYEZPmbMaZs?authuser=0&hl=tr&rclk=1",
    "website_url": "",
    "rating_text": "4,0",
    "stars": null,
    "number_of_reviews": null,
    "price_level": "",
    "open_hours": "",
    "extraction_timestamp": "2025-06-07T15:11:52.104Z",
    "source_name": "google",
    "source_query": "Irrigation Equipment",
    "source_country": "BG",
    "country": "Bulgaria",
    "state": "Vratsa Province",
    "city": "Borovan"
  },
  {
    "source_id": "ChIJn24eTuYYq0ARVNV2aGxbi9A",
    "name": "Irrigation Systems",
    "category": "Irrigation Systems",
    "formatted_address": "2,0(3)",
    "phone_number": "+35992653044",
    "source_url": "https://www.google.com/maps/place/Irrigation+Systems/data=!4m7!3m6!1s0x40ab18e64e1e6e9f:0xd08b5b6c6876d554!8m2!3d43.208899!4d23.5464445!16s%2Fg%2F11gz6900p!19sChIJn24eTuYYq0ARVNV2aGxbi9A?authuser=0&hl=tr&rclk=1",
    "website_url": "https://nps.bg/%D0%BA%D0%BB%D0%BE%D0%BD-%D0%BC%D0%B8%D0%B7%D0%B8%D1%8F/",
    "rating_text": "2,0",
    "stars": null,
    "number_of_reviews": null,
    "price_level": "",
    "open_hours": "",
    "extraction_timestamp": "2025-06-07T15:12:28.342Z",
    "source_name": "google",
    "source_query": "Irrigation Equipment",
    "source_country": "BG",
    "country": "Bulgaria",
    "state": "Vratsa Province",
    "city": "Obshtina Mizia"
  },
  {
    "source_id": "ChIJ85galgoZq0AR960gPuJzhBE",
    "name": "МИРЕН 07 ЕООД",
    "category": "МИРЕН 07 ЕООД",
    "formatted_address": "5,0(9)",
    "phone_number": "+359888007588",
    "source_url": "https://www.google.com/maps/place/%D0%9C%D0%98%D0%A0%D0%95%D0%9D+07+%D0%95%D0%9E%D0%9E%D0%94/data=!4m7!3m6!1s0x40ab190a961a98f3:0x118473e23e20adf7!8m2!3d43.2084473!4d23.5483263!16s%2Fg%2F11lv7gmrf_!19sChIJ85galgoZq0AR960gPuJzhBE?authuser=0&hl=tr&rclk=1",
    "website_url": "",
    "rating_text": "5,0",
    "stars": null,
    "number_of_reviews": null,
    "price_level": "",
    "open_hours": "",
    "extraction_timestamp": "2025-06-07T15:12:28.345Z",
    "source_name": "google",
    "source_query": "Irrigation Equipment",
    "source_country": "BG",
    "country": "Bulgaria",
    "state": "Vratsa Province",
    "city": "Obshtina Mizia"
  },
  {
    "source_id": "ChIJbbdFm74Zq0AROf38NUPzryQ",
    "name": "Water BG - Сондажи и Хидрогеоложки проучвания Враца",
    "category": "Water BG - Сондажи и Хидрогеоложки проучвания Враца",
    "formatted_address": "5,0(1)",
    "phone_number": "+359876778357",
    "source_url": "https://www.google.com/maps/place/Water+BG+-+%D0%A1%D0%BE%D0%BD%D0%B4%D0%B0%D0%B6%D0%B8+%D0%B8+%D0%A5%D0%B8%D0%B4%D1%80%D0%BE%D0%B3%D0%B5%D0%BE%D0%BB%D0%BE%D0%B6%D0%BA%D0%B8+%D0%BF%D1%80%D0%BE%D1%83%D1%87%D0%B2%D0%B0%D0%BD%D0%B8%D1%8F+%D0%92%D1%80%D0%B0%D1%86%D0%B0/data=!4m7!3m6!1s0x40ab19be9b45b76d:0x24aff34335fcfd39!8m2!3d43.2256122!4d23.5438669!16s%2Fg%2F11qq36y9_1!19sChIJbbdFm74Zq0AROf38NUPzryQ?authuser=0&hl=tr&rclk=1",
    "website_url": "https://waterbg.net/",
    "rating_text": "5,0",
    "stars": null,
    "number_of_reviews": null,
    "price_level": "",
    "open_hours": "",
    "extraction_timestamp": "2025-06-07T15:12:28.346Z",
    "source_name": "google",
    "source_query": "Irrigation Equipment",
    "source_country": "BG",
    "country": "Bulgaria",
    "state": "Vratsa Province",
    "city": "Obshtina Mizia"
  },
  {
    "source_id": "ChIJceqv6MuEqkAR45AXk38sGOE",
    "name": "Irrigation Systems",
    "category": "Irrigation Systems",
    "formatted_address": "4,4(10)",
    "phone_number": "+35928085001",
    "source_url": "https://www.google.com/maps/place/Irrigation+Systems/data=!4m7!3m6!1s0x40aa84cbe8afea71:0xe1182c7f931790e3!8m2!3d42.6700035!4d23.2681798!16s%2Fg%2F1thtbmsl!19sChIJceqv6MuEqkAR45AXk38sGOE?authuser=0&hl=tr&rclk=1",
    "website_url": "https://nps.bg/",
    "rating_text": "4,4",
    "stars": null,
    "number_of_reviews": null,
    "price_level": "",
    "open_hours": "",
    "extraction_timestamp": "2025-06-07T15:12:28.348Z",
    "source_name": "google",
    "source_query": "Irrigation Equipment",
    "source_country": "BG",
    "country": "Bulgaria",
    "state": "Vratsa Province",
    "city": "Obshtina Mizia"
  },
  {
    "source_id": "ChIJn3chwfoYq0ARqYEZPmbMaZs",
    "name": "Construction of solar systems for hot water and electricity",
    "category": "Construction of solar systems for hot water and electricity",
    "formatted_address": "4,0(5)",
    "phone_number": "+359878686815",
    "source_url": "https://www.google.com/maps/place/Construction+of+solar+systems+for+hot+water+and+electricity/data=!4m7!3m6!1s0x40ab18fac121779f:0x9b69cc663e1981a9!8m2!3d43.2976889!4d23.6617497!16s%2Fg%2F11bt_lwpn3!19sChIJn3chwfoYq0ARqYEZPmbMaZs?authuser=0&hl=tr&rclk=1",
    "website_url": "",
    "rating_text": "4,0",
    "stars": null,
    "number_of_reviews": null,
    "price_level": "",
    "open_hours": "",
    "extraction_timestamp": "2025-06-07T15:12:28.350Z",
    "source_name": "google",
    "source_query": "Irrigation Equipment",
    "source_country": "BG",
    "country": "Bulgaria",
    "state": "Vratsa Province",
    "city": "Obshtina Mizia"
  },
  {
    "source_id": "ChIJsYU6OH0Or0ARC3eRUz7FIsc",
    "name": "Напоителни Системи",
    "category": "Напоителни Системи",
    "formatted_address": "",
    "phone_number": "+359895843284",
    "source_url": "https://www.google.com/maps/place/%D0%9D%D0%B0%D0%BF%D0%BE%D0%B8%D1%82%D0%B5%D0%BB%D0%BD%D0%B8+%D0%A1%D0%B8%D1%81%D1%82%D0%B5%D0%BC%D0%B8/data=!4m7!3m6!1s0x40af0e7d383a85b1:0xc722c53e5391770b!8m2!3d43.5248284!4d26.5185956!16s%2Fg%2F11hyt13jl9!19sChIJsYU6OH0Or0ARC3eRUz7FIsc?authuser=0&hl=tr&rclk=1",
    "website_url": "http://www.napoitelnisystemi.eu/kontakti",
    "rating_text": "",
    "stars": null,
    "number_of_reviews": null,
    "price_level": "",
    "open_hours": "",
    "extraction_timestamp": "2025-06-07T15:12:28.351Z",
    "source_name": "google",
    "source_query": "Irrigation Equipment",
    "source_country": "BG",
    "country": "Bulgaria",
    "state": "Vratsa Province",
    "city": "Obshtina Mizia"
  },
  {
    "source_id": "ChIJEw2OMYGDqkARxHFSeX0-D_I",
    "name": "RHINE SYSTEMS LTD Shop for irrigation systems, pumping equipment, plumbing and electrical materials",
    "category": "RHINE SYSTEMS LTD Shop for irrigation systems, pumping equipment, plumbing and electrical materials",
    "formatted_address": "RHINE SYSTEMS LTD Shop for irrigation systems, pumping equipment, plumbing and electrical materials",
    "phone_number": "+35924501010",
    "source_url": "https://www.google.com/maps/place/RHINE+SYSTEMS+LTD+Shop+for+irrigation+systems,+pumping+equipment,+plumbing+and+electrical+materials/data=!4m7!3m6!1s0x40aa8381318e0d13:0xf20f3e7d795271c4!8m2!3d42.6376675!4d23.2966491!16s%2Fg%2F11g8p3tdk_!19sChIJEw2OMYGDqkARxHFSeX0-D_I?authuser=0&hl=tr&rclk=1",
    "website_url": "http://rainsystems.eu/",
    "rating_text": "4,3",
    "stars": null,
    "number_of_reviews": null,
    "price_level": "",
    "open_hours": "",
    "extraction_timestamp": "2025-06-07T15:12:28.352Z",
    "source_name": "google",
    "source_query": "Irrigation Equipment",
    "source_country": "BG",
    "country": "Bulgaria",
    "state": "Vratsa Province",
    "city": "Obshtina Mizia"
  },
  {
    "source_id": "ChIJ101maOcYq0ARUGjkWTS8f7A",
    "name": "Пожарогасители Враца ЕТ \"СИЯЯ-Борислав Митов\"",
    "category": "Пожарогасители Враца ЕТ \"СИЯЯ-Борислав Митов\"",
    "formatted_address": "5,0(6)",
    "phone_number": "+359888565055",
    "source_url": "https://www.google.com/maps/place/%D0%9F%D0%BE%D0%B6%D0%B0%D1%80%D0%BE%D0%B3%D0%B0%D1%81%D0%B8%D1%82%D0%B5%D0%BB%D0%B8+%D0%92%D1%80%D0%B0%D1%86%D0%B0+%D0%95%D0%A2+%22%D0%A1%D0%98%D0%AF%D0%AF-%D0%91%D0%BE%D1%80%D0%B8%D1%81%D0%BB%D0%B0%D0%B2+%D0%9C%D0%B8%D1%82%D0%BE%D0%B2%22/data=!4m7!3m6!1s0x40ab18e768664dd7:0xb07fbc3459e46850!8m2!3d43.206574!4d23.5468352!16s%2Fg%2F11f1213h8p!19sChIJ101maOcYq0ARUGjkWTS8f7A?authuser=0&hl=tr&rclk=1",
    "website_url": "",
    "rating_text": "5,0",
    "stars": null,
    "number_of_reviews": null,
    "price_level": "",
    "open_hours": "",
    "extraction_timestamp": "2025-06-07T15:12:28.354Z",
    "source_name": "google",
    "source_query": "Irrigation Equipment",
    "source_country": "BG",
    "country": "Bulgaria",
    "state": "Vratsa Province",
    "city": "Obshtina Mizia"
  },
  {
    "source_id": "ChIJH7V9RPEZq0ARe_VOqMv0n2s",
    "name": "Messer Bulgaria Ltd",
    "category": "Messer Bulgaria Ltd",
    "formatted_address": "Gaz Şirketi · Офис, Бистришко шосеKapalı ⋅ Açılış zamanı: Pzt 08:00 · +359 88 632 2889",
    "phone_number": "+359886322889",
    "source_url": "https://www.google.com/maps/place/Messer+Bulgaria+Ltd/data=!4m7!3m6!1s0x40ab19f1447db51f:0x6b9ff4cba84ef57b!8m2!3d43.2238373!4d23.5311652!16s%2Fg%2F11vqvkzrjm!19sChIJH7V9RPEZq0ARe_VOqMv0n2s?authuser=0&hl=tr&rclk=1",
    "website_url": "https://www.messer.bg/",
    "rating_text": "",
    "stars": null,
    "number_of_reviews": null,
    "price_level": "",
    "open_hours": "",
    "extraction_timestamp": "2025-06-07T15:12:28.356Z",
    "source_name": "google",
    "source_query": "Irrigation Equipment",
    "source_country": "BG",
    "country": "Bulgaria",
    "state": "Vratsa Province",
    "city": "Obshtina Mizia"
  },
  {
    "source_id": "ChIJlTl-Cx0Zq0ARFZhlJmM_d18",
    "name": "Georadarbg.com - Проучване И Откриване На Вода За Сондаж",
    "category": "Georadarbg.com - Проучване И Откриване На Вода За Сондаж",
    "formatted_address": "5,0(1)",
    "phone_number": "+359877818331",
    "source_url": "https://www.google.com/maps/place/Georadarbg.com+-+%D0%9F%D1%80%D0%BE%D1%83%D1%87%D0%B2%D0%B0%D0%BD%D0%B5+%D0%98+%D0%9E%D1%82%D0%BA%D1%80%D0%B8%D0%B2%D0%B0%D0%BD%D0%B5+%D0%9D%D0%B0+%D0%92%D0%BE%D0%B4%D0%B0+%D0%97%D0%B0+%D0%A1%D0%BE%D0%BD%D0%B4%D0%B0%D0%B6/data=!4m7!3m6!1s0x40ab191d0b7e3995:0x5f773f6326659815!8m2!3d43.2031771!4d23.5492707!16s%2Fg%2F11wn5bdmn2!19sChIJlTl-Cx0Zq0ARFZhlJmM_d18?authuser=0&hl=tr&rclk=1",
    "website_url": "https://georadarbg.com/",
    "rating_text": "5,0",
    "stars": null,
    "number_of_reviews": null,
    "price_level": "",
    "open_hours": "",
    "extraction_timestamp": "2025-06-07T15:12:28.357Z",
    "source_name": "google",
    "source_query": "Irrigation Equipment",
    "source_country": "BG",
    "country": "Bulgaria",
    "state": "Vratsa Province",
    "city": "Obshtina Mizia"
  },
  {
    "source_id": "ChIJifPBoXGGqkARA5U1ZnLt0t4",
    "name": "Ямато ЕООД Поливни системи",
    "category": "Ямато ЕООД Поливни системи",
    "formatted_address": "5,0(4)",
    "phone_number": "+359899535964",
    "source_url": "https://www.google.com/maps/place/%D0%AF%D0%BC%D0%B0%D1%82%D0%BE+%D0%95%D0%9E%D0%9E%D0%94+%D0%9F%D0%BE%D0%BB%D0%B8%D0%B2%D0%BD%D0%B8+%D1%81%D0%B8%D1%81%D1%82%D0%B5%D0%BC%D0%B8/data=!4m7!3m6!1s0x40aa8671a1c1f389:0xded2ed7266359503!8m2!3d42.6714845!4d23.3871234!16s%2Fg%2F11f1s58kx5!19sChIJifPBoXGGqkARA5U1ZnLt0t4?authuser=0&hl=tr&rclk=1",
    "website_url": "http://yamato.bg/",
    "rating_text": "5,0",
    "stars": null,
    "number_of_reviews": null,
    "price_level": "",
    "open_hours": "",
    "extraction_timestamp": "2025-06-07T15:12:28.359Z",
    "source_name": "google",
    "source_query": "Irrigation Equipment",
    "source_country": "BG",
    "country": "Bulgaria",
    "state": "Vratsa Province",
    "city": "Obshtina Mizia"
  },
  {
    "source_id": "ChIJf8gApA7RrBQRekeVZ78DiiQ",
    "name": "ИРРИДЕА",
    "category": "ИРРИДЕА",
    "formatted_address": "Çim Yağmurlama Sistemi Yüklenicisi · до хотел Чиирите, Околовръстен пъдKapalı ⋅ Açılış zamanı: Pzt 08:00 · +359 88 812 2324",
    "phone_number": "+359888122324",
    "source_url": "https://www.google.com/maps/place/%D0%98%D0%A0%D0%A0%D0%98%D0%94%D0%95%D0%90/data=!4m7!3m6!1s0x14acd10ea400c87f:0x248a03bf6795477a!8m2!3d42.114511!4d24.7326861!16s%2Fg%2F11fjvwmt83!19sChIJf8gApA7RrBQRekeVZ78DiiQ?authuser=0&hl=tr&rclk=1",
    "website_url": "http://www.irridea.bg/",
    "rating_text": "",
    "stars": null,
    "number_of_reviews": null,
    "price_level": "",
    "open_hours": "",
    "extraction_timestamp": "2025-06-07T15:12:28.360Z",
    "source_name": "google",
    "source_query": "Irrigation Equipment",
    "source_country": "BG",
    "country": "Bulgaria",
    "state": "Vratsa Province",
    "city": "Obshtina Mizia"
  },
  {
    "source_id": "ChIJHY1D-V5lq0ARGbCkzSkfFpY",
    "name": "TOPLIVO - Warehouse Byala Slatina",
    "category": "TOPLIVO - Warehouse Byala Slatina",
    "formatted_address": "4,4(37)",
    "phone_number": "+359884704997",
    "source_url": "https://www.google.com/maps/place/TOPLIVO+-+Warehouse+Byala+Slatina/data=!4m7!3m6!1s0x40ab655ef9438d1d:0x96161f29cda4b019!8m2!3d43.4812422!4d23.9472751!16s%2Fg%2F11g9f627ct!19sChIJHY1D-V5lq0ARGbCkzSkfFpY?authuser=0&hl=tr&rclk=1",
    "website_url": "",
    "rating_text": "4,4",
    "stars": null,
    "number_of_reviews": null,
    "price_level": "",
    "open_hours": "",
    "extraction_timestamp": "2025-06-07T15:13:42.357Z",
    "source_name": "google",
    "source_query": "Irrigation Equipment",
    "source_country": "BG",
    "country": "Bulgaria",
    "state": "Vratsa Province",
    "city": "Byala Slatina"
  },
  {
    "source_id": "ChIJR-EtktBvq0ARhgxiqYMET4Q",
    "name": "Строителен магазин Брънчев - Строителни материали и инструменти Бяла Слатина",
    "category": "Строителен магазин Брънчев - Строителни материали и инструменти Бяла Слатина",
    "formatted_address": "3,5(2)",
    "phone_number": "+359888336073",
    "source_url": "https://www.google.com/maps/place/%D0%A1%D1%82%D1%80%D0%BE%D0%B8%D1%82%D0%B5%D0%BB%D0%B5%D0%BD+%D0%BC%D0%B0%D0%B3%D0%B0%D0%B7%D0%B8%D0%BD+%D0%91%D1%80%D1%8A%D0%BD%D1%87%D0%B5%D0%B2+-+%D0%A1%D1%82%D1%80%D0%BE%D0%B8%D1%82%D0%B5%D0%BB%D0%BD%D0%B8+%D0%BC%D0%B0%D1%82%D0%B5%D1%80%D0%B8%D0%B0%D0%BB%D0%B8+%D0%B8+%D0%B8%D0%BD%D1%81%D1%82%D1%80%D1%83%D0%BC%D0%B5%D0%BD%D1%82%D0%B8+%D0%91%D1%8F%D0%BB%D0%B0+%D0%A1%D0%BB%D0%B0%D1%82%D0%B8%D0%BD%D0%B0/data=!4m7!3m6!1s0x40ab6fd0922de147:0x844f0483a9620c86!8m2!3d43.471531!4d23.941521!16s%2Fg%2F11khfdclyf!19sChIJR-EtktBvq0ARhgxiqYMET4Q?authuser=0&hl=tr&rclk=1",
    "website_url": "",
    "rating_text": "3,5",
    "stars": null,
    "number_of_reviews": null,
    "price_level": "",
    "open_hours": "",
    "extraction_timestamp": "2025-06-07T15:13:42.358Z",
    "source_name": "google",
    "source_query": "Irrigation Equipment",
    "source_country": "BG",
    "country": "Bulgaria",
    "state": "Vratsa Province",
    "city": "Byala Slatina"
  },
  {
    "source_id": "ChIJA6JrGPBvq0AR7Zll_sAjQfY",
    "name": "Spirits&liquor store St.Nicholas\"",
    "category": "Spirits&liquor store St.Nicholas\"",
    "formatted_address": "4,7(37)",
    "phone_number": "+359882450999",
    "source_url": "https://www.google.com/maps/place/Spirits%26liquor+store+St.Nicholas%22/data=!4m7!3m6!1s0x40ab6ff0186ba203:0xf64123c0fe6599ed!8m2!3d43.4699402!4d23.9463028!16s%2Fg%2F11f2wrj90g!19sChIJA6JrGPBvq0AR7Zll_sAjQfY?authuser=0&hl=tr&rclk=1",
    "website_url": "",
    "rating_text": "4,7",
    "stars": null,
    "number_of_reviews": null,
    "price_level": "",
    "open_hours": "",
    "extraction_timestamp": "2025-06-07T15:13:42.360Z",
    "source_name": "google",
    "source_query": "Irrigation Equipment",
    "source_country": "BG",
    "country": "Bulgaria",
    "state": "Vratsa Province",
    "city": "Byala Slatina"
  },
  {
    "source_id": "ChIJdbeOUYlvq0ARGqtcZ7zTAWY",
    "name": "T MARKET",
    "category": "T MARKET",
    "formatted_address": "4,0(830)",
    "phone_number": "+35970070171",
    "source_url": "https://www.google.com/maps/place/T+MARKET/data=!4m7!3m6!1s0x40ab6f89518eb775:0x6601d3bc675cab1a!8m2!3d43.4776192!4d23.9318507!16s%2Fg%2F11b7rxmv3t!19sChIJdbeOUYlvq0ARGqtcZ7zTAWY?authuser=0&hl=tr&rclk=1",
    "website_url": "",
    "rating_text": "4,0",
    "stars": null,
    "number_of_reviews": null,
    "price_level": "",
    "open_hours": "",
    "extraction_timestamp": "2025-06-07T15:13:42.361Z",
    "source_name": "google",
    "source_query": "Irrigation Equipment",
    "source_country": "BG",
    "country": "Bulgaria",
    "state": "Vratsa Province",
    "city": "Byala Slatina"
  },
  {
    "source_id": "ChIJ-X2B7-9vq0AREa_L5YsYdjA",
    "name": "non stop",
    "category": "non stop",
    "formatted_address": "4,4(48)",
    "phone_number": "",
    "source_url": "https://www.google.com/maps/place/non+stop/data=!4m7!3m6!1s0x40ab6fefef817df9:0x3076188be5cbaf11!8m2!3d43.468845!4d23.9458332!16s%2Fg%2F11b7pzmh7y!19sChIJ-X2B7-9vq0AREa_L5YsYdjA?authuser=0&hl=tr&rclk=1",
    "website_url": "",
    "rating_text": "4,4",
    "stars": null,
    "number_of_reviews": null,
    "price_level": "",
    "open_hours": "",
    "extraction_timestamp": "2025-06-07T15:13:42.363Z",
    "source_name": "google",
    "source_query": "Irrigation Equipment",
    "source_country": "BG",
    "country": "Bulgaria",
    "state": "Vratsa Province",
    "city": "Byala Slatina"
  },
  {
    "source_id": "ChIJbbdFm74Zq0AROf38NUPzryQ",
    "name": "Water BG - Сондажи и Хидрогеоложки проучвания Враца",
    "category": "Water BG - Сондажи и Хидрогеоложки проучвания Враца",
    "formatted_address": "5,0(1)",
    "phone_number": "+359876778357",
    "source_url": "https://www.google.com/maps/place/Water+BG+-+%D0%A1%D0%BE%D0%BD%D0%B4%D0%B0%D0%B6%D0%B8+%D0%B8+%D0%A5%D0%B8%D0%B4%D1%80%D0%BE%D0%B3%D0%B5%D0%BE%D0%BB%D0%BE%D0%B6%D0%BA%D0%B8+%D0%BF%D1%80%D0%BE%D1%83%D1%87%D0%B2%D0%B0%D0%BD%D0%B8%D1%8F+%D0%92%D1%80%D0%B0%D1%86%D0%B0/data=!4m7!3m6!1s0x40ab19be9b45b76d:0x24aff34335fcfd39!8m2!3d43.2256122!4d23.5438669!16s%2Fg%2F11qq36y9_1!19sChIJbbdFm74Zq0AROf38NUPzryQ?authuser=0&hl=tr&rclk=1",
    "website_url": "",
    "rating_text": "5,0",
    "stars": null,
    "number_of_reviews": null,
    "price_level": "",
    "open_hours": "",
    "extraction_timestamp": "2025-06-07T15:13:42.364Z",
    "source_name": "google",
    "source_query": "Irrigation Equipment",
    "source_country": "BG",
    "country": "Bulgaria",
    "state": "Vratsa Province",
    "city": "Byala Slatina"
  }
]
