[
  {
    "source_id": "ChIJ2eWwuqBV8z8RMPaAf6O6vZY",
    "name": "فروشگاه آبیاری و پورتال جامع آبیار",
    "category": "فروشگاه آبیاری و پورتال جامع آبیار",
    "formatted_address": "5,0(2)",
    "phone_number": "+989120839256",
    "source_url": "https://www.google.com/maps/place/%D9%81%D8%B1%D9%88%D8%B4%DA%AF%D8%A7%D9%87+%D8%A2%D8%A8%DB%8C%D8%A7%D8%B1%DB%8C+%D9%88+%D9%BE%D9%88%D8%B1%D8%AA%D8%A7%D9%84+%D8%AC%D8%A7%D9%85%D8%B9+%D8%A2%D8%A8%DB%8C%D8%A7%D8%B1%E2%80%AD/data=!4m7!3m6!1s0x3ff355a0bab0e5d9:0x96bdbaa37f80f630!8m2!3d36.2806554!4d49.9937844!16s%2Fg%2F11j5q1l1g5!19sChIJ2eWwuqBV8z8RMPaAf6O6vZY?authuser=0&hl=tr&rclk=1",
    "website_url": "",
    "rating_text": "5,0",
    "stars": null,
    "number_of_reviews": null,
    "price_level": "",
    "open_hours": "",
    "extraction_timestamp": "2025-06-07T13:51:41.301Z",
    "source_name": "google",
    "source_query": "Irrigation Equipment",
    "source_country": "IR",
    "country": "Iran",
    "state": "Qazvin",
    "city": "Alborz"
  },
  {
    "source_id": "ChIJ36TEisABjj8RxVkzgaPZ_R0",
    "name": "WaterSuAb Industrial Group",
    "category": "WaterSuAb Industrial Group",
    "formatted_address": "5,0(3)",
    "phone_number": "+982834226660",
    "source_url": "https://www.google.com/maps/place/WaterSuAb+Industrial+Group/data=!4m7!3m6!1s0x3f8e01c08ac4a4df:0x1dfdd9a3813359c5!8m2!3d36.3263717!4d50.0421803!16s%2Fg%2F11fp31n2wf!19sChIJ36TEisABjj8RxVkzgaPZ_R0?authuser=0&hl=tr&rclk=1",
    "website_url": "http://www.watersuab.com/",
    "rating_text": "5,0",
    "stars": null,
    "number_of_reviews": null,
    "price_level": "",
    "open_hours": "",
    "extraction_timestamp": "2025-06-07T13:51:41.304Z",
    "source_name": "google",
    "source_query": "Irrigation Equipment",
    "source_country": "IR",
    "country": "Iran",
    "state": "Qazvin",
    "city": "Alborz"
  },
  {
    "source_id": "ChIJZRjxI-pV8z8RlhyxSEtS7pg",
    "name": "اندیشه نوین آب اوان",
    "category": "اندیشه نوین آب اوان",
    "formatted_address": "5,0(2)",
    "phone_number": "+982833995082",
    "source_url": "https://www.google.com/maps/place/%D8%A7%D9%86%D8%AF%DB%8C%D8%B4%D9%87+%D9%86%D9%88%DB%8C%D9%86+%D8%A2%D8%A8+%D8%A7%D9%88%D8%A7%D9%86%E2%80%AD/data=!4m7!3m6!1s0x3ff355ea23f11865:0x98ee524b48b11c96!8m2!3d36.2809487!4d50.00524!16s%2Fg%2F11j2xh8tgl!19sChIJZRjxI-pV8z8RlhyxSEtS7pg?authuser=0&hl=tr&rclk=1",
    "website_url": "http://evanab.com/",
    "rating_text": "5,0",
    "stars": null,
    "number_of_reviews": null,
    "price_level": "",
    "open_hours": "",
    "extraction_timestamp": "2025-06-07T13:51:41.306Z",
    "source_name": "google",
    "source_query": "Irrigation Equipment",
    "source_country": "IR",
    "country": "Iran",
    "state": "Qazvin",
    "city": "Alborz"
  },
  {
    "source_id": "ChIJL20xl3urjD8RaHiSs7XMdnw",
    "name": "Azad Alborz pump manufacturing",
    "category": "Azad Alborz pump manufacturing",
    "formatted_address": "5,0(1)",
    "phone_number": "+982833559959",
    "source_url": "https://www.google.com/maps/place/Azad+Alborz+pump+manufacturing/data=!4m7!3m6!1s0x3f8cab7b97316d2f:0x7c76ccb5b3927868!8m2!3d36.2460498!4d50.0528647!16s%2Fg%2F11f26qfl5k!19sChIJL20xl3urjD8RaHiSs7XMdnw?authuser=0&hl=tr&rclk=1",
    "website_url": "http://www.azadalborz.com/",
    "rating_text": "5,0",
    "stars": null,
    "number_of_reviews": null,
    "price_level": "",
    "open_hours": "",
    "extraction_timestamp": "2025-06-07T13:51:41.307Z",
    "source_name": "google",
    "source_query": "Irrigation Equipment",
    "source_country": "IR",
    "country": "Iran",
    "state": "Qazvin",
    "city": "Alborz"
  },
  {
    "source_id": "ChIJvVTeP6mq9D8R8Xw-XrZT7oo",
    "name": "Aquajoy",
    "category": "Aquajoy",
    "formatted_address": "3,7(3)",
    "phone_number": "+982833680088",
    "source_url": "https://www.google.com/maps/place/Aquajoy/data=!4m7!3m6!1s0x3ff4aaa93fde54bd:0x8aee53b65e3e7cf1!8m2!3d36.3009837!4d50.0122362!16s%2Fg%2F11ck6s4r7h!19sChIJvVTeP6mq9D8R8Xw-XrZT7oo?authuser=0&hl=tr&rclk=1",
    "website_url": "https://elvakala.com/%D8%AA%D8%B5%D9%81%DB%8C%D9%87-%D8%A7%D8%A8-%D8%AF%D8%B1-%D9%82%D8%B2%D9%88%DB%8C%D9%86/",
    "rating_text": "3,7",
    "stars": null,
    "number_of_reviews": null,
    "price_level": "",
    "open_hours": "",
    "extraction_timestamp": "2025-06-07T13:51:41.310Z",
    "source_name": "google",
    "source_query": "Irrigation Equipment",
    "source_country": "IR",
    "country": "Iran",
    "state": "Qazvin",
    "city": "Alborz"
  },
  {
    "source_id": "ChIJ_73rW1JViz8Rd6469Id8RKc",
    "name": "شرکت ایران البرز",
    "category": "شرکت ایران البرز",
    "formatted_address": "5,0(1)",
    "phone_number": "+982832231999",
    "source_url": "https://www.google.com/maps/place/%D8%B4%D8%B1%DA%A9%D8%AA+%D8%A7%DB%8C%D8%B1%D8%A7%D9%86+%D8%A7%D9%84%D8%A8%D8%B1%D8%B2%E2%80%AD/data=!4m7!3m6!1s0x3f8b55525bebbdff:0xa7447c87f43aae77!8m2!3d36.3089836!4d50.0217193!16s%2Fg%2F11c719qcv7!19sChIJ_73rW1JViz8Rd6469Id8RKc?authuser=0&hl=tr&rclk=1",
    "website_url": "",
    "rating_text": "5,0",
    "stars": null,
    "number_of_reviews": null,
    "price_level": "",
    "open_hours": "",
    "extraction_timestamp": "2025-06-07T13:51:41.312Z",
    "source_name": "google",
    "source_query": "Irrigation Equipment",
    "source_country": "IR",
    "country": "Iran",
    "state": "Qazvin",
    "city": "Alborz"
  },
  {
    "source_id": "ChIJgdQP1GKr9D8R3TSqQkUGjYg",
    "name": "برق خورشیدی سولار آفتابیش",
    "category": "برق خورشیدی سولار آفتابیش",
    "formatted_address": "5,0(3)",
    "phone_number": "+982833798468",
    "source_url": "https://www.google.com/maps/place/%D8%A8%D8%B1%D9%82+%D8%AE%D9%88%D8%B1%D8%B4%DB%8C%D8%AF%DB%8C+%D8%B3%D9%88%D9%84%D8%A7%D8%B1+%D8%A2%D9%81%D8%AA%D8%A7%D8%A8%DB%8C%D8%B4%E2%80%AD/data=!4m7!3m6!1s0x3ff4ab62d40fd481:0x888d064542aa34dd!8m2!3d36.2748861!4d49.9953176!16s%2Fg%2F11s7ttfhk7!19sChIJgdQP1GKr9D8R3TSqQkUGjYg?authuser=0&hl=tr&rclk=1",
    "website_url": "http://aftabish.com/",
    "rating_text": "5,0",
    "stars": null,
    "number_of_reviews": null,
    "price_level": "",
    "open_hours": "",
    "extraction_timestamp": "2025-06-07T13:51:41.315Z",
    "source_name": "google",
    "source_query": "Irrigation Equipment",
    "source_country": "IR",
    "country": "Iran",
    "state": "Qazvin",
    "city": "Alborz"
  },
  {
    "source_id": "ChIJdzlNRABV8z8RrzoSByfqUF0",
    "name": "AVA store",
    "category": "AVA store",
    "formatted_address": "5,0(1)",
    "phone_number": "",
    "source_url": "https://www.google.com/maps/place/AVA+store/data=!4m7!3m6!1s0x3ff35500444d3977:0x5d50ea2707123aaf!8m2!3d36.2644118!4d50.0001755!16s%2Fg%2F11vq39ptwz!19sChIJdzlNRABV8z8RrzoSByfqUF0?authuser=0&hl=tr&rclk=1",
    "website_url": "",
    "rating_text": "5,0",
    "stars": null,
    "number_of_reviews": null,
    "price_level": "",
    "open_hours": "",
    "extraction_timestamp": "2025-06-07T13:51:41.316Z",
    "source_name": "google",
    "source_query": "Irrigation Equipment",
    "source_country": "IR",
    "country": "Iran",
    "state": "Qazvin",
    "city": "Alborz"
  },
  {
    "source_id": "ChIJpwiqMwBV8z8R9AOAlaJ3Lvg",
    "name": "فروشگاه کشاورزی عقیلی",
    "category": "فروشگاه کشاورزی عقیلی",
    "formatted_address": "Tarımsal Ekipman Tedarikçisi · Rah Ahan, Sardar Bozorg Ancient Water reservoir",
    "phone_number": "",
    "source_url": "https://www.google.com/maps/place/%D9%81%D8%B1%D9%88%D8%B4%DA%AF%D8%A7%D9%87+%DA%A9%D8%B4%D8%A7%D9%88%D8%B1%D8%B2%DB%8C+%D8%B9%D9%82%DB%8C%D9%84%DB%8C%E2%80%AD/data=!4m7!3m6!1s0x3ff3550033aa08a7:0xf82e77a2958003f4!8m2!3d36.2562832!4d50.0048729!16s%2Fg%2F11vyj8dd41!19sChIJpwiqMwBV8z8R9AOAlaJ3Lvg?authuser=0&hl=tr&rclk=1",
    "website_url": "",
    "rating_text": "",
    "stars": null,
    "number_of_reviews": null,
    "price_level": "",
    "open_hours": "",
    "extraction_timestamp": "2025-06-07T13:51:41.317Z",
    "source_name": "google",
    "source_query": "Irrigation Equipment",
    "source_country": "IR",
    "country": "Iran",
    "state": "Qazvin",
    "city": "Alborz"
  },
  {
    "source_id": "ChIJj2AkVz6_jD8RTDkLDVcwOVE",
    "name": "Baran saz Giah Machine - باران ساز گیاه ماشین",
    "category": "Baran saz Giah Machine - باران ساز گیاه ماشین",
    "formatted_address": "",
    "phone_number": "+982832848674",
    "source_url": "https://www.google.com/maps/place/Baran+saz+Giah+Machine+-+%D8%A8%D8%A7%D8%B1%D8%A7%D9%86+%D8%B3%D8%A7%D8%B2+%DA%AF%DB%8C%D8%A7%D9%87+%D9%85%D8%A7%D8%B4%DB%8C%D9%86%E2%80%AD/data=!4m7!3m6!1s0x3f8cbf3e5724608f:0x513930570d0b394c!8m2!3d36.1834772!4d50.2922959!16s%2Fg%2F11j2w7_0yx!19sChIJj2AkVz6_jD8RTDkLDVcwOVE?authuser=0&hl=tr&rclk=1",
    "website_url": "http://giahmachine.com/",
    "rating_text": "",
    "stars": null,
    "number_of_reviews": null,
    "price_level": "",
    "open_hours": "",
    "extraction_timestamp": "2025-06-07T13:51:41.319Z",
    "source_name": "google",
    "source_query": "Irrigation Equipment",
    "source_country": "IR",
    "country": "Iran",
    "state": "Qazvin",
    "city": "Alborz"
  }
]
