[
  {
    "source_id": "ChIJd1QXlaul8z8RxE4BecL5ZIk",
    "name": "نمایندگی بوتان(رجب نیا)",
    "category": "نمایندگی بوتان(رجب نیا)",
    "formatted_address": "5,0(1)",
    "phone_number": "+989124787382",
    "source_url": "https://www.google.com/maps/place/%D9%86%D9%85%D8%A7%DB%8C%D9%86%D8%AF%DA%AF%DB%8C+%D8%A8%D9%88%D8%AA%D8%A7%D9%86%28%D8%B1%D8%AC%D8%A8+%D9%86%DB%8C%D8%A7%29%E2%80%AD/data=!4m7!3m6!1s0x3ff3a5ab95175477:0x8964f9c279014ec4!8m2!3d35.5784238!4d49.2218635!16s%2Fg%2F11t82mf8fg!19sChIJd1QXlaul8z8RxE4BecL5ZIk?authuser=0&hl=tr&rclk=1",
    "website_url": "",
    "rating_text": "5,0",
    "stars": null,
    "number_of_reviews": null,
    "price_level": "",
    "open_hours": "",
    "extraction_timestamp": "2025-06-07T13:51:04.539Z",
    "source_name": "google",
    "source_query": "Irrigation Equipment",
    "source_country": "IR",
    "country": "Iran",
    "state": "Qazvin",
    "city": "Avaj"
  },
  {
    "source_id": "ChIJ2eWwuqBV8z8RMPaAf6O6vZY",
    "name": "فروشگاه آبیاری و پورتال جامع آبیار",
    "category": "فروشگاه آبیاری و پورتال جامع آبیار",
    "formatted_address": "5,0(2)",
    "phone_number": "+989120839256",
    "source_url": "https://www.google.com/maps/place/%D9%81%D8%B1%D9%88%D8%B4%DA%AF%D8%A7%D9%87+%D8%A2%D8%A8%DB%8C%D8%A7%D8%B1%DB%8C+%D9%88+%D9%BE%D9%88%D8%B1%D8%AA%D8%A7%D9%84+%D8%AC%D8%A7%D9%85%D8%B9+%D8%A2%D8%A8%DB%8C%D8%A7%D8%B1%E2%80%AD/data=!4m7!3m6!1s0x3ff355a0bab0e5d9:0x96bdbaa37f80f630!8m2!3d36.2806554!4d49.9937844!16s%2Fg%2F11j5q1l1g5!19sChIJ2eWwuqBV8z8RMPaAf6O6vZY?authuser=0&hl=tr&rclk=1",
    "website_url": "",
    "rating_text": "5,0",
    "stars": null,
    "number_of_reviews": null,
    "price_level": "",
    "open_hours": "",
    "extraction_timestamp": "2025-06-07T13:51:04.541Z",
    "source_name": "google",
    "source_query": "Irrigation Equipment",
    "source_country": "IR",
    "country": "Iran",
    "state": "Qazvin",
    "city": "Avaj"
  },
  {
    "source_id": "ChIJ68bact6k8z8REjudVXCs26Q",
    "name": "Super Market",
    "category": "Super Market",
    "formatted_address": "5,0(1)",
    "phone_number": "",
    "source_url": "https://www.google.com/maps/place/Super+Market/data=!4m7!3m6!1s0x3ff3a4de72dac6eb:0xa4dbac70559d3b12!8m2!3d35.5800023!4d49.2220274!16s%2Fg%2F11dxs4fnsr!19sChIJ68bact6k8z8REjudVXCs26Q?authuser=0&hl=tr&rclk=1",
    "website_url": "",
    "rating_text": "5,0",
    "stars": null,
    "number_of_reviews": null,
    "price_level": "",
    "open_hours": "",
    "extraction_timestamp": "2025-06-07T13:51:04.541Z",
    "source_name": "google",
    "source_query": "Irrigation Equipment",
    "source_country": "IR",
    "country": "Iran",
    "state": "Qazvin",
    "city": "Avaj"
  },
  {
    "source_id": "ChIJL20xl3urjD8RaHiSs7XMdnw",
    "name": "Azad Alborz pump manufacturing",
    "category": "Azad Alborz pump manufacturing",
    "formatted_address": "5,0(1)",
    "phone_number": "+982833559959",
    "source_url": "https://www.google.com/maps/place/Azad+Alborz+pump+manufacturing/data=!4m7!3m6!1s0x3f8cab7b97316d2f:0x7c76ccb5b3927868!8m2!3d36.2460498!4d50.0528647!16s%2Fg%2F11f26qfl5k!19sChIJL20xl3urjD8RaHiSs7XMdnw?authuser=0&hl=tr&rclk=1",
    "website_url": "",
    "rating_text": "5,0",
    "stars": null,
    "number_of_reviews": null,
    "price_level": "",
    "open_hours": "",
    "extraction_timestamp": "2025-06-07T13:51:04.543Z",
    "source_name": "google",
    "source_query": "Irrigation Equipment",
    "source_country": "IR",
    "country": "Iran",
    "state": "Qazvin",
    "city": "Avaj"
  },
  {
    "source_id": "ChIJuUN7Xeek8z8RC7mFwnlNtXQ",
    "name": "سوپرماركت وليعصر",
    "category": "سوپرماركت وليعصر",
    "formatted_address": "2,0(1)",
    "phone_number": "",
    "source_url": "https://www.google.com/maps/place/%D8%B3%D9%88%D9%BE%D8%B1%D9%85%D8%A7%D8%B1%D9%83%D8%AA+%D9%88%D9%84%D9%8A%D8%B9%D8%B5%D8%B1%E2%80%AD/data=!4m7!3m6!1s0x3ff3a4e75d7b43b9:0x74b54d79c285b90b!8m2!3d35.5823296!4d49.2238491!16s%2Fg%2F11g72gkxcz!19sChIJuUN7Xeek8z8RC7mFwnlNtXQ?authuser=0&hl=tr&rclk=1",
    "website_url": "",
    "rating_text": "2,0",
    "stars": null,
    "number_of_reviews": null,
    "price_level": "",
    "open_hours": "",
    "extraction_timestamp": "2025-06-07T13:51:04.545Z",
    "source_name": "google",
    "source_query": "Irrigation Equipment",
    "source_country": "IR",
    "country": "Iran",
    "state": "Qazvin",
    "city": "Avaj"
  },
  {
    "source_id": "ChIJC5CWrN-k8z8R9MkBsPZXCUw",
    "name": "City Market",
    "category": "City Market",
    "formatted_address": "3,0(1)",
    "phone_number": "",
    "source_url": "https://www.google.com/maps/place/City+Market/data=!4m7!3m6!1s0x3ff3a4dfac96900b:0x4c0957f6b001c9f4!8m2!3d35.5777484!4d49.2211801!16s%2Fg%2F11c75y1j1t!19sChIJC5CWrN-k8z8R9MkBsPZXCUw?authuser=0&hl=tr&rclk=1",
    "website_url": "",
    "rating_text": "3,0",
    "stars": null,
    "number_of_reviews": null,
    "price_level": "",
    "open_hours": "",
    "extraction_timestamp": "2025-06-07T13:51:04.546Z",
    "source_name": "google",
    "source_query": "Irrigation Equipment",
    "source_country": "IR",
    "country": "Iran",
    "state": "Qazvin",
    "city": "Avaj"
  },
  {
    "source_id": "ChIJvVTeP6mq9D8R8Xw-XrZT7oo",
    "name": "Aquajoy",
    "category": "Aquajoy",
    "formatted_address": "3,7(3)",
    "phone_number": "+982833680088",
    "source_url": "https://www.google.com/maps/place/Aquajoy/data=!4m7!3m6!1s0x3ff4aaa93fde54bd:0x8aee53b65e3e7cf1!8m2!3d36.3009837!4d50.0122362!16s%2Fg%2F11ck6s4r7h!19sChIJvVTeP6mq9D8R8Xw-XrZT7oo?authuser=0&hl=tr&rclk=1",
    "website_url": "",
    "rating_text": "3,7",
    "stars": null,
    "number_of_reviews": null,
    "price_level": "",
    "open_hours": "",
    "extraction_timestamp": "2025-06-07T13:51:04.550Z",
    "source_name": "google",
    "source_query": "Irrigation Equipment",
    "source_country": "IR",
    "country": "Iran",
    "state": "Qazvin",
    "city": "Avaj"
  },
  {
    "source_id": "ChIJb3s6Ht6k8z8RBg2tDgRl6u4",
    "name": "فروشگاه فجر",
    "category": "فروشگاه فجر",
    "formatted_address": "3,0(1)",
    "phone_number": "",
    "source_url": "https://www.google.com/maps/place/%D9%81%D8%B1%D9%88%D8%B4%DA%AF%D8%A7%D9%87+%D9%81%D8%AC%D8%B1%E2%80%AD/data=!4m7!3m6!1s0x3ff3a4de1e3a7b6f:0xeeea65040ead0d06!8m2!3d35.5799867!4d49.2232732!16s%2Fg%2F11dxs3y5fb!19sChIJb3s6Ht6k8z8RBg2tDgRl6u4?authuser=0&hl=tr&rclk=1",
    "website_url": "",
    "rating_text": "3,0",
    "stars": null,
    "number_of_reviews": null,
    "price_level": "",
    "open_hours": "",
    "extraction_timestamp": "2025-06-07T13:51:04.550Z",
    "source_name": "google",
    "source_query": "Irrigation Equipment",
    "source_country": "IR",
    "country": "Iran",
    "state": "Qazvin",
    "city": "Avaj"
  },
  {
    "source_id": "ChIJJ-4HFtal8z8RP6sgtKJTz8w",
    "name": "فروشگاه مواد غذایی اطمینان",
    "category": "فروشگاه مواد غذایی اطمینان",
    "formatted_address": "Bakkal · Shahid Abad, H6HH+545Açık ⋅ Kapanış saati: 23:00 · +98 910 043 5668",
    "phone_number": "+989100435668",
    "source_url": "https://www.google.com/maps/place/%D9%81%D8%B1%D9%88%D8%B4%DA%AF%D8%A7%D9%87+%D9%85%D9%88%D8%A7%D8%AF+%D8%BA%D8%B0%D8%A7%DB%8C%DB%8C+%D8%A7%D8%B7%D9%85%DB%8C%D9%86%D8%A7%D9%86%E2%80%AD/data=!4m7!3m6!1s0x3ff3a5d61607ee27:0xcccf53a2b420ab3f!8m2!3d35.5778764!4d49.2278481!16s%2Fg%2F11hpsp082p!19sChIJJ-4HFtal8z8RP6sgtKJTz8w?authuser=0&hl=tr&rclk=1",
    "website_url": "",
    "rating_text": "",
    "stars": null,
    "number_of_reviews": null,
    "price_level": "",
    "open_hours": "",
    "extraction_timestamp": "2025-06-07T13:51:04.552Z",
    "source_name": "google",
    "source_query": "Irrigation Equipment",
    "source_country": "IR",
    "country": "Iran",
    "state": "Qazvin",
    "city": "Avaj"
  },
  {
    "source_id": "ChIJ36TEisABjj8RxVkzgaPZ_R0",
    "name": "WaterSuAb Industrial Group",
    "category": "WaterSuAb Industrial Group",
    "formatted_address": "5,0(3)",
    "phone_number": "+982834226660",
    "source_url": "https://www.google.com/maps/place/WaterSuAb+Industrial+Group/data=!4m7!3m6!1s0x3f8e01c08ac4a4df:0x1dfdd9a3813359c5!8m2!3d36.3263717!4d50.0421803!16s%2Fg%2F11fp31n2wf!19sChIJ36TEisABjj8RxVkzgaPZ_R0?authuser=0&hl=tr&rclk=1",
    "website_url": "",
    "rating_text": "5,0",
    "stars": null,
    "number_of_reviews": null,
    "price_level": "",
    "open_hours": "",
    "extraction_timestamp": "2025-06-07T13:51:04.554Z",
    "source_name": "google",
    "source_query": "Irrigation Equipment",
    "source_country": "IR",
    "country": "Iran",
    "state": "Qazvin",
    "city": "Avaj"
  },
  {
    "source_id": "ChIJUcNs7dWl8z8RcSHrDtqhGZ4",
    "name": "فروشگاه لاله",
    "category": "فروشگاه لاله",
    "formatted_address": "",
    "phone_number": "+982834622508",
    "source_url": "https://www.google.com/maps/place/%D9%81%D8%B1%D9%88%D8%B4%DA%AF%D8%A7%D9%87+%D9%84%D8%A7%D9%84%D9%87%E2%80%AD/data=!4m7!3m6!1s0x3ff3a5d5ed6cc351:0x9e19a1da0eeb2171!8m2!3d35.5795972!4d49.2241312!16s%2Fg%2F11fj7g4k7l!19sChIJUcNs7dWl8z8RcSHrDtqhGZ4?authuser=0&hl=tr&rclk=1",
    "website_url": "",
    "rating_text": "",
    "stars": null,
    "number_of_reviews": null,
    "price_level": "",
    "open_hours": "",
    "extraction_timestamp": "2025-06-07T13:51:04.555Z",
    "source_name": "google",
    "source_query": "Irrigation Equipment",
    "source_country": "IR",
    "country": "Iran",
    "state": "Qazvin",
    "city": "Avaj"
  },
  {
    "source_id": "ChIJbZxYHfGl8z8RI_MCJzMxzFM",
    "name": "فروشگاه مواد غذایی خانواده",
    "category": "فروشگاه مواد غذایی خانواده",
    "formatted_address": "3,0(2)",
    "phone_number": "+982834621088",
    "source_url": "https://www.google.com/maps/place/%D9%81%D8%B1%D9%88%D8%B4%DA%AF%D8%A7%D9%87+%D9%85%D9%88%D8%A7%D8%AF+%D8%BA%D8%B0%D8%A7%DB%8C%DB%8C+%D8%AE%D8%A7%D9%86%D9%88%D8%A7%D8%AF%D9%87%E2%80%AD/data=!4m7!3m6!1s0x3ff3a5f11d589c6d:0x53cc31332702f323!8m2!3d35.5743316!4d49.2190001!16s%2Fg%2F11kb7l_fvh!19sChIJbZxYHfGl8z8RI_MCJzMxzFM?authuser=0&hl=tr&rclk=1",
    "website_url": "",
    "rating_text": "3,0",
    "stars": null,
    "number_of_reviews": null,
    "price_level": "",
    "open_hours": "",
    "extraction_timestamp": "2025-06-07T13:51:04.556Z",
    "source_name": "google",
    "source_query": "Irrigation Equipment",
    "source_country": "IR",
    "country": "Iran",
    "state": "Qazvin",
    "city": "Avaj"
  },
  {
    "source_id": "ChIJj2AkVz6_jD8RTDkLDVcwOVE",
    "name": "Baran saz Giah Machine - باران ساز گیاه ماشین",
    "category": "Baran saz Giah Machine - باران ساز گیاه ماشین",
    "formatted_address": "",
    "phone_number": "+982832848674",
    "source_url": "https://www.google.com/maps/place/Baran+saz+Giah+Machine+-+%D8%A8%D8%A7%D8%B1%D8%A7%D9%86+%D8%B3%D8%A7%D8%B2+%DA%AF%DB%8C%D8%A7%D9%87+%D9%85%D8%A7%D8%B4%DB%8C%D9%86%E2%80%AD/data=!4m7!3m6!1s0x3f8cbf3e5724608f:0x513930570d0b394c!8m2!3d36.1834772!4d50.2922959!16s%2Fg%2F11j2w7_0yx!19sChIJj2AkVz6_jD8RTDkLDVcwOVE?authuser=0&hl=tr&rclk=1",
    "website_url": "",
    "rating_text": "",
    "stars": null,
    "number_of_reviews": null,
    "price_level": "",
    "open_hours": "",
    "extraction_timestamp": "2025-06-07T13:51:04.558Z",
    "source_name": "google",
    "source_query": "Irrigation Equipment",
    "source_country": "IR",
    "country": "Iran",
    "state": "Qazvin",
    "city": "Avaj"
  },
  {
    "source_id": "ChIJNRSzjHel8z8RHNwhkklc23I",
    "name": "فروشگاه شاندیز",
    "category": "فروشگاه شاندیز",
    "formatted_address": "",
    "phone_number": "+989355201380",
    "source_url": "https://www.google.com/maps/place/%D9%81%D8%B1%D9%88%D8%B4%DA%AF%D8%A7%D9%87+%D8%B4%D8%A7%D9%86%D8%AF%DB%8C%D8%B2%E2%80%AD/data=!4m7!3m6!1s0x3ff3a5778cb31435:0x72db5c499221dc1c!8m2!3d35.5770641!4d49.2210512!16s%2Fg%2F11l6msm0xm!19sChIJNRSzjHel8z8RHNwhkklc23I?authuser=0&hl=tr&rclk=1",
    "website_url": "",
    "rating_text": "",
    "stars": null,
    "number_of_reviews": null,
    "price_level": "",
    "open_hours": "",
    "extraction_timestamp": "2025-06-07T13:51:04.580Z",
    "source_name": "google",
    "source_query": "Irrigation Equipment",
    "source_country": "IR",
    "country": "Iran",
    "state": "Qazvin",
    "city": "Avaj"
  }
]
