[
  {
    "source_id": "ChIJ2eWwuqBV8z8RMPaAf6O6vZY",
    "name": "فروشگاه آبیاری و پورتال جامع آبیار",
    "category": "فروشگاه آبیاری و پورتال جامع آبیار",
    "formatted_address": "5,0(2)",
    "phone_number": "+989120839256",
    "source_url": "https://www.google.com/maps/place/%D9%81%D8%B1%D9%88%D8%B4%DA%AF%D8%A7%D9%87+%D8%A2%D8%A8%DB%8C%D8%A7%D8%B1%DB%8C+%D9%88+%D9%BE%D9%88%D8%B1%D8%AA%D8%A7%D9%84+%D8%AC%D8%A7%D9%85%D8%B9+%D8%A2%D8%A8%DB%8C%D8%A7%D8%B1%E2%80%AD/data=!4m7!3m6!1s0x3ff355a0bab0e5d9:0x96bdbaa37f80f630!8m2!3d36.2806554!4d49.9937844!16s%2Fg%2F11j5q1l1g5!19sChIJ2eWwuqBV8z8RMPaAf6O6vZY?authuser=0&hl=tr&rclk=1",
    "website_url": "",
    "rating_text": "5,0",
    "stars": null,
    "number_of_reviews": null,
    "price_level": "",
    "open_hours": "",
    "extraction_timestamp": "2025-06-07T13:51:14.960Z",
    "source_name": "google",
    "source_query": "Irrigation Equipment",
    "source_country": "IR",
    "country": "Iran",
    "state": "Qazvin",
    "city": "Bidestan"
  },
  {
    "source_id": "ChIJL20xl3urjD8RaHiSs7XMdnw",
    "name": "Azad Alborz pump manufacturing",
    "category": "Azad Alborz pump manufacturing",
    "formatted_address": "5,0(1)",
    "phone_number": "+982833559959",
    "source_url": "https://www.google.com/maps/place/Azad+Alborz+pump+manufacturing/data=!4m7!3m6!1s0x3f8cab7b97316d2f:0x7c76ccb5b3927868!8m2!3d36.2460498!4d50.0528647!16s%2Fg%2F11f26qfl5k!19sChIJL20xl3urjD8RaHiSs7XMdnw?authuser=0&hl=tr&rclk=1",
    "website_url": "",
    "rating_text": "5,0",
    "stars": null,
    "number_of_reviews": null,
    "price_level": "",
    "open_hours": "",
    "extraction_timestamp": "2025-06-07T13:51:14.962Z",
    "source_name": "google",
    "source_query": "Irrigation Equipment",
    "source_country": "IR",
    "country": "Iran",
    "state": "Qazvin",
    "city": "Bidestan"
  },
  {
    "source_id": "ChIJwTIxS46r9D8RB1gtQHygzn8",
    "name": "فروشگاه ساخمانی پارسان(کاکاوند)",
    "category": "فروشگاه ساخمانی پارسان(کاکاوند)",
    "formatted_address": "5,0(1)",
    "phone_number": "+989122811303",
    "source_url": "https://www.google.com/maps/place/%D9%81%D8%B1%D9%88%D8%B4%DA%AF%D8%A7%D9%87+%D8%B3%D8%A7%D8%AE%D9%85%D8%A7%D9%86%DB%8C+%D9%BE%D8%A7%D8%B1%D8%B3%D8%A7%D9%86%28%DA%A9%D8%A7%DA%A9%D8%A7%D9%88%D9%86%D8%AF%29%E2%80%AD/data=!4m7!3m6!1s0x3ff4ab8e4b3132c1:0x7fcea07c402d5807!8m2!3d36.3129179!4d50.014228!16s%2Fg%2F11kxq69s23!19sChIJwTIxS46r9D8RB1gtQHygzn8?authuser=0&hl=tr&rclk=1",
    "website_url": "",
    "rating_text": "5,0",
    "stars": null,
    "number_of_reviews": null,
    "price_level": "",
    "open_hours": "",
    "extraction_timestamp": "2025-06-07T13:51:14.963Z",
    "source_name": "google",
    "source_query": "Irrigation Equipment",
    "source_country": "IR",
    "country": "Iran",
    "state": "Qazvin",
    "city": "Bidestan"
  },
  {
    "source_id": "ChIJgwwjDTOzjD8R-mjFSI-Zz4U",
    "name": "صنایع لوله های آبرسانی قزوین",
    "category": "صنایع لوله های آبرسانی قزوین",
    "formatted_address": "5,0(1)",
    "phone_number": "+989108370015",
    "source_url": "https://www.google.com/maps/place/%D8%B5%D9%86%D8%A7%DB%8C%D8%B9+%D9%84%D9%88%D9%84%D9%87+%D9%87%D8%A7%DB%8C+%D8%A2%D8%A8%D8%B1%D8%B3%D8%A7%D9%86%DB%8C+%D9%82%D8%B2%D9%88%DB%8C%D9%86%E2%80%AD/data=!4m7!3m6!1s0x3f8cb3330d230c83:0x85cf998f48c568fa!8m2!3d36.1275975!4d50.027718!16s%2Fg%2F11fn006vnn!19sChIJgwwjDTOzjD8R-mjFSI-Zz4U?authuser=0&hl=tr&rclk=1",
    "website_url": "",
    "rating_text": "5,0",
    "stars": null,
    "number_of_reviews": null,
    "price_level": "",
    "open_hours": "",
    "extraction_timestamp": "2025-06-07T13:51:14.965Z",
    "source_name": "google",
    "source_query": "Irrigation Equipment",
    "source_country": "IR",
    "country": "Iran",
    "state": "Qazvin",
    "city": "Bidestan"
  },
  {
    "source_id": "ChIJ36TEisABjj8RxVkzgaPZ_R0",
    "name": "WaterSuAb Industrial Group",
    "category": "WaterSuAb Industrial Group",
    "formatted_address": "5,0(3)",
    "phone_number": "+982834226660",
    "source_url": "https://www.google.com/maps/place/WaterSuAb+Industrial+Group/data=!4m7!3m6!1s0x3f8e01c08ac4a4df:0x1dfdd9a3813359c5!8m2!3d36.3263717!4d50.0421803!16s%2Fg%2F11fp31n2wf!19sChIJ36TEisABjj8RxVkzgaPZ_R0?authuser=0&hl=tr&rclk=1",
    "website_url": "",
    "rating_text": "5,0",
    "stars": null,
    "number_of_reviews": null,
    "price_level": "",
    "open_hours": "",
    "extraction_timestamp": "2025-06-07T13:51:14.967Z",
    "source_name": "google",
    "source_query": "Irrigation Equipment",
    "source_country": "IR",
    "country": "Iran",
    "state": "Qazvin",
    "city": "Bidestan"
  },
  {
    "source_id": "ChIJcR8ccQBViz8RzcIO5H44nMg",
    "name": "روئین آب ایرانیان",
    "category": "روئین آب ایرانیان",
    "formatted_address": "5,0(1)",
    "phone_number": "+982833648013",
    "source_url": "https://www.google.com/maps/place/%D8%B1%D9%88%D8%A6%DB%8C%D9%86+%D8%A2%D8%A8+%D8%A7%DB%8C%D8%B1%D8%A7%D9%86%DB%8C%D8%A7%D9%86%E2%80%AD/data=!4m7!3m6!1s0x3f8b5500711c1f71:0xc89c387ee40ec2cd!8m2!3d36.3263717!4d50.0421803!16s%2Fg%2F11wn7k433v!19sChIJcR8ccQBViz8RzcIO5H44nMg?authuser=0&hl=tr&rclk=1",
    "website_url": "",
    "rating_text": "5,0",
    "stars": null,
    "number_of_reviews": null,
    "price_level": "",
    "open_hours": "",
    "extraction_timestamp": "2025-06-07T13:51:14.968Z",
    "source_name": "google",
    "source_query": "Irrigation Equipment",
    "source_country": "IR",
    "country": "Iran",
    "state": "Qazvin",
    "city": "Bidestan"
  },
  {
    "source_id": "ChIJj2AkVz6_jD8RTDkLDVcwOVE",
    "name": "Baran saz Giah Machine - باران ساز گیاه ماشین",
    "category": "Baran saz Giah Machine - باران ساز گیاه ماشین",
    "formatted_address": "",
    "phone_number": "+982832848674",
    "source_url": "https://www.google.com/maps/place/Baran+saz+Giah+Machine+-+%D8%A8%D8%A7%D8%B1%D8%A7%D9%86+%D8%B3%D8%A7%D8%B2+%DA%AF%DB%8C%D8%A7%D9%87+%D9%85%D8%A7%D8%B4%DB%8C%D9%86%E2%80%AD/data=!4m7!3m6!1s0x3f8cbf3e5724608f:0x513930570d0b394c!8m2!3d36.1834772!4d50.2922959!16s%2Fg%2F11j2w7_0yx!19sChIJj2AkVz6_jD8RTDkLDVcwOVE?authuser=0&hl=tr&rclk=1",
    "website_url": "",
    "rating_text": "",
    "stars": null,
    "number_of_reviews": null,
    "price_level": "",
    "open_hours": "",
    "extraction_timestamp": "2025-06-07T13:51:14.969Z",
    "source_name": "google",
    "source_query": "Irrigation Equipment",
    "source_country": "IR",
    "country": "Iran",
    "state": "Qazvin",
    "city": "Bidestan"
  },
  {
    "source_id": "ChIJ5fcbEcyvjD8RLUGXsVT42Go",
    "name": "فروشگاه تخفیفی الماس شهر",
    "category": "فروشگاه تخفیفی الماس شهر",
    "formatted_address": "5,0(1)",
    "phone_number": "",
    "source_url": "https://www.google.com/maps/place/%D9%81%D8%B1%D9%88%D8%B4%DA%AF%D8%A7%D9%87+%D8%AA%D8%AE%D9%81%DB%8C%D9%81%DB%8C+%D8%A7%D9%84%D9%85%D8%A7%D8%B3+%D8%B4%D9%87%D8%B1%E2%80%AD/data=!4m7!3m6!1s0x3f8cafcc111bf7e5:0x6ad8f854b197412d!8m2!3d36.2352908!4d50.1217204!16s%2Fg%2F11jyf54rs0!19sChIJ5fcbEcyvjD8RLUGXsVT42Go?authuser=0&hl=tr&rclk=1",
    "website_url": "",
    "rating_text": "5,0",
    "stars": null,
    "number_of_reviews": null,
    "price_level": "",
    "open_hours": "",
    "extraction_timestamp": "2025-06-07T13:51:14.970Z",
    "source_name": "google",
    "source_query": "Irrigation Equipment",
    "source_country": "IR",
    "country": "Iran",
    "state": "Qazvin",
    "city": "Bidestan"
  },
  {
    "source_id": "ChIJS0YW0_SujD8R0wtFWdGHoBc",
    "name": "فروشگاه مواد غذايي ردايي",
    "category": "فروشگاه مواد غذايي ردايي",
    "formatted_address": "3,6(7)",
    "phone_number": "+982832323607",
    "source_url": "https://www.google.com/maps/place/%D9%81%D8%B1%D9%88%D8%B4%DA%AF%D8%A7%D9%87+%D9%85%D9%88%D8%A7%D8%AF+%D8%BA%D8%B0%D8%A7%D9%8A%D9%8A+%D8%B1%D8%AF%D8%A7%D9%8A%D9%8A%E2%80%AD/data=!4m7!3m6!1s0x3f8caef4d316464b:0x17a087d159450bd3!8m2!3d36.2340625!4d50.1215611!16s%2Fg%2F11csgcx83r!19sChIJS0YW0_SujD8R0wtFWdGHoBc?authuser=0&hl=tr&rclk=1",
    "website_url": "",
    "rating_text": "3,6",
    "stars": null,
    "number_of_reviews": null,
    "price_level": "",
    "open_hours": "",
    "extraction_timestamp": "2025-06-07T13:51:14.972Z",
    "source_name": "google",
    "source_query": "Irrigation Equipment",
    "source_country": "IR",
    "country": "Iran",
    "state": "Qazvin",
    "city": "Bidestan"
  },
  {
    "source_id": "ChIJiamzKpivjD8Rdfswih_SHN4",
    "name": "سوپرمارکت پورسلمان",
    "category": "سوپرمارکت پورسلمان",
    "formatted_address": "5,0(1)",
    "phone_number": "",
    "source_url": "https://www.google.com/maps/place/%D8%B3%D9%88%D9%BE%D8%B1%D9%85%D8%A7%D8%B1%DA%A9%D8%AA+%D9%BE%D9%88%D8%B1%D8%B3%D9%84%D9%85%D8%A7%D9%86%E2%80%AD/data=!4m7!3m6!1s0x3f8caf982ab3a989:0xde1cd21f8a30fb75!8m2!3d36.2296764!4d50.1208835!16s%2Fg%2F11qmqzq063!19sChIJiamzKpivjD8Rdfswih_SHN4?authuser=0&hl=tr&rclk=1",
    "website_url": "",
    "rating_text": "5,0",
    "stars": null,
    "number_of_reviews": null,
    "price_level": "",
    "open_hours": "",
    "extraction_timestamp": "2025-06-07T13:51:14.973Z",
    "source_name": "google",
    "source_query": "Irrigation Equipment",
    "source_country": "IR",
    "country": "Iran",
    "state": "Qazvin",
    "city": "Bidestan"
  },
  {
    "source_id": "ChIJa9uR5WCujD8RVKU5uL0UXqY",
    "name": "Matin Grocery",
    "category": "Matin Grocery",
    "formatted_address": "5,0(1)",
    "phone_number": "+982832322496",
    "source_url": "https://www.google.com/maps/place/Matin+Grocery/data=!4m7!3m6!1s0x3f8cae60e591db6b:0xa65e14bdb839a554!8m2!3d36.2275559!4d50.119521!16s%2Fg%2F11ckr5_j1h!19sChIJa9uR5WCujD8RVKU5uL0UXqY?authuser=0&hl=tr&rclk=1",
    "website_url": "",
    "rating_text": "5,0",
    "stars": null,
    "number_of_reviews": null,
    "price_level": "",
    "open_hours": "",
    "extraction_timestamp": "2025-06-07T13:51:14.974Z",
    "source_name": "google",
    "source_query": "Irrigation Equipment",
    "source_country": "IR",
    "country": "Iran",
    "state": "Qazvin",
    "city": "Bidestan"
  },
  {
    "source_id": "ChIJvVTeP6mq9D8R8Xw-XrZT7oo",
    "name": "Aquajoy",
    "category": "Aquajoy",
    "formatted_address": "3,7(3)",
    "phone_number": "+982833680088",
    "source_url": "https://www.google.com/maps/place/Aquajoy/data=!4m7!3m6!1s0x3ff4aaa93fde54bd:0x8aee53b65e3e7cf1!8m2!3d36.3009837!4d50.0122362!16s%2Fg%2F11ck6s4r7h!19sChIJvVTeP6mq9D8R8Xw-XrZT7oo?authuser=0&hl=tr&rclk=1",
    "website_url": "",
    "rating_text": "3,7",
    "stars": null,
    "number_of_reviews": null,
    "price_level": "",
    "open_hours": "",
    "extraction_timestamp": "2025-06-07T13:51:14.976Z",
    "source_name": "google",
    "source_query": "Irrigation Equipment",
    "source_country": "IR",
    "country": "Iran",
    "state": "Qazvin",
    "city": "Bidestan"
  },
  {
    "source_id": "ChIJj3hGrO-vjD8RkJ95zWmN04c",
    "name": "سوپر مارکت کوهستانی",
    "category": "سوپر مارکت کوهستانی",
    "formatted_address": "3,0(1)",
    "phone_number": "+982832322278",
    "source_url": "https://www.google.com/maps/place/%D8%B3%D9%88%D9%BE%D8%B1+%D9%85%D8%A7%D8%B1%DA%A9%D8%AA+%DA%A9%D9%88%D9%87%D8%B3%D8%AA%D8%A7%D9%86%DB%8C%E2%80%AD/data=!4m7!3m6!1s0x3f8cafefac46788f:0x87d38d69cd799f90!8m2!3d36.2295966!4d50.118953!16s%2Fg%2F11gmw1zgr_!19sChIJj3hGrO-vjD8RkJ95zWmN04c?authuser=0&hl=tr&rclk=1",
    "website_url": "",
    "rating_text": "3,0",
    "stars": null,
    "number_of_reviews": null,
    "price_level": "",
    "open_hours": "",
    "extraction_timestamp": "2025-06-07T13:51:14.977Z",
    "source_name": "google",
    "source_query": "Irrigation Equipment",
    "source_country": "IR",
    "country": "Iran",
    "state": "Qazvin",
    "city": "Bidestan"
  },
  {
    "source_id": "ChIJe0YGumCujD8RVK8urhc2zdQ",
    "name": "فروشگاه موادغذایی گوزل",
    "category": "فروشگاه موادغذایی گوزل",
    "formatted_address": "",
    "phone_number": "+989380389898",
    "source_url": "https://www.google.com/maps/place/%D9%81%D8%B1%D9%88%D8%B4%DA%AF%D8%A7%D9%87+%D9%85%D9%88%D8%A7%D8%AF%D8%BA%D8%B0%D8%A7%DB%8C%DB%8C+%DA%AF%D9%88%D8%B2%D9%84%E2%80%AD/data=!4m7!3m6!1s0x3f8cae60ba06467b:0xd4cd3617ae2eaf54!8m2!3d36.227095!4d50.1205625!16s%2Fg%2F11fzff1_9q!19sChIJe0YGumCujD8RVK8urhc2zdQ?authuser=0&hl=tr&rclk=1",
    "website_url": "",
    "rating_text": "",
    "stars": null,
    "number_of_reviews": null,
    "price_level": "",
    "open_hours": "",
    "extraction_timestamp": "2025-06-07T13:51:14.979Z",
    "source_name": "google",
    "source_query": "Irrigation Equipment",
    "source_country": "IR",
    "country": "Iran",
    "state": "Qazvin",
    "city": "Bidestan"
  },
  {
    "source_id": "ChIJWe8oAACvjD8RLr4QWRu-zwU",
    "name": "Hayper bozorgmehr",
    "category": "Hayper bozorgmehr",
    "formatted_address": "",
    "phone_number": "+982832323283",
    "source_url": "https://www.google.com/maps/place/Hayper+bozorgmehr/data=!4m7!3m6!1s0x3f8caf000028ef59:0x5cfbe1b5910be2e!8m2!3d36.2298089!4d50.1256387!16s%2Fg%2F11lvz5p42v!19sChIJWe8oAACvjD8RLr4QWRu-zwU?authuser=0&hl=tr&rclk=1",
    "website_url": "",
    "rating_text": "",
    "stars": null,
    "number_of_reviews": null,
    "price_level": "",
    "open_hours": "",
    "extraction_timestamp": "2025-06-07T13:51:14.980Z",
    "source_name": "google",
    "source_query": "Irrigation Equipment",
    "source_country": "IR",
    "country": "Iran",
    "state": "Qazvin",
    "city": "Bidestan"
  },
  {
    "source_id": "ChIJY_6jmBJV8z8R7LVHGLo6Z2A",
    "name": "Haghighi Agriculture instrument ادوات کشاورزی حقیقی",
    "category": "Haghighi Agriculture instrument ادوات کشاورزی حقیقی",
    "formatted_address": "Takım Dükkanı · Qazvin, منطقه ۱، قزوین، استان قزوین،،Açık ⋅ Kapanış saati: 20:00 · +98 912 788 3230",
    "phone_number": "+989127883230",
    "source_url": "https://www.google.com/maps/place/Haghighi+Agriculture+instrument+%D8%A7%D8%AF%D9%88%D8%A7%D8%AA+%DA%A9%D8%B4%D8%A7%D9%88%D8%B1%D8%B2%DB%8C+%D8%AD%D9%82%DB%8C%D9%82%DB%8C%E2%80%AD/data=!4m7!3m6!1s0x3ff3551298a3fe63:0x60673aba1847b5ec!8m2!3d36.2541641!4d50.0050298!16s%2Fg%2F11t7j99wbb!19sChIJY_6jmBJV8z8R7LVHGLo6Z2A?authuser=0&hl=tr&rclk=1",
    "website_url": "",
    "rating_text": "",
    "stars": null,
    "number_of_reviews": null,
    "price_level": "",
    "open_hours": "",
    "extraction_timestamp": "2025-06-07T13:51:14.982Z",
    "source_name": "google",
    "source_query": "Irrigation Equipment",
    "source_country": "IR",
    "country": "Iran",
    "state": "Qazvin",
    "city": "Bidestan"
  },
  {
    "source_id": "ChIJxYiU8GCujD8RpzTEBK_Y37Q",
    "name": "سوپرمارکت معید",
    "category": "سوپرمارکت معید",
    "formatted_address": "",
    "phone_number": "+982832327244",
    "source_url": "https://www.google.com/maps/place/%D8%B3%D9%88%D9%BE%D8%B1%D9%85%D8%A7%D8%B1%DA%A9%D8%AA+%D9%85%D8%B9%DB%8C%D8%AF%E2%80%AD/data=!4m7!3m6!1s0x3f8cae60f09488c5:0xb4dfd8af04c434a7!8m2!3d36.2284218!4d50.1201066!16s%2Fg%2F11bwkfv712!19sChIJxYiU8GCujD8RpzTEBK_Y37Q?authuser=0&hl=tr&rclk=1",
    "website_url": "",
    "rating_text": "",
    "stars": null,
    "number_of_reviews": null,
    "price_level": "",
    "open_hours": "",
    "extraction_timestamp": "2025-06-07T13:51:14.984Z",
    "source_name": "google",
    "source_query": "Irrigation Equipment",
    "source_country": "IR",
    "country": "Iran",
    "state": "Qazvin",
    "city": "Bidestan"
  },
  {
    "source_id": "ChIJG-NctpyvjD8R5RVkZKSkaTo",
    "name": "سوپرمارکت رشوند",
    "category": "سوپرمارکت رشوند",
    "formatted_address": "",
    "phone_number": "+989124459939",
    "source_url": "https://www.google.com/maps/place/%D8%B3%D9%88%D9%BE%D8%B1%D9%85%D8%A7%D8%B1%DA%A9%D8%AA+%D8%B1%D8%B4%D9%88%D9%86%D8%AF%E2%80%AD/data=!4m7!3m6!1s0x3f8caf9cb65ce31b:0x3a69a4a4646415e5!8m2!3d36.2275878!4d50.1195345!16s%2Fg%2F11ssdfg_5j!19sChIJG-NctpyvjD8R5RVkZKSkaTo?authuser=0&hl=tr&rclk=1",
    "website_url": "",
    "rating_text": "",
    "stars": null,
    "number_of_reviews": null,
    "price_level": "",
    "open_hours": "",
    "extraction_timestamp": "2025-06-07T13:51:14.985Z",
    "source_name": "google",
    "source_query": "Irrigation Equipment",
    "source_country": "IR",
    "country": "Iran",
    "state": "Qazvin",
    "city": "Bidestan"
  }
]
