[
  {
    "source_id": "ChIJfxnOnKfVjD8RgiD_7Q8UGVo",
    "name": "Buin Zahra Technical and Engineering University",
    "category": "Buin Zahra Technical and Engineering University",
    "formatted_address": "4,1(30)",
    "phone_number": "+982833894101",
    "source_url": "https://www.google.com/maps/place/Buin+Zahra+Technical+and+Engineering+University/data=!4m7!3m6!1s0x3f8cd5a79cce197f:0x5a19140fedff2082!8m2!3d35.7549149!4d50.0612124!16s%2Fg%2F11crzr1w4y!19sChIJfxnOnKfVjD8RgiD_7Q8UGVo?authuser=0&hl=tr&rclk=1",
    "website_url": "",
    "rating_text": "4,1",
    "stars": null,
    "number_of_reviews": null,
    "price_level": "",
    "open_hours": "",
    "extraction_timestamp": "2025-06-07T13:51:14.669Z",
    "source_name": "google",
    "source_query": "Irrigation Equipment",
    "source_country": "IR",
    "country": "Iran",
    "state": "Qazvin",
    "city": "Buin Zahra"
  },
  {
    "source_id": "ChIJ2eWwuqBV8z8RMPaAf6O6vZY",
    "name": "فروشگاه آبیاری و پورتال جامع آبیار",
    "category": "فروشگاه آبیاری و پورتال جامع آبیار",
    "formatted_address": "5,0(2)",
    "phone_number": "+989120839256",
    "source_url": "https://www.google.com/maps/place/%D9%81%D8%B1%D9%88%D8%B4%DA%AF%D8%A7%D9%87+%D8%A2%D8%A8%DB%8C%D8%A7%D8%B1%DB%8C+%D9%88+%D9%BE%D9%88%D8%B1%D8%AA%D8%A7%D9%84+%D8%AC%D8%A7%D9%85%D8%B9+%D8%A2%D8%A8%DB%8C%D8%A7%D8%B1%E2%80%AD/data=!4m7!3m6!1s0x3ff355a0bab0e5d9:0x96bdbaa37f80f630!8m2!3d36.2806554!4d49.9937844!16s%2Fg%2F11j5q1l1g5!19sChIJ2eWwuqBV8z8RMPaAf6O6vZY?authuser=0&hl=tr&rclk=1",
    "website_url": "",
    "rating_text": "5,0",
    "stars": null,
    "number_of_reviews": null,
    "price_level": "",
    "open_hours": "",
    "extraction_timestamp": "2025-06-07T13:51:14.670Z",
    "source_name": "google",
    "source_query": "Irrigation Equipment",
    "source_country": "IR",
    "country": "Iran",
    "state": "Qazvin",
    "city": "Buin Zahra"
  },
  {
    "source_id": "ChIJL20xl3urjD8RaHiSs7XMdnw",
    "name": "Azad Alborz pump manufacturing",
    "category": "Azad Alborz pump manufacturing",
    "formatted_address": "5,0(1)",
    "phone_number": "+982833559959",
    "source_url": "https://www.google.com/maps/place/Azad+Alborz+pump+manufacturing/data=!4m7!3m6!1s0x3f8cab7b97316d2f:0x7c76ccb5b3927868!8m2!3d36.2460498!4d50.0528647!16s%2Fg%2F11f26qfl5k!19sChIJL20xl3urjD8RaHiSs7XMdnw?authuser=0&hl=tr&rclk=1",
    "website_url": "",
    "rating_text": "5,0",
    "stars": null,
    "number_of_reviews": null,
    "price_level": "",
    "open_hours": "",
    "extraction_timestamp": "2025-06-07T13:51:14.673Z",
    "source_name": "google",
    "source_query": "Irrigation Equipment",
    "source_country": "IR",
    "country": "Iran",
    "state": "Qazvin",
    "city": "Buin Zahra"
  },
  {
    "source_id": "ChIJlVuTRrHLjD8RD03hoiDrfJ4",
    "name": "شرکت آرزوی بهار(کود آلی)",
    "category": "شرکت آرزوی بهار(کود آلی)",
    "formatted_address": "5,0(3)",
    "phone_number": "+982188175083",
    "source_url": "https://www.google.com/maps/place/%D8%B4%D8%B1%DA%A9%D8%AA+%D8%A2%D8%B1%D8%B2%D9%88%DB%8C+%D8%A8%D9%87%D8%A7%D8%B1%28%DA%A9%D9%88%D8%AF+%D8%A2%D9%84%DB%8C%29%E2%80%AD/data=!4m7!3m6!1s0x3f8ccbb146935b95:0x9e7ceb20a2e14d0f!8m2!3d35.9672594!4d50.0656977!16s%2Fg%2F11k50p2lcs!19sChIJlVuTRrHLjD8RD03hoiDrfJ4?authuser=0&hl=tr&rclk=1",
    "website_url": "",
    "rating_text": "5,0",
    "stars": null,
    "number_of_reviews": null,
    "price_level": "",
    "open_hours": "",
    "extraction_timestamp": "2025-06-07T13:51:14.676Z",
    "source_name": "google",
    "source_query": "Irrigation Equipment",
    "source_country": "IR",
    "country": "Iran",
    "state": "Qazvin",
    "city": "Buin Zahra"
  },
  {
    "source_id": "ChIJj2AkVz6_jD8RTDkLDVcwOVE",
    "name": "Baran saz Giah Machine - باران ساز گیاه ماشین",
    "category": "Baran saz Giah Machine - باران ساز گیاه ماشین",
    "formatted_address": "",
    "phone_number": "+982832848674",
    "source_url": "https://www.google.com/maps/place/Baran+saz+Giah+Machine+-+%D8%A8%D8%A7%D8%B1%D8%A7%D9%86+%D8%B3%D8%A7%D8%B2+%DA%AF%DB%8C%D8%A7%D9%87+%D9%85%D8%A7%D8%B4%DB%8C%D9%86%E2%80%AD/data=!4m7!3m6!1s0x3f8cbf3e5724608f:0x513930570d0b394c!8m2!3d36.1834772!4d50.2922959!16s%2Fg%2F11j2w7_0yx!19sChIJj2AkVz6_jD8RTDkLDVcwOVE?authuser=0&hl=tr&rclk=1",
    "website_url": "",
    "rating_text": "",
    "stars": null,
    "number_of_reviews": null,
    "price_level": "",
    "open_hours": "",
    "extraction_timestamp": "2025-06-07T13:51:14.679Z",
    "source_name": "google",
    "source_query": "Irrigation Equipment",
    "source_country": "IR",
    "country": "Iran",
    "state": "Qazvin",
    "city": "Buin Zahra"
  },
  {
    "source_id": "ChIJuxNBPazVjD8RMwisTLmWHhg",
    "name": "دکه یاسین",
    "category": "دکه یاسین",
    "formatted_address": "5,0(2)",
    "phone_number": "+989196166630",
    "source_url": "https://www.google.com/maps/place/%D8%AF%DA%A9%D9%87+%DB%8C%D8%A7%D8%B3%DB%8C%D9%86%E2%80%AD/data=!4m7!3m6!1s0x3f8cd5ac3d4113bb:0x181e96b94cac0833!8m2!3d35.7716858!4d50.0670066!16s%2Fg%2F11h7ddzptx!19sChIJuxNBPazVjD8RMwisTLmWHhg?authuser=0&hl=tr&rclk=1",
    "website_url": "",
    "rating_text": "5,0",
    "stars": null,
    "number_of_reviews": null,
    "price_level": "",
    "open_hours": "",
    "extraction_timestamp": "2025-06-07T13:51:14.680Z",
    "source_name": "google",
    "source_query": "Irrigation Equipment",
    "source_country": "IR",
    "country": "Iran",
    "state": "Qazvin",
    "city": "Buin Zahra"
  },
  {
    "source_id": "ChIJvVTeP6mq9D8R8Xw-XrZT7oo",
    "name": "Aquajoy",
    "category": "Aquajoy",
    "formatted_address": "3,7(3)",
    "phone_number": "+982833680088",
    "source_url": "https://www.google.com/maps/place/Aquajoy/data=!4m7!3m6!1s0x3ff4aaa93fde54bd:0x8aee53b65e3e7cf1!8m2!3d36.3009837!4d50.0122362!16s%2Fg%2F11ck6s4r7h!19sChIJvVTeP6mq9D8R8Xw-XrZT7oo?authuser=0&hl=tr&rclk=1",
    "website_url": "",
    "rating_text": "3,7",
    "stars": null,
    "number_of_reviews": null,
    "price_level": "",
    "open_hours": "",
    "extraction_timestamp": "2025-06-07T13:51:14.683Z",
    "source_name": "google",
    "source_query": "Irrigation Equipment",
    "source_country": "IR",
    "country": "Iran",
    "state": "Qazvin",
    "city": "Buin Zahra"
  },
  {
    "source_id": "ChIJcR8ccQBViz8RzcIO5H44nMg",
    "name": "روئین آب ایرانیان",
    "category": "روئین آب ایرانیان",
    "formatted_address": "5,0(1)",
    "phone_number": "+982833648013",
    "source_url": "https://www.google.com/maps/place/%D8%B1%D9%88%D8%A6%DB%8C%D9%86+%D8%A2%D8%A8+%D8%A7%DB%8C%D8%B1%D8%A7%D9%86%DB%8C%D8%A7%D9%86%E2%80%AD/data=!4m7!3m6!1s0x3f8b5500711c1f71:0xc89c387ee40ec2cd!8m2!3d36.3263717!4d50.0421803!16s%2Fg%2F11wn7k433v!19sChIJcR8ccQBViz8RzcIO5H44nMg?authuser=0&hl=tr&rclk=1",
    "website_url": "",
    "rating_text": "5,0",
    "stars": null,
    "number_of_reviews": null,
    "price_level": "",
    "open_hours": "",
    "extraction_timestamp": "2025-06-07T13:51:14.685Z",
    "source_name": "google",
    "source_query": "Irrigation Equipment",
    "source_country": "IR",
    "country": "Iran",
    "state": "Qazvin",
    "city": "Buin Zahra"
  },
  {
    "source_id": "ChIJ-S_Bk43VjD8RG3C4LUBA_Js",
    "name": "Ofoq Kourosh Store",
    "category": "Ofoq Kourosh Store",
    "formatted_address": "5,0(1)",
    "phone_number": "+982142701000",
    "source_url": "https://www.google.com/maps/place/Ofoq+Kourosh+Store/data=!4m7!3m6!1s0x3f8cd58d93c12ff9:0x9bfc40402db8701b!8m2!3d35.7683037!4d50.0638501!16s%2Fg%2F11f78ljzt8!19sChIJ-S_Bk43VjD8RG3C4LUBA_Js?authuser=0&hl=tr&rclk=1",
    "website_url": "",
    "rating_text": "5,0",
    "stars": null,
    "number_of_reviews": null,
    "price_level": "",
    "open_hours": "",
    "extraction_timestamp": "2025-06-07T13:51:14.687Z",
    "source_name": "google",
    "source_query": "Irrigation Equipment",
    "source_country": "IR",
    "country": "Iran",
    "state": "Qazvin",
    "city": "Buin Zahra"
  },
  {
    "source_id": "ChIJyXQVNavVjD8RtZPoURc3vLI",
    "name": "Pardazeshgar پردازشگر",
    "category": "Pardazeshgar پردازشگر",
    "formatted_address": "5,0(4)",
    "phone_number": "+982834221010",
    "source_url": "https://www.google.com/maps/place/Pardazeshgar+%D9%BE%D8%B1%D8%AF%D8%A7%D8%B2%D8%B4%DA%AF%D8%B1%E2%80%AD/data=!4m7!3m6!1s0x3f8cd5ab351574c9:0xb2bc371751e893b5!8m2!3d35.7678719!4d50.0634702!16s%2Fg%2F11bw3d7lwm!19sChIJyXQVNavVjD8RtZPoURc3vLI?authuser=0&hl=tr&rclk=1",
    "website_url": "",
    "rating_text": "5,0",
    "stars": null,
    "number_of_reviews": null,
    "price_level": "",
    "open_hours": "",
    "extraction_timestamp": "2025-06-07T13:51:14.688Z",
    "source_name": "google",
    "source_query": "Irrigation Equipment",
    "source_country": "IR",
    "country": "Iran",
    "state": "Qazvin",
    "city": "Buin Zahra"
  },
  {
    "source_id": "ChIJpWc7Pp3VjD8RJgeJUQJINYk",
    "name": "مواد غذایی سنتی صبوری",
    "category": "مواد غذایی سنتی صبوری",
    "formatted_address": "",
    "phone_number": "+982834220028",
    "source_url": "https://www.google.com/maps/place/%D9%85%D9%88%D8%A7%D8%AF+%D8%BA%D8%B0%D8%A7%DB%8C%DB%8C+%D8%B3%D9%86%D8%AA%DB%8C+%D8%B5%D8%A8%D9%88%D8%B1%DB%8C%E2%80%AD/data=!4m7!3m6!1s0x3f8cd59d3e3b67a5:0x8935480251890726!8m2!3d35.765792!4d50.059803!16s%2Fg%2F11sr_y7hlf!19sChIJpWc7Pp3VjD8RJgeJUQJINYk?authuser=0&hl=tr&rclk=1",
    "website_url": "",
    "rating_text": "",
    "stars": null,
    "number_of_reviews": null,
    "price_level": "",
    "open_hours": "",
    "extraction_timestamp": "2025-06-07T13:51:14.690Z",
    "source_name": "google",
    "source_query": "Irrigation Equipment",
    "source_country": "IR",
    "country": "Iran",
    "state": "Qazvin",
    "city": "Buin Zahra"
  },
  {
    "source_id": "ChIJ36TEisABjj8RxVkzgaPZ_R0",
    "name": "WaterSuAb Industrial Group",
    "category": "WaterSuAb Industrial Group",
    "formatted_address": "5,0(3)",
    "phone_number": "+982834226660",
    "source_url": "https://www.google.com/maps/place/WaterSuAb+Industrial+Group/data=!4m7!3m6!1s0x3f8e01c08ac4a4df:0x1dfdd9a3813359c5!8m2!3d36.3263717!4d50.0421803!16s%2Fg%2F11fp31n2wf!19sChIJ36TEisABjj8RxVkzgaPZ_R0?authuser=0&hl=tr&rclk=1",
    "website_url": "",
    "rating_text": "5,0",
    "stars": null,
    "number_of_reviews": null,
    "price_level": "",
    "open_hours": "",
    "extraction_timestamp": "2025-06-07T13:51:14.692Z",
    "source_name": "google",
    "source_query": "Irrigation Equipment",
    "source_country": "IR",
    "country": "Iran",
    "state": "Qazvin",
    "city": "Buin Zahra"
  },
  {
    "source_id": "ChIJsbuHeQDVjD8RXsTUUkcnQbY",
    "name": "هایپر مارکت آریا",
    "category": "هایپر مارکت آریا",
    "formatted_address": "",
    "phone_number": "+989355601058",
    "source_url": "https://www.google.com/maps/place/%D9%87%D8%A7%DB%8C%D9%BE%D8%B1+%D9%85%D8%A7%D8%B1%DA%A9%D8%AA+%D8%A2%D8%B1%DB%8C%D8%A7%E2%80%AD/data=!4m7!3m6!1s0x3f8cd5007987bbb1:0xb641274752d4c45e!8m2!3d35.7638443!4d50.0477175!16s%2Fg%2F11x7bc9vxh!19sChIJsbuHeQDVjD8RXsTUUkcnQbY?authuser=0&hl=tr&rclk=1",
    "website_url": "",
    "rating_text": "",
    "stars": null,
    "number_of_reviews": null,
    "price_level": "",
    "open_hours": "",
    "extraction_timestamp": "2025-06-07T13:51:14.694Z",
    "source_name": "google",
    "source_query": "Irrigation Equipment",
    "source_country": "IR",
    "country": "Iran",
    "state": "Qazvin",
    "city": "Buin Zahra"
  },
  {
    "source_id": "ChIJXXQHlmnVjD8RCzKqTZ6d8GE",
    "name": "ofogh koorosh stores",
    "category": "ofogh koorosh stores",
    "formatted_address": "5,0(2)",
    "phone_number": "+982142701000",
    "source_url": "https://www.google.com/maps/place/ofogh+koorosh+stores/data=!4m7!3m6!1s0x3f8cd5699607745d:0x61f09d9e4daa320b!8m2!3d35.7697259!4d50.0592712!16s%2Fg%2F11glwdbttk!19sChIJXXQHlmnVjD8RCzKqTZ6d8GE?authuser=0&hl=tr&rclk=1",
    "website_url": "",
    "rating_text": "5,0",
    "stars": null,
    "number_of_reviews": null,
    "price_level": "",
    "open_hours": "",
    "extraction_timestamp": "2025-06-07T13:51:14.695Z",
    "source_name": "google",
    "source_query": "Irrigation Equipment",
    "source_country": "IR",
    "country": "Iran",
    "state": "Qazvin",
    "city": "Buin Zahra"
  },
  {
    "source_id": "ChIJv1RgHUTVjD8RWGaKlTbsiXk",
    "name": "فروشگاه امیرحسام محمدی",
    "category": "فروشگاه امیرحسام محمدی",
    "formatted_address": "Bakkal · خیابان معلم غربی پلاک90, Imam Khomeini Blvd24 saat açık · +98 912 272 0109",
    "phone_number": "+989122720109",
    "source_url": "https://www.google.com/maps/place/%D9%81%D8%B1%D9%88%D8%B4%DA%AF%D8%A7%D9%87+%D8%A7%D9%85%DB%8C%D8%B1%D8%AD%D8%B3%D8%A7%D9%85+%D9%85%D8%AD%D9%85%D8%AF%DB%8C%E2%80%AD/data=!4m7!3m6!1s0x3f8cd5441d6054bf:0x7989ec36958a6658!8m2!3d35.7655136!4d50.0536036!16s%2Fg%2F11f6350bvq!19sChIJv1RgHUTVjD8RWGaKlTbsiXk?authuser=0&hl=tr&rclk=1",
    "website_url": "",
    "rating_text": "",
    "stars": null,
    "number_of_reviews": null,
    "price_level": "",
    "open_hours": "",
    "extraction_timestamp": "2025-06-07T13:51:14.697Z",
    "source_name": "google",
    "source_query": "Irrigation Equipment",
    "source_country": "IR",
    "country": "Iran",
    "state": "Qazvin",
    "city": "Buin Zahra"
  },
  {
    "source_id": "ChIJOeO7FKbVjD8RKFckiGJdtr4",
    "name": "سوپر مارکت شادی",
    "category": "سوپر مارکت شادی",
    "formatted_address": "5,0(1)",
    "phone_number": "+989362189231",
    "source_url": "https://www.google.com/maps/place/%D8%B3%D9%88%D9%BE%D8%B1+%D9%85%D8%A7%D8%B1%DA%A9%D8%AA+%D8%B4%D8%A7%D8%AF%DB%8C%E2%80%AD/data=!4m7!3m6!1s0x3f8cd5a614bbe339:0xbeb65d6288245728!8m2!3d35.7683763!4d50.0526441!16s%2Fg%2F11tc8qx3y8!19sChIJOeO7FKbVjD8RKFckiGJdtr4?authuser=0&hl=tr&rclk=1",
    "website_url": "",
    "rating_text": "5,0",
    "stars": null,
    "number_of_reviews": null,
    "price_level": "",
    "open_hours": "",
    "extraction_timestamp": "2025-06-07T13:51:14.717Z",
    "source_name": "google",
    "source_query": "Irrigation Equipment",
    "source_country": "IR",
    "country": "Iran",
    "state": "Qazvin",
    "city": "Buin Zahra"
  },
  {
    "source_id": "ChIJxeZ3GfzVjD8R8WuxYFjy-Xg",
    "name": "اسمال مشتی",
    "category": "اسمال مشتی",
    "formatted_address": "5,0(2)",
    "phone_number": "",
    "source_url": "https://www.google.com/maps/place/%D8%A7%D8%B3%D9%85%D8%A7%D9%84+%D9%85%D8%B4%D8%AA%DB%8C%E2%80%AD/data=!4m7!3m6!1s0x3f8cd5fc1977e6c5:0x78f9f25860b16bf1!8m2!3d35.7695572!4d50.059184!16s%2Fg%2F11pywlysmf!19sChIJxeZ3GfzVjD8R8WuxYFjy-Xg?authuser=0&hl=tr&rclk=1",
    "website_url": "",
    "rating_text": "5,0",
    "stars": null,
    "number_of_reviews": null,
    "price_level": "",
    "open_hours": "",
    "extraction_timestamp": "2025-06-07T13:51:14.718Z",
    "source_name": "google",
    "source_query": "Irrigation Equipment",
    "source_country": "IR",
    "country": "Iran",
    "state": "Qazvin",
    "city": "Buin Zahra"
  },
  {
    "source_id": "ChIJWT_t0vjVjD8RC3pGDY7Te1E",
    "name": "کافه کتاب",
    "category": "کافه کتاب",
    "formatted_address": "Kahve dükkanı · Buin Zahra, بوئین زهرا،استان, Q387+P3XAçık ⋅ Kapanış saati: 22:00 · +98 28 3422 7854",
    "phone_number": "+982834227854",
    "source_url": "https://www.google.com/maps/place/%DA%A9%D8%A7%D9%81%D9%87+%DA%A9%D8%AA%D8%A7%D8%A8%E2%80%AD/data=!4m7!3m6!1s0x3f8cd5f8d2ed3f59:0x517bd38e0d467a0b!8m2!3d35.7668692!4d50.0627403!16s%2Fg%2F11rxtwkv6c!19sChIJWT_t0vjVjD8RC3pGDY7Te1E?authuser=0&hl=tr&rclk=1",
    "website_url": "",
    "rating_text": "",
    "stars": null,
    "number_of_reviews": null,
    "price_level": "",
    "open_hours": "",
    "extraction_timestamp": "2025-06-07T13:51:14.719Z",
    "source_name": "google",
    "source_query": "Irrigation Equipment",
    "source_country": "IR",
    "country": "Iran",
    "state": "Qazvin",
    "city": "Buin Zahra"
  }
]
