[
  {
    "source_id": "ChIJ2eWwuqBV8z8RMPaAf6O6vZY",
    "name": "فروشگاه آبیاری و پورتال جامع آبیار",
    "category": "فروشگاه آبیاری و پورتال جامع آبیار",
    "formatted_address": "5,0(2)",
    "phone_number": "+989120839256",
    "source_url": "https://www.google.com/maps/place/%D9%81%D8%B1%D9%88%D8%B4%DA%AF%D8%A7%D9%87+%D8%A2%D8%A8%DB%8C%D8%A7%D8%B1%DB%8C+%D9%88+%D9%BE%D9%88%D8%B1%D8%AA%D8%A7%D9%84+%D8%AC%D8%A7%D9%85%D8%B9+%D8%A2%D8%A8%DB%8C%D8%A7%D8%B1%E2%80%AD/data=!4m7!3m6!1s0x3ff355a0bab0e5d9:0x96bdbaa37f80f630!8m2!3d36.2806554!4d49.9937844!16s%2Fg%2F11j5q1l1g5!19sChIJ2eWwuqBV8z8RMPaAf6O6vZY?authuser=0&hl=tr&rclk=1",
    "website_url": "",
    "rating_text": "5,0",
    "stars": null,
    "number_of_reviews": null,
    "price_level": "",
    "open_hours": "",
    "extraction_timestamp": "2025-06-07T13:51:38.891Z",
    "source_name": "google",
    "source_query": "Irrigation Equipment",
    "source_country": "IR",
    "country": "Iran",
    "state": "Qazvin",
    "city": "Khakali"
  },
  {
    "source_id": "ChIJwTIxS46r9D8RB1gtQHygzn8",
    "name": "فروشگاه ساخمانی پارسان(کاکاوند)",
    "category": "فروشگاه ساخمانی پارسان(کاکاوند)",
    "formatted_address": "5,0(1)",
    "phone_number": "+989122811303",
    "source_url": "https://www.google.com/maps/place/%D9%81%D8%B1%D9%88%D8%B4%DA%AF%D8%A7%D9%87+%D8%B3%D8%A7%D8%AE%D9%85%D8%A7%D9%86%DB%8C+%D9%BE%D8%A7%D8%B1%D8%B3%D8%A7%D9%86%28%DA%A9%D8%A7%DA%A9%D8%A7%D9%88%D9%86%D8%AF%29%E2%80%AD/data=!4m7!3m6!1s0x3ff4ab8e4b3132c1:0x7fcea07c402d5807!8m2!3d36.3129179!4d50.014228!16s%2Fg%2F11kxq69s23!19sChIJwTIxS46r9D8RB1gtQHygzn8?authuser=0&hl=tr&rclk=1",
    "website_url": "",
    "rating_text": "5,0",
    "stars": null,
    "number_of_reviews": null,
    "price_level": "",
    "open_hours": "",
    "extraction_timestamp": "2025-06-07T13:51:38.892Z",
    "source_name": "google",
    "source_query": "Irrigation Equipment",
    "source_country": "IR",
    "country": "Iran",
    "state": "Qazvin",
    "city": "Khakali"
  },
  {
    "source_id": "ChIJL20xl3urjD8RaHiSs7XMdnw",
    "name": "Azad Alborz pump manufacturing",
    "category": "Azad Alborz pump manufacturing",
    "formatted_address": "5,0(1)",
    "phone_number": "+982833559959",
    "source_url": "https://www.google.com/maps/place/Azad+Alborz+pump+manufacturing/data=!4m7!3m6!1s0x3f8cab7b97316d2f:0x7c76ccb5b3927868!8m2!3d36.2460498!4d50.0528647!16s%2Fg%2F11f26qfl5k!19sChIJL20xl3urjD8RaHiSs7XMdnw?authuser=0&hl=tr&rclk=1",
    "website_url": "http://www.azadalborz.com/",
    "rating_text": "5,0",
    "stars": null,
    "number_of_reviews": null,
    "price_level": "",
    "open_hours": "",
    "extraction_timestamp": "2025-06-07T13:51:38.894Z",
    "source_name": "google",
    "source_query": "Irrigation Equipment",
    "source_country": "IR",
    "country": "Iran",
    "state": "Qazvin",
    "city": "Khakali"
  },
  {
    "source_id": "ChIJcR8ccQBViz8RzcIO5H44nMg",
    "name": "روئین آب ایرانیان",
    "category": "روئین آب ایرانیان",
    "formatted_address": "5,0(1)",
    "phone_number": "+982833648013",
    "source_url": "https://www.google.com/maps/place/%D8%B1%D9%88%D8%A6%DB%8C%D9%86+%D8%A2%D8%A8+%D8%A7%DB%8C%D8%B1%D8%A7%D9%86%DB%8C%D8%A7%D9%86%E2%80%AD/data=!4m7!3m6!1s0x3f8b5500711c1f71:0xc89c387ee40ec2cd!8m2!3d36.3263717!4d50.0421803!16s%2Fg%2F11wn7k433v!19sChIJcR8ccQBViz8RzcIO5H44nMg?authuser=0&hl=tr&rclk=1",
    "website_url": "",
    "rating_text": "5,0",
    "stars": null,
    "number_of_reviews": null,
    "price_level": "",
    "open_hours": "",
    "extraction_timestamp": "2025-06-07T13:51:38.894Z",
    "source_name": "google",
    "source_query": "Irrigation Equipment",
    "source_country": "IR",
    "country": "Iran",
    "state": "Qazvin",
    "city": "Khakali"
  },
  {
    "source_id": "ChIJvVTeP6mq9D8R8Xw-XrZT7oo",
    "name": "Aquajoy",
    "category": "Aquajoy",
    "formatted_address": "3,7(3)",
    "phone_number": "+982833680088",
    "source_url": "https://www.google.com/maps/place/Aquajoy/data=!4m7!3m6!1s0x3ff4aaa93fde54bd:0x8aee53b65e3e7cf1!8m2!3d36.3009837!4d50.0122362!16s%2Fg%2F11ck6s4r7h!19sChIJvVTeP6mq9D8R8Xw-XrZT7oo?authuser=0&hl=tr&rclk=1",
    "website_url": "https://elvakala.com/%D8%AA%D8%B5%D9%81%DB%8C%D9%87-%D8%A7%D8%A8-%D8%AF%D8%B1-%D9%82%D8%B2%D9%88%DB%8C%D9%86/",
    "rating_text": "3,7",
    "stars": null,
    "number_of_reviews": null,
    "price_level": "",
    "open_hours": "",
    "extraction_timestamp": "2025-06-07T13:51:38.895Z",
    "source_name": "google",
    "source_query": "Irrigation Equipment",
    "source_country": "IR",
    "country": "Iran",
    "state": "Qazvin",
    "city": "Khakali"
  },
  {
    "source_id": "ChIJ36TEisABjj8RxVkzgaPZ_R0",
    "name": "WaterSuAb Industrial Group",
    "category": "WaterSuAb Industrial Group",
    "formatted_address": "5,0(3)",
    "phone_number": "+982834226660",
    "source_url": "https://www.google.com/maps/place/WaterSuAb+Industrial+Group/data=!4m7!3m6!1s0x3f8e01c08ac4a4df:0x1dfdd9a3813359c5!8m2!3d36.3263717!4d50.0421803!16s%2Fg%2F11fp31n2wf!19sChIJ36TEisABjj8RxVkzgaPZ_R0?authuser=0&hl=tr&rclk=1",
    "website_url": "http://www.watersuab.com/",
    "rating_text": "5,0",
    "stars": null,
    "number_of_reviews": null,
    "price_level": "",
    "open_hours": "",
    "extraction_timestamp": "2025-06-07T13:51:38.896Z",
    "source_name": "google",
    "source_query": "Irrigation Equipment",
    "source_country": "IR",
    "country": "Iran",
    "state": "Qazvin",
    "city": "Khakali"
  },
  {
    "source_id": "ChIJNXCpD0tV8z8R98YWX3quxC0",
    "name": "فروشگاه هیدرولیک، پنوماتیک، لیفتراک، سپراتور کیا صنعت زهرایی kisanatzahraei",
    "category": "فروشگاه هیدرولیک، پنوماتیک، لیفتراک، سپراتور کیا صنعت زهرایی kisanatzahraei",
    "formatted_address": "4,0(2)",
    "phone_number": "+982833574061",
    "source_url": "https://www.google.com/maps/place/%D9%81%D8%B1%D9%88%D8%B4%DA%AF%D8%A7%D9%87+%D9%87%DB%8C%D8%AF%D8%B1%D9%88%D9%84%DB%8C%DA%A9%D8%8C+%D9%BE%D9%86%D9%88%D9%85%D8%A7%D8%AA%DB%8C%DA%A9%D8%8C+%D9%84%DB%8C%D9%81%D8%AA%D8%B1%D8%A7%DA%A9%D8%8C+%D8%B3%D9%BE%D8%B1%D8%A7%D8%AA%D9%88%D8%B1+%DA%A9%DB%8C%D8%A7+%D8%B5%D9%86%D8%B9%D8%AA+%D8%B2%D9%87%D8%B1%D8%A7%DB%8C%DB%8C+kisanatzahraei%E2%80%AD/data=!4m7!3m6!1s0x3ff3554b0fa97035:0x2dc4ae7a5f16c6f7!8m2!3d36.26454!4d49.9879768!16s%2Fg%2F11j1qry8vm!19sChIJNXCpD0tV8z8R98YWX3quxC0?authuser=0&hl=tr&rclk=1",
    "website_url": "https://kiasanatshop.ir/",
    "rating_text": "4,0",
    "stars": null,
    "number_of_reviews": null,
    "price_level": "",
    "open_hours": "",
    "extraction_timestamp": "2025-06-07T13:51:38.897Z",
    "source_name": "google",
    "source_query": "Irrigation Equipment",
    "source_country": "IR",
    "country": "Iran",
    "state": "Qazvin",
    "city": "Khakali"
  },
  {
    "source_id": "ChIJJ-cOYgBV8z8RqirRza3NT64",
    "name": "tasfieh_abe_iran",
    "category": "tasfieh_abe_iran",
    "formatted_address": "5,0(4)",
    "phone_number": "+989127886554",
    "source_url": "https://www.google.com/maps/place/tasfieh_abe_iran/data=!4m7!3m6!1s0x3ff35500620ee727:0xae4fcdadcdd12aaa!8m2!3d36.2719416!4d50.0034642!16s%2Fg%2F11yc0xw_5w!19sChIJJ-cOYgBV8z8RqirRza3NT64?authuser=0&hl=tr&rclk=1",
    "website_url": "",
    "rating_text": "5,0",
    "stars": null,
    "number_of_reviews": null,
    "price_level": "",
    "open_hours": "",
    "extraction_timestamp": "2025-06-07T13:51:38.898Z",
    "source_name": "google",
    "source_query": "Irrigation Equipment",
    "source_country": "IR",
    "country": "Iran",
    "state": "Qazvin",
    "city": "Khakali"
  },
  {
    "source_id": "ChIJgwwjDTOzjD8R-mjFSI-Zz4U",
    "name": "صنایع لوله های آبرسانی قزوین",
    "category": "صنایع لوله های آبرسانی قزوین",
    "formatted_address": "5,0(1)",
    "phone_number": "+989108370015",
    "source_url": "https://www.google.com/maps/place/%D8%B5%D9%86%D8%A7%DB%8C%D8%B9+%D9%84%D9%88%D9%84%D9%87+%D9%87%D8%A7%DB%8C+%D8%A2%D8%A8%D8%B1%D8%B3%D8%A7%D9%86%DB%8C+%D9%82%D8%B2%D9%88%DB%8C%D9%86%E2%80%AD/data=!4m7!3m6!1s0x3f8cb3330d230c83:0x85cf998f48c568fa!8m2!3d36.1275975!4d50.027718!16s%2Fg%2F11fn006vnn!19sChIJgwwjDTOzjD8R-mjFSI-Zz4U?authuser=0&hl=tr&rclk=1",
    "website_url": "http://kishseptic.com/",
    "rating_text": "5,0",
    "stars": null,
    "number_of_reviews": null,
    "price_level": "",
    "open_hours": "",
    "extraction_timestamp": "2025-06-07T13:51:38.899Z",
    "source_name": "google",
    "source_query": "Irrigation Equipment",
    "source_country": "IR",
    "country": "Iran",
    "state": "Qazvin",
    "city": "Khakali"
  },
  {
    "source_id": "ChIJqSAWuFRV8z8RIaVy7u2vzS4",
    "name": "Senator",
    "category": "Senator",
    "formatted_address": "4,8(5)",
    "phone_number": "",
    "source_url": "https://www.google.com/maps/place/Senator/data=!4m7!3m6!1s0x3ff35554b81620a9:0x2ecdafedee72a521!8m2!3d36.2963741!4d50.0180697!16s%2Fg%2F11b76_0pps!19sChIJqSAWuFRV8z8RIaVy7u2vzS4?authuser=0&hl=tr&rclk=1",
    "website_url": "",
    "rating_text": "4,8",
    "stars": null,
    "number_of_reviews": null,
    "price_level": "",
    "open_hours": "",
    "extraction_timestamp": "2025-06-07T13:51:38.899Z",
    "source_name": "google",
    "source_query": "Irrigation Equipment",
    "source_country": "IR",
    "country": "Iran",
    "state": "Qazvin",
    "city": "Khakali"
  },
  {
    "source_id": "ChIJj2AkVz6_jD8RTDkLDVcwOVE",
    "name": "Baran saz Giah Machine - باران ساز گیاه ماشین",
    "category": "Baran saz Giah Machine - باران ساز گیاه ماشین",
    "formatted_address": "",
    "phone_number": "+982832848674",
    "source_url": "https://www.google.com/maps/place/Baran+saz+Giah+Machine+-+%D8%A8%D8%A7%D8%B1%D8%A7%D9%86+%D8%B3%D8%A7%D8%B2+%DA%AF%DB%8C%D8%A7%D9%87+%D9%85%D8%A7%D8%B4%DB%8C%D9%86%E2%80%AD/data=!4m7!3m6!1s0x3f8cbf3e5724608f:0x513930570d0b394c!8m2!3d36.1834772!4d50.2922959!16s%2Fg%2F11j2w7_0yx!19sChIJj2AkVz6_jD8RTDkLDVcwOVE?authuser=0&hl=tr&rclk=1",
    "website_url": "http://giahmachine.com/",
    "rating_text": "",
    "stars": null,
    "number_of_reviews": null,
    "price_level": "",
    "open_hours": "",
    "extraction_timestamp": "2025-06-07T13:51:38.900Z",
    "source_name": "google",
    "source_query": "Irrigation Equipment",
    "source_country": "IR",
    "country": "Iran",
    "state": "Qazvin",
    "city": "Khakali"
  },
  {
    "source_id": "ChIJlVuTRrHLjD8RD03hoiDrfJ4",
    "name": "شرکت آرزوی بهار(کود آلی)",
    "category": "شرکت آرزوی بهار(کود آلی)",
    "formatted_address": "5,0(3)",
    "phone_number": "+982188175083",
    "source_url": "https://www.google.com/maps/place/%D8%B4%D8%B1%DA%A9%D8%AA+%D8%A2%D8%B1%D8%B2%D9%88%DB%8C+%D8%A8%D9%87%D8%A7%D8%B1%28%DA%A9%D9%88%D8%AF+%D8%A2%D9%84%DB%8C%29%E2%80%AD/data=!4m7!3m6!1s0x3f8ccbb146935b95:0x9e7ceb20a2e14d0f!8m2!3d35.9672594!4d50.0656977!16s%2Fg%2F11k50p2lcs!19sChIJlVuTRrHLjD8RD03hoiDrfJ4?authuser=0&hl=tr&rclk=1",
    "website_url": "",
    "rating_text": "5,0",
    "stars": null,
    "number_of_reviews": null,
    "price_level": "",
    "open_hours": "",
    "extraction_timestamp": "2025-06-07T13:51:38.901Z",
    "source_name": "google",
    "source_query": "Irrigation Equipment",
    "source_country": "IR",
    "country": "Iran",
    "state": "Qazvin",
    "city": "Khakali"
  },
  {
    "source_id": "ChIJ1cNMLABV8z8RDieSqR6Cazw",
    "name": "الکترو قارون",
    "category": "الکترو قارون",
    "formatted_address": "5,0(1)",
    "phone_number": "+989121810609",
    "source_url": "https://www.google.com/maps/place/%D8%A7%D9%84%DA%A9%D8%AA%D8%B1%D9%88+%D9%82%D8%A7%D8%B1%D9%88%D9%86%E2%80%AD/data=!4m7!3m6!1s0x3ff355002c4cc3d5:0x3c6b821ea992270e!8m2!3d36.2752597!4d49.9980679!16s%2Fg%2F11x18n1b13!19sChIJ1cNMLABV8z8RDieSqR6Cazw?authuser=0&hl=tr&rclk=1",
    "website_url": "",
    "rating_text": "5,0",
    "stars": null,
    "number_of_reviews": null,
    "price_level": "",
    "open_hours": "",
    "extraction_timestamp": "2025-06-07T13:51:38.901Z",
    "source_name": "google",
    "source_query": "Irrigation Equipment",
    "source_country": "IR",
    "country": "Iran",
    "state": "Qazvin",
    "city": "Khakali"
  },
  {
    "source_id": "ChIJY_6jmBJV8z8R7LVHGLo6Z2A",
    "name": "Haghighi Agriculture instrument ادوات کشاورزی حقیقی",
    "category": "Haghighi Agriculture instrument ادوات کشاورزی حقیقی",
    "formatted_address": "Takım Dükkanı · Qazvin, منطقه ۱، قزوین، استان قزوین،،Açık ⋅ Kapanış saati: 20:00 · +98 912 788 3230",
    "phone_number": "+989127883230",
    "source_url": "https://www.google.com/maps/place/Haghighi+Agriculture+instrument+%D8%A7%D8%AF%D9%88%D8%A7%D8%AA+%DA%A9%D8%B4%D8%A7%D9%88%D8%B1%D8%B2%DB%8C+%D8%AD%D9%82%DB%8C%D9%82%DB%8C%E2%80%AD/data=!4m7!3m6!1s0x3ff3551298a3fe63:0x60673aba1847b5ec!8m2!3d36.2541641!4d50.0050298!16s%2Fg%2F11t7j99wbb!19sChIJY_6jmBJV8z8R7LVHGLo6Z2A?authuser=0&hl=tr&rclk=1",
    "website_url": "https://www.instagram.com/adavat.keshavarzi.haghighi?igsh=MTV3eTR2N2Nxbnp2Ng%3D%3D&utm_source=qr",
    "rating_text": "",
    "stars": null,
    "number_of_reviews": null,
    "price_level": "",
    "open_hours": "",
    "extraction_timestamp": "2025-06-07T13:51:38.902Z",
    "source_name": "google",
    "source_query": "Irrigation Equipment",
    "source_country": "IR",
    "country": "Iran",
    "state": "Qazvin",
    "city": "Khakali"
  }
]
