[
  {
    "source_id": "ChIJ2eWwuqBV8z8RMPaAf6O6vZY",
    "name": "فروشگاه آبیاری و پورتال جامع آبیار",
    "category": "فروشگاه آبیاری و پورتال جامع آبیار",
    "formatted_address": "5,0(2)",
    "phone_number": "+989120839256",
    "source_url": "https://www.google.com/maps/place/%D9%81%D8%B1%D9%88%D8%B4%DA%AF%D8%A7%D9%87+%D8%A2%D8%A8%DB%8C%D8%A7%D8%B1%DB%8C+%D9%88+%D9%BE%D9%88%D8%B1%D8%AA%D8%A7%D9%84+%D8%AC%D8%A7%D9%85%D8%B9+%D8%A2%D8%A8%DB%8C%D8%A7%D8%B1%E2%80%AD/data=!4m7!3m6!1s0x3ff355a0bab0e5d9:0x96bdbaa37f80f630!8m2!3d36.2806554!4d49.9937844!16s%2Fg%2F11j5q1l1g5!19sChIJ2eWwuqBV8z8RMPaAf6O6vZY?authuser=0&hl=tr&rclk=1",
    "website_url": "",
    "rating_text": "5,0",
    "stars": null,
    "number_of_reviews": null,
    "price_level": "",
    "open_hours": "",
    "extraction_timestamp": "2025-06-07T13:51:13.292Z",
    "source_name": "google",
    "source_query": "Irrigation Equipment",
    "source_country": "IR",
    "country": "Iran",
    "state": "Qazvin",
    "city": "Qazvin"
  },
  {
    "source_id": "ChIJwTIxS46r9D8RB1gtQHygzn8",
    "name": "فروشگاه ساخمانی پارسان(کاکاوند)",
    "category": "فروشگاه ساخمانی پارسان(کاکاوند)",
    "formatted_address": "5,0(1)",
    "phone_number": "+989122811303",
    "source_url": "https://www.google.com/maps/place/%D9%81%D8%B1%D9%88%D8%B4%DA%AF%D8%A7%D9%87+%D8%B3%D8%A7%D8%AE%D9%85%D8%A7%D9%86%DB%8C+%D9%BE%D8%A7%D8%B1%D8%B3%D8%A7%D9%86%28%DA%A9%D8%A7%DA%A9%D8%A7%D9%88%D9%86%D8%AF%29%E2%80%AD/data=!4m7!3m6!1s0x3ff4ab8e4b3132c1:0x7fcea07c402d5807!8m2!3d36.3129179!4d50.014228!16s%2Fg%2F11kxq69s23!19sChIJwTIxS46r9D8RB1gtQHygzn8?authuser=0&hl=tr&rclk=1",
    "website_url": "",
    "rating_text": "5,0",
    "stars": null,
    "number_of_reviews": null,
    "price_level": "",
    "open_hours": "",
    "extraction_timestamp": "2025-06-07T13:51:13.293Z",
    "source_name": "google",
    "source_query": "Irrigation Equipment",
    "source_country": "IR",
    "country": "Iran",
    "state": "Qazvin",
    "city": "Qazvin"
  },
  {
    "source_id": "ChIJL20xl3urjD8RaHiSs7XMdnw",
    "name": "Azad Alborz pump manufacturing",
    "category": "Azad Alborz pump manufacturing",
    "formatted_address": "5,0(1)",
    "phone_number": "+982833559959",
    "source_url": "https://www.google.com/maps/place/Azad+Alborz+pump+manufacturing/data=!4m7!3m6!1s0x3f8cab7b97316d2f:0x7c76ccb5b3927868!8m2!3d36.2460498!4d50.0528647!16s%2Fg%2F11f26qfl5k!19sChIJL20xl3urjD8RaHiSs7XMdnw?authuser=0&hl=tr&rclk=1",
    "website_url": "",
    "rating_text": "5,0",
    "stars": null,
    "number_of_reviews": null,
    "price_level": "",
    "open_hours": "",
    "extraction_timestamp": "2025-06-07T13:51:13.294Z",
    "source_name": "google",
    "source_query": "Irrigation Equipment",
    "source_country": "IR",
    "country": "Iran",
    "state": "Qazvin",
    "city": "Qazvin"
  },
  {
    "source_id": "ChIJZRjxI-pV8z8RlhyxSEtS7pg",
    "name": "اندیشه نوین آب اوان",
    "category": "اندیشه نوین آب اوان",
    "formatted_address": "5,0(2)",
    "phone_number": "+982833995082",
    "source_url": "https://www.google.com/maps/place/%D8%A7%D9%86%D8%AF%DB%8C%D8%B4%D9%87+%D9%86%D9%88%DB%8C%D9%86+%D8%A2%D8%A8+%D8%A7%D9%88%D8%A7%D9%86%E2%80%AD/data=!4m7!3m6!1s0x3ff355ea23f11865:0x98ee524b48b11c96!8m2!3d36.2809487!4d50.00524!16s%2Fg%2F11j2xh8tgl!19sChIJZRjxI-pV8z8RlhyxSEtS7pg?authuser=0&hl=tr&rclk=1",
    "website_url": "",
    "rating_text": "5,0",
    "stars": null,
    "number_of_reviews": null,
    "price_level": "",
    "open_hours": "",
    "extraction_timestamp": "2025-06-07T13:51:13.294Z",
    "source_name": "google",
    "source_query": "Irrigation Equipment",
    "source_country": "IR",
    "country": "Iran",
    "state": "Qazvin",
    "city": "Qazvin"
  },
  {
    "source_id": "ChIJY_6jmBJV8z8R7LVHGLo6Z2A",
    "name": "Haghighi Agriculture instrument ادوات کشاورزی حقیقی",
    "category": "Haghighi Agriculture instrument ادوات کشاورزی حقیقی",
    "formatted_address": "Takım Dükkanı · Qazvin, منطقه ۱، قزوین، استان قزوین،،Açık ⋅ Kapanış saati: 20:00 · +98 912 788 3230",
    "phone_number": "+989127883230",
    "source_url": "https://www.google.com/maps/place/Haghighi+Agriculture+instrument+%D8%A7%D8%AF%D9%88%D8%A7%D8%AA+%DA%A9%D8%B4%D8%A7%D9%88%D8%B1%D8%B2%DB%8C+%D8%AD%D9%82%DB%8C%D9%82%DB%8C%E2%80%AD/data=!4m7!3m6!1s0x3ff3551298a3fe63:0x60673aba1847b5ec!8m2!3d36.2541641!4d50.0050298!16s%2Fg%2F11t7j99wbb!19sChIJY_6jmBJV8z8R7LVHGLo6Z2A?authuser=0&hl=tr&rclk=1",
    "website_url": "",
    "rating_text": "",
    "stars": null,
    "number_of_reviews": null,
    "price_level": "",
    "open_hours": "",
    "extraction_timestamp": "2025-06-07T13:51:13.295Z",
    "source_name": "google",
    "source_query": "Irrigation Equipment",
    "source_country": "IR",
    "country": "Iran",
    "state": "Qazvin",
    "city": "Qazvin"
  },
  {
    "source_id": "ChIJvVTeP6mq9D8R8Xw-XrZT7oo",
    "name": "Aquajoy",
    "category": "Aquajoy",
    "formatted_address": "3,7(3)",
    "phone_number": "+982833680088",
    "source_url": "https://www.google.com/maps/place/Aquajoy/data=!4m7!3m6!1s0x3ff4aaa93fde54bd:0x8aee53b65e3e7cf1!8m2!3d36.3009837!4d50.0122362!16s%2Fg%2F11ck6s4r7h!19sChIJvVTeP6mq9D8R8Xw-XrZT7oo?authuser=0&hl=tr&rclk=1",
    "website_url": "",
    "rating_text": "3,7",
    "stars": null,
    "number_of_reviews": null,
    "price_level": "",
    "open_hours": "",
    "extraction_timestamp": "2025-06-07T13:51:13.295Z",
    "source_name": "google",
    "source_query": "Irrigation Equipment",
    "source_country": "IR",
    "country": "Iran",
    "state": "Qazvin",
    "city": "Qazvin"
  },
  {
    "source_id": "ChIJgwwjDTOzjD8R-mjFSI-Zz4U",
    "name": "صنایع لوله های آبرسانی قزوین",
    "category": "صنایع لوله های آبرسانی قزوین",
    "formatted_address": "5,0(1)",
    "phone_number": "+989108370015",
    "source_url": "https://www.google.com/maps/place/%D8%B5%D9%86%D8%A7%DB%8C%D8%B9+%D9%84%D9%88%D9%84%D9%87+%D9%87%D8%A7%DB%8C+%D8%A2%D8%A8%D8%B1%D8%B3%D8%A7%D9%86%DB%8C+%D9%82%D8%B2%D9%88%DB%8C%D9%86%E2%80%AD/data=!4m7!3m6!1s0x3f8cb3330d230c83:0x85cf998f48c568fa!8m2!3d36.1275975!4d50.027718!16s%2Fg%2F11fn006vnn!19sChIJgwwjDTOzjD8R-mjFSI-Zz4U?authuser=0&hl=tr&rclk=1",
    "website_url": "",
    "rating_text": "5,0",
    "stars": null,
    "number_of_reviews": null,
    "price_level": "",
    "open_hours": "",
    "extraction_timestamp": "2025-06-07T13:51:13.296Z",
    "source_name": "google",
    "source_query": "Irrigation Equipment",
    "source_country": "IR",
    "country": "Iran",
    "state": "Qazvin",
    "city": "Qazvin"
  },
  {
    "source_id": "ChIJgdQP1GKr9D8R3TSqQkUGjYg",
    "name": "برق خورشیدی سولار آفتابیش",
    "category": "برق خورشیدی سولار آفتابیش",
    "formatted_address": "5,0(3)",
    "phone_number": "+982833798468",
    "source_url": "https://www.google.com/maps/place/%D8%A8%D8%B1%D9%82+%D8%AE%D9%88%D8%B1%D8%B4%DB%8C%D8%AF%DB%8C+%D8%B3%D9%88%D9%84%D8%A7%D8%B1+%D8%A2%D9%81%D8%AA%D8%A7%D8%A8%DB%8C%D8%B4%E2%80%AD/data=!4m7!3m6!1s0x3ff4ab62d40fd481:0x888d064542aa34dd!8m2!3d36.2748861!4d49.9953176!16s%2Fg%2F11s7ttfhk7!19sChIJgdQP1GKr9D8R3TSqQkUGjYg?authuser=0&hl=tr&rclk=1",
    "website_url": "",
    "rating_text": "5,0",
    "stars": null,
    "number_of_reviews": null,
    "price_level": "",
    "open_hours": "",
    "extraction_timestamp": "2025-06-07T13:51:13.296Z",
    "source_name": "google",
    "source_query": "Irrigation Equipment",
    "source_country": "IR",
    "country": "Iran",
    "state": "Qazvin",
    "city": "Qazvin"
  },
  {
    "source_id": "ChIJj2AkVz6_jD8RTDkLDVcwOVE",
    "name": "Baran saz Giah Machine - باران ساز گیاه ماشین",
    "category": "Baran saz Giah Machine - باران ساز گیاه ماشین",
    "formatted_address": "",
    "phone_number": "+982832848674",
    "source_url": "https://www.google.com/maps/place/Baran+saz+Giah+Machine+-+%D8%A8%D8%A7%D8%B1%D8%A7%D9%86+%D8%B3%D8%A7%D8%B2+%DA%AF%DB%8C%D8%A7%D9%87+%D9%85%D8%A7%D8%B4%DB%8C%D9%86%E2%80%AD/data=!4m7!3m6!1s0x3f8cbf3e5724608f:0x513930570d0b394c!8m2!3d36.1834772!4d50.2922959!16s%2Fg%2F11j2w7_0yx!19sChIJj2AkVz6_jD8RTDkLDVcwOVE?authuser=0&hl=tr&rclk=1",
    "website_url": "",
    "rating_text": "",
    "stars": null,
    "number_of_reviews": null,
    "price_level": "",
    "open_hours": "",
    "extraction_timestamp": "2025-06-07T13:51:13.297Z",
    "source_name": "google",
    "source_query": "Irrigation Equipment",
    "source_country": "IR",
    "country": "Iran",
    "state": "Qazvin",
    "city": "Qazvin"
  },
  {
    "source_id": "ChIJpwiqMwBV8z8R9AOAlaJ3Lvg",
    "name": "فروشگاه کشاورزی عقیلی",
    "category": "فروشگاه کشاورزی عقیلی",
    "formatted_address": "Tarımsal Ekipman Tedarikçisi · Rah Ahan, Sardar Bozorg Ancient Water reservoir",
    "phone_number": "",
    "source_url": "https://www.google.com/maps/place/%D9%81%D8%B1%D9%88%D8%B4%DA%AF%D8%A7%D9%87+%DA%A9%D8%B4%D8%A7%D9%88%D8%B1%D8%B2%DB%8C+%D8%B9%D9%82%DB%8C%D9%84%DB%8C%E2%80%AD/data=!4m7!3m6!1s0x3ff3550033aa08a7:0xf82e77a2958003f4!8m2!3d36.2562832!4d50.0048729!16s%2Fg%2F11vyj8dd41!19sChIJpwiqMwBV8z8R9AOAlaJ3Lvg?authuser=0&hl=tr&rclk=1",
    "website_url": "",
    "rating_text": "",
    "stars": null,
    "number_of_reviews": null,
    "price_level": "",
    "open_hours": "",
    "extraction_timestamp": "2025-06-07T13:51:13.297Z",
    "source_name": "google",
    "source_query": "Irrigation Equipment",
    "source_country": "IR",
    "country": "Iran",
    "state": "Qazvin",
    "city": "Qazvin"
  },
  {
    "source_id": "ChIJLRaEfDpV8z8RIj34r8LHYx8",
    "name": "آکواریوم خیام",
    "category": "آکواریوم خیام",
    "formatted_address": "4,3(12)",
    "phone_number": "+982833240101",
    "source_url": "https://www.google.com/maps/place/%D8%A2%DA%A9%D9%88%D8%A7%D8%B1%DB%8C%D9%88%D9%85+%D8%AE%DB%8C%D8%A7%D9%85%E2%80%AD/data=!4m7!3m6!1s0x3ff3553a7c84162d:0x1f63c7c2aff83d22!8m2!3d36.2709943!4d50.0079875!16s%2Fg%2F11b7yvhxcy!19sChIJLRaEfDpV8z8RIj34r8LHYx8?authuser=0&hl=tr&rclk=1",
    "website_url": "",
    "rating_text": "4,3",
    "stars": null,
    "number_of_reviews": null,
    "price_level": "",
    "open_hours": "",
    "extraction_timestamp": "2025-06-07T13:51:13.298Z",
    "source_name": "google",
    "source_query": "Irrigation Equipment",
    "source_country": "IR",
    "country": "Iran",
    "state": "Qazvin",
    "city": "Qazvin"
  },
  {
    "source_id": "ChIJt95bGQBV8z8RFE1aPp4gRRg",
    "name": "یاران شعله",
    "category": "یاران شعله",
    "formatted_address": "",
    "phone_number": "+989127823756",
    "source_url": "https://www.google.com/maps/place/%DB%8C%D8%A7%D8%B1%D8%A7%D9%86+%D8%B4%D8%B9%D9%84%D9%87%E2%80%AD/data=!4m7!3m6!1s0x3ff35500195bdeb7:0x1845209e3e5a4d14!8m2!3d36.2789311!4d49.9982035!16s%2Fg%2F11ww9chvt_!19sChIJt95bGQBV8z8RFE1aPp4gRRg?authuser=0&hl=tr&rclk=1",
    "website_url": "",
    "rating_text": "",
    "stars": null,
    "number_of_reviews": null,
    "price_level": "",
    "open_hours": "",
    "extraction_timestamp": "2025-06-07T13:51:13.298Z",
    "source_name": "google",
    "source_query": "Irrigation Equipment",
    "source_country": "IR",
    "country": "Iran",
    "state": "Qazvin",
    "city": "Qazvin"
  }
]
